step,t_sec,is_boundary,learn,anomaly,mwl,spike,growth_pct,mr,mp,airspeed,climb,altitude,throttle,heading,pitch,roll,yaw,thr,elev
0.0,0.0,0.0,1.0,1.0,1.0,0.0,nan,nan,nan,21.2753868103,2.02833414078,410.979980469,0.419999986887,288.0,0.797830879688,-11.9616756439,-70.1561889648,0.24869393270502496,1.0
1.0,0.1,0.0,1.0,1.0,1.0,0.0,nan,nan,nan,21.118956033295888,2.7537495774394465,411.11477201863937,0.3968332227858941,288.0,0.2185312659340473,2.037808586536324,-70.96621340218118,0.24869393270502496,1.0
2.0,0.2,0.0,1.0,1.0,1.0,0.0,nan,nan,nan,20.96252525629178,3.479165014098893,411.2495635682788,0.3736664586847883,288.0,0.183815330267,2.86309146881,-71.0142974854,0.24869393270502496,1.0
3.0,0.3,0.0,1.0,1.0,1.0,0.0,nan,nan,nan,20.80609447928767,4.20458045075834,411.3843551179182,0.3504996945836824,288.0,0.183815330267,2.86309146881,-71.0142974854,0.24869393270502496,1.0
4.0,0.4,0.0,1.0,1.0,1.0,0.0,nan,nan,nan,20.64966370228356,4.929995887417786,411.5191466675576,0.3273329304825766,288.0,0.183815330267,2.86309146881,-71.0142974854,0.24869393270502496,1.0
5.0,0.5,0.0,1.0,1.0,1.0,0.0,nan,nan,nan,20.49541090353731,5.307104804175218,411.6268999489663,0.3024664549268614,288.1883386789451,0.183815330267,2.86309146881,-71.0142974854,0.24869393270502496,1.0
6.0,0.6000000000000001,0.0,1.0,0.925000011920929,0.9962500005960464,0.0,nan,nan,nan,20.347629102694903,4.649359147867908,411.6543197484349,0.2725499614381261,288.93625098644645,-0.8175314652164158,19.587648315502985,-71.10482913321006,0.24869393270502496,1.0
7.0,0.7000000000000001,0.0,1.0,1.0,0.9964375005662441,0.0,nan,nan,nan,20.199847301852508,3.9916134915605976,411.6817395479034,0.2426334679493909,289.6841632939478,-1.26719081402,27.1075782776,-71.1456604004,0.24869393270502496,1.0
8.0,0.8,0.0,1.0,1.0,0.9966156255379319,0.0,nan,nan,nan,20.052065501010105,3.333867835253288,411.709159347372,0.2127169744606556,290.4320756014491,-1.26719081402,27.1075782776,-71.1456604004,0.24869393270502496,1.0
9.0,0.9,0.0,1.0,1.0,0.9967848442610353,0.0,nan,nan,nan,19.90563122967141,2.597645808655941,411.6902913017298,0.1860960511965999,291.1951973132142,-1.26719081402,27.1075782776,-71.1456604004,0.24869393270502496,1.0
10.0,1.0,0.0,1.0,1.0,0.9969456020479835,0.0,nan,nan,nan,19.76344888218352,1.6138035632488503,411.5253690197338,0.1698737972023134,292.0063099807003,-3.504795933130649,29.45919875119661,-69.79626122864084,0.24869393270502496,1.0
11.0,1.1,0.0,1.0,1.0,0.9970983219455843,0.0,nan,nan,nan,19.62126653469563,0.6299613178417589,411.3604467377377,0.1536515432080269,292.8174226481864,-5.64133548737,31.7054748535,-68.4891891479,0.24869393270502496,1.0
12.0,1.2000000000000002,0.0,1.0,0.875,0.9909934058483051,0.0,nan,nan,nan,19.47908418720774,-0.3538809275653327,411.1955244557417,0.1374292892137405,293.6285353156725,-5.64133548737,31.7054748535,-68.4891891479,0.24869393270502496,1.0
13.0,1.3,0.0,1.0,0.699999988079071,0.9764437349598434,0.0,nan,nan,nan,19.362854871106585,-1.0318960805481656,410.94619118300767,0.1214522700498059,294.5698483935938,-5.64133548737,31.7054748535,-68.4891891479,0.24869393270502496,1.0
14.0,1.4,0.0,1.0,0.574999988079071,0.9563715476158047,0.0,nan,nan,nan,19.26855363151372,-1.4515136775363326,410.6255378923744,0.1056824531984768,295.6211696057823,-10.8105831146,35.3671875,-65.1971893311,0.24869393270502496,1.0
15.0,1.5,0.0,1.0,0.925000011920929,0.9548029708310608,0.0,nan,nan,nan,19.174252391920856,-1.8711312745244983,410.3048846017411,0.0899126363471476,296.6724908179708,-10.8105831146,35.3671875,-65.1971893311,0.24869393270502496,1.0
16.0,1.6,0.0,1.0,0.925000011920929,0.9533128228855542,0.0,nan,nan,nan,19.07995115232799,-2.2907488715126654,409.9842313111078,0.0741428194958185,297.7238120301593,-10.8105831146,35.3671875,-65.1971893311,0.24869393270502496,1.0
17.0,1.7000000000000002,0.0,1.0,0.5,0.9306471817412765,0.0,nan,nan,nan,19.024788485749323,-2.6703059725336966,409.5947503879506,0.0649960134786153,298.50039869312485,-11.777829259773489,35.13313279734109,-64.377672084191,0.24869393270502496,1.0
18.0,1.8,0.0,1.0,0.6000000238418579,0.9141148238463055,0.0,nan,nan,nan,18.98357129645468,-3.0355891056128246,409.1807454693599,0.0582090545387609,299.1790946022826,-14.9408359528,34.3681030273,-61.70885849,0.24869393270502496,1.0
19.0,1.9,0.0,1.0,1.0,0.9184090826539902,0.0,nan,nan,nan,18.942354107160035,-3.400872238691953,408.7667405507692,0.0514220955989064,299.85779051144027,-14.9408359528,34.3681030273,-61.70885849,0.24869393270502496,1.0
20.0,2.0,0.0,1.0,1.0,0.9224886285212908,0.0,nan,nan,nan,18.930245995909942,-4.091333641421603,408.29546845202486,0.0448270544031793,300.86215768939417,-15.844696041355116,32.803097256411334,-60.63260137296221,0.24869393270502496,1.0
21.0,2.1,0.0,1.0,1.0,0.9263641970952262,0.0,nan,nan,nan,18.925853992546696,-4.8679918864985385,407.8090162180745,0.0382828859289043,301.9528523917661,-17.0812397003,30.6617469788,-59.1612205505,0.24869393270502496,1.0
22.0,2.2,0.0,1.0,1.0,0.9300459872404649,0.0,nan,nan,nan,18.921461989183445,-5.6446501315754745,407.3225639841241,0.0317387174546293,303.04354709413803,-17.0812397003,30.6617469788,-59.1612205505,0.24869393270502496,1.0
23.0,2.3000000000000003,0.0,1.0,1.0,0.9335436878784417,0.0,nan,nan,nan,18.9170699858202,-6.42130837665241,406.8361117501736,0.0251945489803543,304.13424179651,-17.0812397003,30.6617469788,-59.1612205505,0.24869393270502496,1.0
24.0,2.4000000000000004,0.0,1.0,0.925000011920929,0.933116504080566,0.0,nan,nan,nan,18.925063112433318,-6.945599259308247,406.3249192347169,0.0193987338853666,305.1803797043211,-17.0812397003,30.6617469788,-59.1612205505,0.24869393270502496,1.0
25.0,2.5,0.0,1.0,0.7250000238418579,0.9227106800686306,0.0,nan,nan,nan,18.980725372031205,-6.4985532740245056,405.71850383734807,0.0164832564876756,306.05502294317495,-20.2002239227,24.7323760986,-54.2629928589,0.24869393270502496,1.0
26.0,2.6,0.0,1.0,1.0,0.926575146065199,0.0,nan,nan,nan,19.0363876316291,-6.051507288740763,405.1120884399792,0.0135677790899846,306.9296661820288,-20.2002239227,24.7323760986,-54.2629928589,0.24869393270502496,1.0
27.0,2.7,0.0,1.0,1.0,0.930246388761939,0.0,nan,nan,nan,19.092049891226992,-5.604461303457019,404.5056730426104,0.0106523016922936,307.80430942088265,-20.2002239227,24.7323760986,-54.2629928589,0.24869393270502496,1.0
28.0,2.8000000000000003,0.0,1.0,1.0,0.9337340693238421,0.0,nan,nan,nan,19.14467213224325,-5.817580307432232,403.925092907468,0.0081914479675568,308.7234207397392,-20.938901797267405,22.330779486232554,-52.84590948594711,0.24869393270502496,1.0
29.0,2.9000000000000004,0.0,1.0,1.0,0.9370473658576499,0.0,nan,nan,nan,19.19641816637199,-6.220974829454979,403.3519591198054,0.0058616277818526,309.65534883485134,-21.6839237213,20.0353927612,-51.385345459,0.24869393270502496,1.0
30.0,3.0,0.0,1.0,0.9750000238418579,0.9389449987568603,0.0,nan,nan,nan,19.248164200500725,-6.624369351477725,402.7788253321429,0.0035318075961484,310.5872769299634,-21.6839237213,20.0353927612,-51.385345459,0.24869393270502496,1.0
31.0,3.1,0.0,1.0,0.949999988079071,0.9394977482229708,0.0,nan,nan,nan,19.29991023462946,-7.027763873500472,402.20569154448026,0.0012019874104442,311.5192050250756,-21.6839237213,20.0353927612,-51.385345459,0.24869393270502496,1.0
32.0,3.2,0.0,1.0,0.6499999761581421,0.9250228596197293,0.0,nan,nan,nan,19.36197592112734,-7.33445622821225,401.55868172069626,0.0089753101242043,312.1282187155142,-21.91072991353988,19.3028063413248,-50.84561817361521,0.24869393270502496,1.0
33.0,3.3000000000000003,0.0,1.0,0.15000000596046448,0.886271716936766,0.0,nan,nan,nan,19.435039773754063,-7.538088279818663,400.8329385356381,0.0275160540704926,312.3930864850479,-23.4066066742,14.4740209579,-47.2749519348,0.24869393270502496,1.0
34.0,3.4000000000000004,0.0,1.0,0.125,0.8482081310899277,0.0,nan,nan,nan,19.508103626380787,-7.741720331425076,400.1071953505798,0.0460567980167808,312.6579542545816,-23.4066066742,14.4740209579,-47.2749519348,0.24869393270502496,1.0
35.0,3.5,0.0,1.0,0.125,0.8120477245354312,0.0,nan,nan,nan,19.58116747900751,-7.945352383031487,399.3814521655215,0.0645975419630689,312.92282202411525,-23.4066066742,14.4740209579,-47.2749519348,0.24869393270502496,1.0
36.0,3.6,0.0,1.0,0.15000000596046448,0.7789453386066828,0.0,nan,nan,nan,19.648500643555423,-7.999308703398126,398.66562747657326,0.0964381954845094,313.2033707280082,-23.50956551971932,13.067909885635828,-47.147660023970005,0.24869393270502496,1.0
37.0,3.7,0.0,1.0,0.32499998807907104,0.7562480710803022,0.0,nan,nan,nan,19.71347735121907,-7.991718416719305,397.9538812696709,0.1337477670568711,313.49036742649,-23.733215332,10.0636358261,-46.8713035583,0.24869393270502496,1.0
38.0,3.8,0.0,1.0,0.2750000059604645,0.7321856678243103,0.0,nan,nan,nan,19.77845405888272,-7.984128130040483,397.2421350627685,0.1710573386292329,313.7773641249719,-23.733215332,10.0636358261,-46.8713035583,0.24869393270502496,1.0
39.0,3.9,0.0,1.0,0.30000001192092896,0.7105763850291412,0.0,nan,nan,nan,19.846413229734505,-7.994384195915988,396.5144504813794,0.2097848076651152,314.05755767401297,-23.733215332,10.0636358261,-46.8713035583,0.24869393270502496,1.0
40.0,4.0,0.0,1.0,0.32499998807907104,0.6912975651816377,0.0,nan,nan,nan,19.924689286946656,-8.066374063563813,395.7316321437713,0.2534170436935805,314.31421788324565,-23.330450058,5.18994140625,-45.5372962952,0.24869393270502496,1.0
41.0,4.1000000000000005,0.0,1.0,0.125,0.6629826869225557,0.0,nan,nan,nan,20.0029653441588,-8.138363931211638,394.9488138061632,0.2970492797220461,314.5708780924783,-23.330450058,5.18994140625,-45.5372962952,0.24869393270502496,1.0
42.0,4.2,0.0,1.0,0.07500000298023224,0.6335835527254395,0.0,nan,nan,nan,20.08124140137095,-8.210353798859462,394.1659954685551,0.3406815157505112,314.827538301711,-23.330450058,5.18994140625,-45.5372962952,0.24869393270502496,1.0
43.0,4.3,0.0,1.0,0.07500000298023224,0.6056543752381791,0.0,nan,nan,nan,20.21811418723546,-8.274081853427429,393.4307273267278,0.3797329064330932,315.0,-23.330450058,5.18994140625,-45.5372962952,0.24869393270502496,1.0
44.0,4.4,0.0,1.0,0.20000000298023224,0.5853716566252817,0.0,nan,nan,nan,20.475009182807728,-8.320887443468074,392.7928550583716,0.4094014664801264,315.0,-20.3636169434,3.1237950325,-44.2367134094,0.24869393270502496,1.0
45.0,4.5,0.0,1.0,0.30000001192092896,0.571103074390064,0.0,nan,nan,nan,20.731904178379992,-8.367693033508717,392.1549827900154,0.4390700265271593,315.0,-20.3636169434,3.1237950325,-44.2367134094,0.24869393270502496,1.0
46.0,4.6000000000000005,0.0,1.0,0.32499998807907104,0.5587979200745143,0.0,nan,nan,nan,20.988799173952252,-8.41449862354936,391.5171105216592,0.4687385865741924,315.0,-20.3636169434,3.1237950325,-44.2367134094,0.24869393270502496,1.0
47.0,4.7,0.0,1.0,0.550000011920929,0.558358024666835,0.0,nan,nan,nan,21.191069246219563,-8.498098374290496,391.0634669776914,0.4900715406223385,315.0,-18.352887362529167,3.2426774427539824,-44.54040449848267,0.24869393270502496,1.0
48.0,4.800000000000001,0.0,1.0,0.9750000238418579,0.5791901246255862,0.0,nan,nan,nan,21.39091371254499,-8.58333196045733,390.618004063764,0.5110343541885072,315.0,-15.275302887,3.42244291306,-45.0039634705,0.24869393270502496,1.0
49.0,4.9,0.0,1.0,1.0,0.6002306183943069,0.0,nan,nan,nan,21.590758178870413,-8.668565546624166,390.1725411498365,0.5319971677546755,315.0,-15.275302887,3.42244291306,-45.0039634705,0.24869393270502496,1.0
50.0,5.0,0.0,1.0,1.0,0.6202190874745915,0.0,nan,nan,nan,21.770882711290536,-8.586764463898467,389.7618206769929,0.551530331474457,314.96939361622805,-15.275302887,3.42244291306,-45.0039634705,0.24869393270502496,1.0
51.0,5.1000000000000005,0.0,1.0,1.0,0.639208133100862,0.0,nan,nan,nan,21.831068538572,-7.489041015690093,389.5624073726704,0.562368214966587,314.7526359980648,-11.410256320153575,-0.5629263380077818,-44.89558209542569,0.24869393270502496,1.0
52.0,5.2,0.0,1.0,1.0,0.6572477264458189,0.0,nan,nan,nan,21.89125436585346,-6.391317567481729,389.3629940683479,0.5732060984587168,314.53587837990153,-8.95126438141,-3.08274173737,-44.8265953064,0.24869393270502496,1.0
53.0,5.300000000000001,0.0,1.0,1.0,0.6743853401235279,0.0,nan,nan,nan,21.95144019313492,-5.293594119273354,389.16358076402537,0.584043981950847,314.3191207617383,-8.95126438141,-3.08274173737,-44.8265953064,0.24869393270502496,1.0
54.0,5.4,0.0,1.0,1.0,0.6906660731173515,0.0,nan,nan,nan,22.01162602041638,-4.195870671064991,388.9641674597029,0.5948818654429768,314.102363143575,-8.95126438141,-3.08274173737,-44.8265953064,0.24869393270502496,1.0
55.0,5.5,0.0,1.0,1.0,0.706132769461484,0.0,nan,nan,nan,22.01000620762621,-3.487280344853372,388.8898529408742,0.6012411082451717,313.8758914413205,-8.95126438141,-3.08274173737,-44.8265953064,0.24869393270502496,1.0
56.0,5.6000000000000005,0.0,1.0,1.0,0.7208261309884098,0.0,nan,nan,nan,21.953081104688287,-3.1268964314090413,388.9274800607189,0.6035927471695118,313.64072732461045,-2.11862015724,-2.19324040413,-45.7558784485,0.24869393270502496,1.0
57.0,5.7,0.0,1.0,0.9750000238418579,0.7335348256310822,0.0,nan,nan,nan,21.89615600175037,-2.7665125179647143,388.96510718056345,0.605944386093852,313.40556320790046,-2.11862015724,-2.19324040413,-45.7558784485,0.24869393270502496,1.0
58.0,5.800000000000001,0.0,1.0,0.9750000238418579,0.745608085541621,0.0,nan,nan,nan,21.839230898812453,-2.406128604520384,389.00273430040806,0.6082960250181921,313.1703990911904,-2.11862015724,-2.19324040413,-45.7558784485,0.24869393270502496,1.0
59.0,5.9,0.0,1.0,0.949999988079071,0.7558276806684934,0.0,nan,nan,nan,21.75962124185041,-1.8524327482251373,389.0948943886781,0.6079506376462589,313.0,-2.11862015724,-2.19324040413,-45.7558784485,0.24869393270502496,1.0
60.0,6.0,0.0,1.0,0.925000011920929,0.7642862972311151,0.0,nan,nan,nan,21.62032771448525,-0.7901262781957699,389.3305326611232,0.6005092779325522,313.0,2.97596073151,1.12089192867,-46.771194458,0.24869393270502496,1.0
61.0,6.1000000000000005,0.0,1.0,0.9750000238418579,0.7748219835616522,0.0,nan,nan,nan,21.481034187120084,0.2721801918336068,389.5661709335682,0.5930679182188453,313.0,2.97596073151,1.12089192867,-46.771194458,0.24869393270502496,1.0
62.0,6.2,0.0,1.0,1.0,0.7860808843835696,0.0,nan,nan,nan,21.34174065975492,1.3344866618629745,389.8018092060133,0.5856265585051386,313.0,2.97596073151,1.12089192867,-46.771194458,0.24869393270502496,1.0
63.0,6.300000000000001,0.0,1.0,1.0,0.7967768401643911,0.0,nan,nan,nan,21.19120582734088,2.3013946389722677,390.0556450633775,0.5780924782602936,312.9364164376723,2.97596073151,1.12089192867,-46.771194458,0.24869393270502496,1.0
64.0,6.4,0.0,1.0,1.0,0.8069379981561715,0.0,nan,nan,nan,21.005818345779947,2.9725282208106165,390.36590088619465,0.5702709263983704,312.6756977936361,5.8664560318,3.40187573433,-46.8926239014,0.24869393270502496,1.0
65.0,6.5,0.0,1.0,1.0,0.816591098248363,0.0,nan,nan,nan,20.820430864219013,3.643661802648966,390.6761567090119,0.5624493745364473,312.4149791496,5.8664560318,3.40187573433,-46.8926239014,0.24869393270502496,1.0
66.0,6.6000000000000005,0.0,1.0,1.0,0.8257615433359449,0.0,nan,nan,nan,20.63504338265808,4.314795384487321,390.98641253182905,0.5546278226745239,312.1542605055639,5.8664560318,3.40187573433,-46.8926239014,0.24869393270502496,1.0
67.0,6.7,0.0,1.0,1.0,0.8344734661691476,0.0,nan,nan,nan,20.44972577575251,4.7706364082901525,391.3201520887206,0.546198299642588,312.0950427559746,5.8664560318,3.40187573433,-46.8926239014,0.24869393270502496,1.0
68.0,6.800000000000001,0.0,1.0,1.0,0.8427497928606903,0.0,nan,nan,nan,20.264509418970388,4.914513130224501,391.6879201637021,0.5368878111776625,312.3278048427325,7.15423488617,4.42724990845,-47.1685905457,0.24869393270502496,1.0
69.0,6.9,0.0,1.0,1.0,0.8506123032176558,0.0,nan,nan,nan,20.079293062188267,5.058389852158849,392.0556882386837,0.527577322712737,312.56056692949045,7.15423488617,4.42724990845,-47.1685905457,0.24869393270502496,1.0
70.0,7.0,0.0,1.0,1.0,0.858081688056773,0.0,nan,nan,nan,19.894076705406142,5.202266574093197,392.42345631366527,0.5182668342478116,312.7933290162484,7.15423488617,4.42724990845,-47.1685905457,0.24869393270502496,1.0
71.0,7.1000000000000005,0.0,1.0,1.0,0.8651776036539344,0.0,nan,nan,nan,19.71457106978644,5.31464327273837,392.784510305495,0.509233098222351,313.0255630736726,7.15423488617,4.42724990845,-47.1685905457,0.24869393270502496,1.0
72.0,7.2,0.0,1.0,0.949999988079071,0.8694187228751912,0.0,nan,nan,nan,19.58030079122631,5.177504234168154,393.0923811808558,0.5023915538764111,313.2536145428094,6.918708891362456,5.5207895715592645,-46.80225453858288,0.24869393270502496,1.0
73.0,7.300000000000001,0.0,1.0,1.0,0.8759477867314316,0.0,nan,nan,nan,19.446030512666184,5.0403651955979365,393.4002520562166,0.495550009530471,313.4816660119461,6.74169969559,6.33791637421,-46.5261077881,0.24869393270502496,1.0
74.0,7.4,0.0,1.0,0.9750000238418579,0.8809003985869529,0.0,nan,nan,nan,19.31176023410606,4.90322615702772,393.70812293157735,0.488708465184531,313.70971748108286,6.74169969559,6.33791637421,-46.5261077881,0.24869393270502496,1.0
75.0,7.5,0.0,1.0,0.925000011920929,0.8831053792536516,0.0,nan,nan,nan,19.177489955545933,4.766087118457503,394.0159938069381,0.4818669208385911,313.9377689502196,6.74169969559,6.33791637421,-46.5261077881,0.24869393270502496,1.0
76.0,7.6,0.0,1.0,0.8500000238418579,0.8814501114830618,0.0,nan,nan,nan,19.058908550237955,4.568795350467078,394.2540273561636,0.4755354277391668,314.2232282894845,5.996194882872791,7.892065431813437,-45.95214956374549,0.24869393270502496,1.0
77.0,7.7,0.0,1.0,0.949999988079071,0.8848776053128623,0.0,nan,nan,nan,18.946215050992105,4.348928754156324,394.4658515269776,0.4693953527089748,314.53023233378383,4.87393569946,10.2053823471,-45.0889778137,0.24869393270502496,1.0
78.0,7.800000000000001,0.0,1.0,0.925000011920929,0.8868837256432656,0.0,nan,nan,nan,18.83352155174625,4.129062157845567,394.6776756977917,0.4632552776787828,314.8372363780832,4.87393569946,10.2053823471,-45.0889778137,0.24869393270502496,1.0
79.0,7.9,0.0,1.0,0.925000011920929,0.8887895399571487,0.0,0.8605426161038889,0.8436862384441487,0.8364879035554996,18.7300882281381,3.727132610500361,394.822267123294,0.4609784142057361,315.0,4.87393569946,10.2053823471,-45.0889778137,0.24869393270502496,1.0
80.0,8.0,0.0,1.0,0.925000011920929,0.8906000635553377,0.0,2.095056056793458,0.8500019267603598,0.8325593418426849,18.637104261939488,3.119759784234099,394.8909918468167,0.4630608717530076,315.0,2.73141860962,12.5949010849,-44.7254981995,0.24869393270502496,1.0
81.0,8.1,0.0,1.0,0.8999999761581421,0.8910700591854779,0.0,3.2586568416172357,0.8558143305415511,0.8288063749020458,18.54412029574087,2.512386957967837,394.95971657033937,0.465143329300279,315.0,2.73141860962,12.5949010849,-44.7254981995,0.24869393270502496,1.0
82.0,8.200000000000001,0.0,1.0,0.875,0.8902665562262039,0.0,4.336012799134218,0.8610236141336829,0.8252410563084386,18.45113632954225,1.9050141317015643,395.0284412938621,0.4672257868475505,315.0,2.73141860962,12.5949010849,-44.7254981995,0.24869393270502496,1.0
83.0,8.3,0.0,1.0,0.875,0.8895032284148936,0.0,5.330135243904486,0.865659933546208,0.8218540036445118,18.35815236334364,1.2976413054353024,395.0971660173847,0.469308244394822,315.0,2.73141860962,12.5949010849,-44.7254981995,0.24869393270502496,1.0
84.0,8.4,0.0,1.0,0.8500000238418579,0.8875280681862417,0.0,6.236363230968577,0.8696894370477115,0.8186363036137814,18.28975639805132,0.9753491129888574,395.10980947667247,0.473395352262744,315.3395351633308,1.9743919356125168,13.89085892395556,-44.60461030533696,0.24869393270502496,1.0
85.0,8.5,0.0,1.0,0.800000011920929,0.8831516653729761,0.0,7.042597027426045,0.8730174654039421,0.8155794885845874,18.233590834576027,0.7948598558503539,395.09455736207394,0.4784796001184839,315.84795967616043,0.970939218998,15.4506664276,-44.4418029785,0.24869393270502496,1.0
86.0,8.6,0.0,1.0,0.875,0.8827440821043272,0.0,7.767395757912618,0.8758665923423612,0.812738014296919,18.17742527110073,0.6143705987118505,395.0793052474754,0.4835638479742239,316.3563841889901,0.970939218998,15.4506664276,-44.4418029785,0.24869393270502496,1.0
87.0,8.700000000000001,0.0,1.0,0.800000011920929,0.8786068785951573,0.0,8.398939024311682,0.8780732629636617,0.8100386137236341,18.121259707625438,0.4338813415733438,395.0640531328768,0.4886480958299639,316.8648087018197,0.970939218998,15.4506664276,-44.4418029785,0.24869393270502496,1.0
88.0,8.8,0.0,1.0,0.699999988079071,0.869676534069353,0.0,8.909934007033312,0.8794196000240948,0.8074741831790134,18.09357182291804,0.0274327233973209,395.01288283045216,0.4936240798432297,317.5436110643763,0.6108661656655483,16.68345945325198,-44.047705753937606,0.24869393270502496,1.0
89.0,8.9,0.0,1.0,0.8500000238418579,0.8686927085579781,0.0,9.351813025701139,0.880323620291111,0.8050379741616237,18.076199028643867,-0.4608621457436149,394.94870236105976,0.498560848886242,318.28412712705835,-0.637024343014,20.8181591034,-42.6498603821,0.24869393270502496,1.0
90.0,9.0,0.0,1.0,0.925000011920929,0.8715080737261256,0.0,9.750724453489259,0.8809949395745786,0.8027235755951035,18.058826234369693,-0.949157014884551,394.88452189166736,0.5034976179292543,319.02464318974035,-0.637024343014,20.8181591034,-42.6498603821,0.24869393270502496,1.0
91.0,9.1,0.0,1.0,0.925000011920929,0.8741826706358657,0.0,10.108404657290942,0.8814451929236752,0.8005248969569094,18.04145344009552,-1.4374518840254868,394.82034142227496,0.5084343869722666,319.7651592524224,-0.637024343014,20.8181591034,-42.6498603821,0.24869393270502496,1.0
92.0,9.2,0.0,1.0,0.925000011920929,0.8767235377001189,0.0,10.433553167616127,0.8818104336649215,0.7984986522406908,18.05252158456268,-1.7243241729694674,394.7195199138168,0.5159604829844828,320.8940733985968,-1.188420796615978,23.34163478131141,-41.01901821195471,0.24869393270502496,1.0
93.0,9.3,0.0,1.0,0.8999999761581421,0.87788735962302,0.0,10.677856397625762,0.881907412309501,0.7968237197702173,18.07679798958028,-1.917653771773024,394.60168193500846,0.5246890887158953,322.2033635559399,-1.72568845749,25.7922878265,-39.4158935547,0.24869393270502496,1.0
94.0,9.4,0.0,1.0,0.8999999761581421,0.878992990449776,0.0,10.840859086930951,0.8818120419026422,0.7955658672864031,18.10107439459788,-2.11098337057658,394.4838439562002,0.5334176944473076,323.51265371328304,-1.72568845749,25.7922878265,-39.4158935547,0.24869393270502496,1.0
95.0,9.5,0.0,1.0,0.875,0.8787933409272871,0.0,10.980454060445833,0.8815964399863239,0.7943709074267796,18.125350799615475,-2.3043129693801365,394.3660059773919,0.54214630017872,324.8219438706262,-1.72568845749,25.7922878265,-39.4158935547,0.24869393270502496,1.0
96.0,9.6,0.0,1.0,0.8999999761581421,0.8798536726888297,0.0,11.13797377041297,0.8815166180466123,0.7931731955700714,18.15447480929322,-2.45563577751665,394.2425399984393,0.5513014819628639,326.1561763677881,-1.72568845749,25.7922878265,-39.4158935547,0.24869393270502496,1.0
97.0,9.7,0.0,1.0,0.949999988079071,0.8833609884583418,0.0,11.23539284155118,0.8814407872038863,0.7924103692962645,18.227114593583924,-2.229873785419984,394.068552823356,0.5642859338024943,327.7143102170535,-2.465413444914597,32.02366490740987,-34.74141660313661,0.24869393270502496,1.0
98.0,9.8,0.0,1.0,1.0,0.8891929390354247,0.0,11.313718394380958,0.8815562478734942,0.7919565176595471,18.299754377874628,-2.004111793323318,393.8945656482726,0.5772703856421246,329.2724440663188,-2.56790947914,32.8901748657,-33.9562797546,0.24869393270502496,1.0
99.0,9.9,0.0,1.0,0.949999988079071,0.892233291487607,0.0,11.404903698629765,0.8817284354500171,0.7914628586145998,18.372394162165328,-1.778349801226652,393.7205784731892,0.590254837481755,330.83057791558423,-2.56790947914,32.8901748657,-33.9562797546,0.24869393270502496,1.0
100.0,10.0,0.0,1.0,1.0,0.8976216269132267,0.0,11.524151538190997,0.8820795136179116,0.7909313825318339,18.46132982328065,-1.677567726633219,393.5416276861209,0.6029137352784004,332.5244685587273,-2.56790947914,32.8901748657,-33.9562797546,0.24869393270502496,1.0
101.0,10.1,0.0,1.0,1.0,0.9027405455675653,0.0,11.68098836551203,0.882663037937016,0.7903431469000047,18.599290906230063,-1.952782184311708,393.3477440927977,0.6145932181924407,334.6267774881845,-2.7138941288,37.5670509338,-27.7432174683,0.24869393270502496,1.0
102.0,10.2,0.0,1.0,0.949999988079071,0.9051035176931406,0.0,11.868695049466762,0.8834048860103628,0.7896801563831004,18.737251989179477,-2.227996641990192,393.1538604994745,0.6262727011064808,336.72908641764167,-2.7138941288,37.5670509338,-27.7432174683,0.24869393270502496,1.0
103.0,10.3,0.0,1.0,1.0,0.9098483418084835,0.0,12.101712278958354,0.8844221416800423,0.7889461487253746,18.875213072128883,-2.5032110996686754,392.95997690615127,0.6379521840205209,338.83139534709886,-2.7138941288,37.5670509338,-27.7432174683,0.24869393270502496,1.0
104.0,10.4,0.0,1.0,0.9750000238418579,0.9131059259101523,0.0,12.372035390143768,0.8857010345662378,0.7881863414604692,19.013174155078296,-2.778425557347159,392.7660933128281,0.649631666934561,340.93370427655606,-2.7138941288,37.5670509338,-27.7432174683,0.24869393270502496,1.0
105.0,10.5,0.0,1.0,0.9750000238418579,0.9162006308067375,0.0,12.675940656923517,0.8873534828379259,0.787527024548875,19.18379985395196,-2.736618663705095,392.605235759215,0.6614624918073938,343.48354495868915,-2.488646452624274,38.78429489584275,-24.797242268700384,0.24869393270502496,1.0
106.0,10.6,0.0,1.0,1.0,0.9203905992664007,0.0,13.019796223341272,0.8892358086960296,0.7867965068161937,19.355489162991468,-2.684489066963221,392.4454535842825,0.6732982446073227,346.0479579634477,-1.99702560902,41.4368019104,-18.3774223328,0.24869393270502496,1.0
107.0,10.7,0.0,1.0,1.0,0.9243710693030807,0.0,13.434705917104994,0.8915240182314257,0.7859358483134141,19.52717847203098,-2.632359470221348,392.28567140935,0.6851339974072513,348.6123709682062,-1.99702560902,41.4368019104,-18.3774223328,0.24869393270502496,1.0
108.0,10.8,0.0,1.0,1.0,0.9281525158379267,0.0,13.96152773435602,0.8944478173198545,0.7848682227258392,19.69886778107049,-2.580229873479475,392.1258892344176,0.69696975020718,351.1767839729648,-1.99702560902,41.4368019104,-18.3774223328,0.24869393270502496,1.0
109.0,10.9,0.0,1.0,1.0,0.9317448900460303,0.0,14.529442076234888,0.8976004263942571,0.7837289784375114,19.87055709011,-2.5281002767376024,391.9661070594851,0.7088055030071087,353.7411969777233,-1.99702560902,41.4368019104,-18.3774223328,0.24869393270502496,1.0
110.0,11.0,0.0,1.0,1.0,0.9351576455437288,0.0,15.100577023559763,0.9007829049851372,0.7826050296869992,20.07466797052365,-2.2835741330977672,391.87242375322256,0.7166006403346152,297.0693225791557,-1.0272580686279151,43.944434291624674,-11.960707830216672,0.24869393270502496,1.0
111.0,11.1,0.0,1.0,1.0,0.9383997632665424,0.0,15.671751417417047,0.903993759616671,0.7815164450605474,20.28241814844311,-2.017451618783303,391.7861599962814,0.7239422215515628,233.74821855158896,-0.119394056499,46.2936058044,-5.96461009979,0.24869393270502496,1.0
112.0,11.2,0.0,1.0,1.0,0.9414797751032152,0.0,16.20574593775298,0.9072315714868259,0.7807114563618872,20.490168326362564,-1.751329104468843,391.6998962393402,0.7312838027685102,170.42711452402335,-0.119394056499,46.2936058044,-5.96461009979,0.24869393270502496,1.0
113.0,11.3,0.0,1.0,1.0,0.9444057863480545,0.0,16.652637151282047,0.9105574928230775,0.7805717170733248,20.69791850428202,-1.4852065901543834,391.6136324823991,0.7386253839854577,107.10601049645771,-0.119394056499,46.2936058044,-5.96461009979,0.24869393270502496,1.0
114.0,11.4,0.0,1.0,1.0,0.9471854970306518,0.0,17.012534416116807,0.9139671181521214,0.7810847980626556,20.905668682201476,-1.2190840758399235,391.52736872545785,0.7459669652024052,43.78490646889208,-0.119394056499,46.2936058044,-5.96461009979,0.24869393270502496,1.0
115.0,11.5,0.0,1.0,1.0,0.9498262221791192,0.0,17.300181193017803,0.917518762214713,0.7821972250025199,21.094800297365627,-0.9581303930896544,391.4750588520242,0.749015437172425,10.18147651986407,-0.119394056499,46.2936058044,-5.96461009979,0.24869393270502496,1.0
116.0,11.6,0.0,1.0,1.0,0.9523349110701632,0.0,17.51083881696835,0.9211428241337797,0.7838790305705556,21.261236353224923,-0.7034773858986996,391.46413790784914,0.7468307170428997,12.803143175578024,1.38723921776,47.2669563293,9.69749546051,0.24869393270502496,1.0
117.0,11.7,0.0,1.0,1.0,0.954718165516655,0.0,17.648031936116098,0.9247106829866953,0.785997579193523,21.427672409084213,-0.4488243787077494,391.4532169636741,0.7446459969133743,15.424809831291936,1.38723921776,47.2669563293,9.69749546051,0.24869393270502496,1.0
118.0,11.8,0.0,1.0,1.0,0.9569822572408223,0.0,17.68745126622872,0.9281001488969651,0.7886143670470416,21.594108464943503,-0.1941713715167992,391.442296019499,0.742461276783849,18.04647648700584,1.38723921776,47.2669563293,9.69749546051,0.24869393270502496,1.0
119.0,11.9,0.0,1.0,0.05000000074505806,0.911633144416034,0.0,17.359887737971324,0.9290701415433865,0.7916419821546826,21.7605445208028,0.0604816356741511,391.431375075324,0.7402765566543236,20.66814314271975,1.38723921776,47.2669563293,9.69749546051,0.24869393270502496,1.0
120.0,12.0,0.0,1.0,0.02500000037252903,0.8673014872138587,0.0,16.661631365163483,0.9275541345584182,0.7950807165168758,21.866314762407885,0.1704413709893627,391.49189735655824,0.736131059242421,23.32137239052417,1.560063554888524,46.940963484393656,13.770071790293525,0.24869393270502496,1.0
121.0,12.1,0.0,1.0,0.05000000074505806,0.8264364128904187,0.0,15.600786518737937,0.9237389279245608,0.799076680827626,21.96329284735589,0.2594310438534823,391.5627737398121,0.7317013908975433,25.979175932065157,1.90413033962,46.2925834656,21.8819580078,0.24869393270502496,1.0
122.0,12.2,0.0,1.0,0.125,0.7913645922458977,0.0,14.242120619591029,0.9180519816521987,0.8036020135770876,22.0602709323039,0.3484207167176005,391.63365012306593,0.7272717225526656,28.63697947360609,1.90413033962,46.2925834656,21.8819580078,0.24869393270502496,1.0
123.0,12.3,0.0,1.0,0.125,0.7580463626336028,0.0,12.587301232387485,0.9104618826934546,0.808671913019926,22.15724901725191,0.4374103895817185,391.70452650631984,0.722842054207788,31.29478301514702,1.90413033962,46.2925834656,21.8819580078,0.24869393270502496,1.0
124.0,12.4,0.0,1.0,0.125,0.7263940445019226,0.0,10.68523383914105,0.9011262886230431,0.8141341508413406,22.230540174513227,0.6011402261579207,391.8098577550799,0.7180997932943739,33.950115732356025,1.90413033962,46.2925834656,21.8819580078,0.24869393270502496,1.0
125.0,12.5,0.0,1.0,0.22499999403953552,0.7013243419788032,0.0,8.598355941330736,0.8903824741816464,0.8198857767816184,22.2614295666785,0.8986617856150987,391.9768663616189,0.7127979631182352,36.6010254482243,4.74927854538,44.9773139954,34.1102256775,0.24869393270502496,1.0
126.0,12.6,0.0,1.0,0.17499999701976776,0.6750081247308514,0.0,6.320408070600782,0.8781133504548689,0.8259123214348165,22.29231895884378,1.196183345072282,392.1438749681578,0.7074961329420963,39.251935164092615,4.74927854538,44.9773139954,34.1102256775,0.24869393270502496,1.0
127.0,12.7,0.0,1.0,0.25,0.6537577184943087,0.0,3.9146217813264115,0.8645826829144304,0.8320125388454207,22.323208351009058,1.49370490452946,392.31088357469673,0.7021943027659576,41.90284487996088,4.74927854538,44.9773139954,34.1102256775,0.24869393270502496,1.0
128.0,12.8,0.0,1.0,0.30000001192092896,0.6360698331656397,0.0,1.450173745651373,0.849978548780816,0.8378285786989597,22.341986977590125,2.1181164645212363,392.5218759088364,0.6982265748872567,44.59607339474413,4.74927854538,44.9773139954,34.1102256775,0.24869393270502496,1.0
129.0,12.9,0.0,1.0,0.22499999403953552,0.6155163412093345,0.0,-1.0893049916243485,0.8341671213389812,0.8433538165598218,22.352213810661475,2.973355362844864,392.7639265401261,0.6952008987136442,47.319184548026485,5.60139608383,46.2124404907,43.6416625977,0.24869393270502496,1.0
130.0,13.0,0.0,1.0,0.32499998807907104,0.6009905235528213,0.0,-3.6700359181519477,0.8174587652394358,0.8486027925276407,22.362440643732825,3.828594261168491,393.0059771714159,0.6921752225400317,50.04229570130883,5.60139608383,46.2124404907,43.6416625977,0.24869393270502496,1.0
131.0,13.1,0.0,1.0,0.25,0.5834409973751802,0.0,-6.311992372552402,0.7997108269448677,0.8535893196970686,22.3692746273087,4.365832018346006,393.2480193157864,0.6875919840825124,52.66220336647006,5.60139608383,46.2124404907,43.6416625977,0.24869393270502496,1.0
132.0,13.2,0.0,1.0,0.25,0.5667689475064212,0.0,-9.011865891923586,0.780975285565028,0.8583265205080253,22.36743061694938,4.089708623508564,393.4900397529061,0.6790249213877362,55.018144343689016,5.80562162399,47.5733070374,52.1104812622,0.24869393270502496,1.0
133.0,13.3,0.0,1.0,0.42500001192092896,0.5596805007271465,0.0,-11.715889308855262,0.7617390212839826,0.8628268612784341,22.36558660659006,3.813585228671122,393.7320601900259,0.6704578586929598,57.374085320907966,5.80562162399,47.5733070374,52.1104812622,0.24869393270502496,1.0
134.0,13.4,0.0,1.0,0.925000011920929,0.5779464762868356,0.0,-14.280337070313871,0.7432770702467918,0.8671021850103224,22.36374259623074,3.5374618338336803,393.9740806271456,0.6618907959981836,59.73002629812692,5.80562162399,47.5733070374,52.1104812622,0.24869393270502496,1.0
135.0,13.5,0.0,1.0,0.75,0.5865491524724937,0.0,-16.764991316753715,0.7251132167614606,0.8711637425556163,22.361898585871412,3.2613384389962388,394.2161010642654,0.6533237333034072,62.085967275345865,5.80562162399,47.5733070374,52.1104812622,0.24869393270502496,1.0
136.0,13.6,0.0,1.0,0.699999988079071,0.5922216942528226,0.0,-19.189760218470777,0.7071075559205935,0.8750222222236456,22.350805600138365,3.2716285684946897,394.44771536137335,0.6436680936752461,64.26637770426353,5.942645342853275,47.72298212309253,54.89393215809575,0.24869393270502496,1.0
137.0,13.7,0.0,1.0,0.5249999761581421,0.5888606083480885,0.0,-21.61056927569522,0.6888146780621652,0.8787086112217384,22.33384964348045,3.4634776380719265,394.6727331552079,0.6333223997813943,66.33551845632171,6.35510015488,48.1740455627,63.4873466492,0.24869393270502496,1.0
138.0,13.8,0.0,1.0,0.4749999940395355,0.5831675776326608,0.0,-24.042166553300593,0.6701239440817571,0.8822315140833917,22.31689368682253,3.6553267076491633,394.89775094904246,0.6229767058875424,68.40465920837988,6.35510015488,48.1740455627,63.4873466492,0.24869393270502496,1.0
139.0,13.9,0.0,1.0,0.5,0.5790091987510277,0.0,-26.14468054237618,0.6534927467985068,0.8848282718125174,22.299937730164626,3.8471757772264,395.122768742877,0.6126310119936906,70.47379996043804,6.35510015488,48.1740455627,63.4873466492,0.24869393270502496,1.0
140.0,14.0,0.0,1.0,0.6499999761581421,0.5825587376213834,0.0,-27.89362399762983,0.639255609318883,0.8865451916455632,22.259491794158915,4.075877829762895,395.3017403634025,0.6050306118278783,72.73928734223983,5.9930591356091725,47.41964269476359,65.57640754942992,0.24869393270502496,1.0
141.0,14.1,0.0,1.0,0.925000011920929,0.5996808013363607,0.0,-29.241155620276018,0.6279178287411802,0.887405432134376,22.211034903511848,4.317148117056624,395.46500853011366,0.5983664586977452,75.07173621096217,4.89226198196,45.3745994568,71.9348297119,0.24869393270502496,1.0
142.0,14.2,0.0,1.0,0.8999999761581421,0.6146967600774497,0.0,-30.24349571399389,0.6190844371327577,0.8874934939320814,22.16257801286478,4.558418404350347,395.62827669682486,0.5917023055676122,77.40418507968448,4.89226198196,45.3745994568,71.9348297119,0.24869393270502496,1.0
143.0,14.3,0.0,1.0,0.949999988079071,0.6314619214775307,0.0,-30.906398304269587,0.6127552150749541,0.886847985973235,22.11578390798258,4.111996699343787,395.762216027775,0.5849692487251733,79.50921895393984,4.712680140729892,45.36312875534183,73.1443491761532,0.24869393270502496,1.0
144.0,14.4,0.0,1.0,0.75,0.637388825403654,0.0,-31.304221766049828,0.6083049541200407,0.8855055867456642,22.06956028173745,3.429637449772976,395.8860930436599,0.5782125519787151,81.53622991097008,3.93361639977,45.3144035339,78.5859451294,0.24869393270502496,1.0
145.0,14.5,0.0,1.0,1.0,0.6555193841334713,0.0,-31.414061251267494,0.6060147062277741,0.8835844741411715,22.02333665549233,2.7472782002021656,396.00997005954486,0.571455855232257,83.56324086800032,3.93361639977,45.3144035339,78.5859451294,0.24869393270502496,1.0
146.0,14.6,0.0,1.0,0.875,0.6664934149267977,0.0,-31.26679457829543,0.6055889707375715,0.8810719171644199,21.9771130292472,2.064918950631343,396.1338470754298,0.5646991584857985,85.59025182503059,3.93361639977,45.3144035339,78.5859451294,0.24869393270502496,1.0
147.0,14.7,0.0,1.0,1.0,0.6831687441804578,0.0,-30.86354801573763,0.6070595220218789,0.878059988036506,21.93161498467821,1.5004344620617824,396.2402338999764,0.558651103518606,87.67445007592003,3.93361639977,45.3144035339,78.5859451294,0.24869393270502496,1.0
148.0,14.8,0.0,1.0,1.0,0.699010306971435,0.0,-30.231436571705412,0.6102065457121686,0.8746153220415884,21.88777407459628,1.205160646848662,396.3066753948585,0.5542214945100237,89.8892566924723,2.22492480278,43.7944641113,87.2898483276,0.24869393270502496,1.0
149.0,14.9,0.0,1.0,1.0,0.7140597916228633,0.0,-29.351579405465337,0.6151337182328451,0.8706970560081164,21.843933164514343,0.9098868316355416,396.37311688974063,0.5497918855014412,92.10406330902455,2.22492480278,43.7944641113,87.2898483276,0.24869393270502496,1.0
150.0,15.0,0.0,1.0,0.9750000238418579,0.727106803233813,0.0,-28.27437911492238,0.6214395322168946,0.8664122032663839,21.80009225443241,0.6146130164224215,396.4395583846228,0.5453622764928588,94.31886992557683,2.22492480278,43.7944641113,87.2898483276,0.24869393270502496,1.0
151.0,15.1,0.0,1.0,0.9750000238418579,0.7395014642642153,0.0,-26.97801567768556,0.6292425555613465,0.861716593161738,21.756251344350478,0.3193392012092959,396.5059998795049,0.5409326674842763,96.53367654212914,2.22492480278,43.7944641113,87.2898483276,0.24869393270502496,1.0
152.0,15.2,0.0,1.0,0.9750000238418579,0.7512763922430974,0.0,-25.47117132973311,0.6384679277981802,0.8566724302389251,21.711738189722,0.2298491404460778,396.53406658199486,0.5306145891063729,98.64244978044252,0.9134398384267136,41.66395994474877,92.83471717072692,0.24869393270502496,1.0
153.0,15.3,0.0,1.0,0.9750000238418579,0.7624625738230354,0.0,-23.818882500551638,0.6486070314529747,0.8514013088055205,21.66704574631976,0.1952419600081661,396.55189866152347,0.5187260458462462,100.72294373488376,0.117066770792,40.3692398071,97.063949585,0.24869393270502496,1.0
154.0,15.4,0.0,1.0,1.0,0.7743394451318837,0.0,-22.204163259075063,0.6584266798952271,0.8463520767671852,21.62235330291752,0.1606347795702544,396.56973074105207,0.5068375025861194,102.80343768932497,0.117066770792,40.3692398071,97.063949585,0.24869393270502496,1.0
155.0,15.5,0.0,1.0,1.0,0.7856224728752895,0.0,-20.56420002710178,0.6683803459153669,0.8414094729874991,21.569167297350116,0.1131690541273929,396.59816795997614,0.4963639450899961,104.5454083502864,0.117066770792,40.3692398071,97.063949585,0.24869393270502496,1.0
156.0,15.6,0.0,1.0,1.0,0.7963413492315251,0.0,-18.88653458535145,0.678586328664302,0.8365889993669952,21.50448370999356,0.0482969484157053,396.6409611646709,0.4878058282812708,105.82912613941082,-0.510038971901,34.35679245,104.131843567,0.24869393270502496,1.0
157.0,15.7,0.0,1.0,1.0,0.8065242817699488,0.0,-17.096729410348306,0.689469512335395,0.8316553827509156,21.43980012263701,-0.016575157295981,396.6837543693655,0.4792477114725457,107.1128439285352,-0.510038971901,34.35679245,104.131843567,0.24869393270502496,1.0
158.0,15.8,0.0,1.0,1.0,0.8161980676814514,0.0,-15.179458605166259,0.7011210368378346,0.8265934469507389,21.37511653528046,-0.0814472630076674,396.7265475740601,0.4706895946638205,108.3965617176596,-0.510038971901,34.35679245,104.131843567,0.24869393270502496,1.0
159.0,15.9,0.0,1.0,0.949999988079071,0.8228881637013323,0.0,-13.161851661141085,0.7133149850853497,0.8214304412639701,21.31043294792391,-0.1463193687193538,396.7693407787548,0.4621314778550954,109.680279506784,-0.510038971901,34.35679245,104.131843567,0.24869393270502496,1.0
160.0,16.0,0.0,1.0,1.0,0.8317437555162657,0.0,-11.089376488698234,0.7257742359800939,0.8162964191650709,21.21816296373888,0.2653531318417321,396.8466551211674,0.451668151825752,110.62488890372197,-0.4813932367450168,33.48861393357783,104.40859890904684,0.24869393270502496,1.0
161.0,16.1,0.0,1.0,0.699999988079071,0.825156567144406,0.0,-9.167888388620161,0.7370480242704962,0.8114399315342523,21.11674364227096,0.8350769850400632,396.93541878529953,0.4405729418333712,111.45702920674884,0.056328676641,21.0577487946,110.609802246,0.24869393270502496,1.0
162.0,16.2,0.0,1.0,0.9750000238418579,0.8326487399792786,0.0,-7.300203249929614,0.7479456232655876,0.8068471015984398,21.01532432080305,1.404800838238374,397.0241824494316,0.4294777318409907,112.28916950977572,0.056328676641,21.0577487946,110.609802246,0.24869393270502496,1.0
163.0,16.3,0.0,1.0,1.0,0.8410163029803146,0.0,-5.497883995967526,0.7584233423407268,0.8025464131494837,20.912596178182177,1.8280345582818385,397.117137565997,0.4187540349824536,113.06229760822416,0.056328676641,21.0577487946,110.609802246,0.24869393270502496,1.0
164.0,16.400000000000002,0.0,1.0,0.9750000238418579,0.8477154890233918,0.0,-3.68719721999618,0.7689396755217137,0.7983774257697739,20.802198829251623,1.392890454159256,397.2346530385558,0.4102072672358643,113.48963608470712,0.313529700041,10.1804170609,113.688682556,0.24869393270502496,1.0
165.0,16.5,0.0,1.0,1.0,0.8553297145722222,0.0,-1.9700083503037042,0.7789301920436512,0.7945835544157821,20.69180148032108,0.9577463500366894,397.35216851111454,0.4016604994892753,113.91697456119005,0.313529700041,10.1804170609,113.688682556,0.24869393270502496,1.0
166.0,16.6,0.0,1.0,0.9750000238418579,0.8613132300357039,0.0,-0.2918146665503635,0.7886711827990965,0.79097937662949,20.581404131390528,0.5226022459141073,397.4696839836733,0.393113731742686,114.344313037673,0.313529700041,10.1804170609,113.688682556,0.24869393270502496,1.0
167.0,16.7,0.0,1.0,1.0,0.8682475685339187,0.0,1.295260087186902,0.7979251240167696,0.787722074389245,20.47100678245998,0.0874581417915407,397.587199456232,0.384566963996097,114.77165151415596,0.313529700041,10.1804170609,113.688682556,0.24869393270502496,1.0
168.0,16.8,0.0,1.0,0.949999988079071,0.8723351895111763,0.0,2.766511598968451,0.8065913681437566,0.7848776372709464,20.366963689739823,-0.0704665502018602,397.6804911027383,0.3791030097575227,114.82060273403133,0.313529700041,10.1804170609,113.688682556,0.24869393270502496,1.0
169.0,16.900000000000002,0.0,1.0,0.625,0.8599684300356174,0.0,4.037627641233262,0.8138868000643944,0.7823004219886944,20.27021234460784,0.0897284421317286,397.745984999304,0.3771766997714791,114.4353403694364,-0.047394040972,-5.2994799614,115.588806152,0.24869393270502496,1.0
170.0,17.0,0.0,1.0,0.925000011920929,0.863220009129883,0.0,5.231318630435842,0.8206924603591979,0.7798937341471559,20.173460999475854,0.2499234344653118,397.81147889586975,0.3752503897854355,114.05007800484148,-0.047394040972,-5.2994799614,115.588806152,0.24869393270502496,1.0
171.0,17.1,0.0,1.0,0.875,0.8638090086733887,0.0,6.3343214232283955,0.8269078375796566,0.7776490473742951,20.076709654343865,0.4101184267989007,397.87697279243554,0.3733240797993918,113.66481564024656,-0.047394040972,-5.2994799614,115.588806152,0.24869393270502496,1.0
172.0,17.2,0.0,1.0,0.699999988079071,0.8556185576436729,0.0,7.293673091057278,0.8321249458496853,0.7755582616166781,19.97995830921188,0.5703134191324839,397.94246668900126,0.3713977698133482,113.27955327565164,-0.047394040972,-5.2994799614,115.588806152,0.24869393270502496,1.0
173.0,17.3,0.0,1.0,0.4749999940395355,0.836587629463466,0.0,8.039543508477065,0.8358311986317069,0.7736345151866783,19.89176704009923,0.6327353891193589,397.99883929879024,0.370000004768,112.7787643796419,-0.047394040972,-5.2994799614,115.588806152,0.24869393270502496,1.0
174.0,17.400000000000002,0.0,1.0,0.625,0.8260082479902926,0.0,8.618368472060066,0.8384146387746273,0.77189028943138,19.82621334468016,0.4365914312317197,398.0310901833605,0.370000004768,111.97245946221396,-0.791158914566,-15.5311107635,113.530303955,0.24869393270502496,1.0
175.0,17.5,0.0,1.0,1.0,0.834707835590778,0.0,9.155918103967505,0.8408689069104017,0.7703374416305134,19.76065964926109,0.2404474733440875,398.0633410679308,0.370000004768,111.16615454478604,-0.791158914566,-15.5311107635,113.530303955,0.24869393270502496,1.0
176.0,17.6,0.0,1.0,1.0,0.8429724438112391,0.0,9.656716288480645,0.8432004616393874,0.7689455695728917,19.695105953842017,0.0443035154564483,398.09559195250097,0.370000004768,110.3598496273581,-0.791158914566,-15.5311107635,113.530303955,0.24869393270502496,1.0
177.0,17.7,0.0,1.0,1.0,0.8508238216206772,0.0,10.128178972832552,0.8454154386319238,0.7676649577947519,19.642582225362503,-0.0490416070032599,398.0784490529637,0.371213035008141,109.3934843015561,-1.1673850618068364,-16.266278400004495,112.7653051212558,0.24869393270502496,1.0
178.0,17.8,0.0,1.0,1.0,0.8582826305396433,0.0,10.577527807987101,0.8475196667748334,0.7664483766055189,19.60056084471486,-0.0595293337855654,398.0214940262095,0.3734037857269008,108.2981078976253,-2.46742296219,-18.7672576904,110.128982544,0.24869393270502496,1.0
179.0,17.900000000000002,0.0,1.0,0.824999988079071,0.8566184984166146,0.0,10.964898438990378,0.8492061835105975,0.7652926244757478,19.558539464067213,-0.0700170605678709,397.9645389994553,0.3755945364456605,107.20273149369449,-2.46742296219,-18.7672576904,110.128982544,0.24869393270502496,1.0
180.0,18.0,0.0,1.0,0.875,0.8575375734957839,0.0,11.293093105685472,0.8504958744095734,0.764194659952465,19.51651808341957,-0.080504787350176,397.9075839727012,0.3777852871644201,106.10735508976371,-2.46742296219,-18.7672576904,110.128982544,0.24869393270502496,1.0
181.0,18.1,0.0,1.0,0.550000011920929,0.8421606954170411,0.0,11.5931711133508,0.8513460808232052,0.7629015936454123,19.47449670277192,-0.0909925141324814,397.8506289459469,0.3799760378831799,105.01197868583291,-2.46742296219,-18.7672576904,110.128982544,0.24869393270502496,1.0
182.0,18.2,0.0,1.0,0.3499999940395355,0.8175526603481658,0.0,11.67099401976333,0.8505912768416496,0.761694014016848,19.45832894781794,-0.4862027377859858,397.69785328559993,0.3853386248720612,104.19920598353671,-3.580347088829828,-18.878350650557795,107.81753469673188,0.24869393270502496,1.0
183.0,18.3,0.0,1.0,0.5249999761581421,0.8029250261386646,0.0,11.589017017813624,0.848686712999567,0.7605468133697119,19.44244704583804,-0.8856666808685677,397.5440181756648,0.3907362815583941,103.38955791488202,-4.63298082352,-18.9812850952,105.598922729,0.24869393270502496,1.0
184.0,18.4,0.0,1.0,0.6499999761581421,0.7952787736396384,0.0,11.403925117874213,0.8460648772303794,0.7594569727549325,19.42656514385813,-1.2851306239511495,397.3901830657297,0.396133938244727,102.57990984622732,-4.63298082352,-18.9812850952,105.598922729,0.24869393270502496,1.0
185.0,18.5,0.0,1.0,0.75,0.7930148349576565,0.0,11.142134110686536,0.842949133249651,0.7584424574843572,19.416924094715714,-1.6022442267020065,397.22871137538135,0.402296410938979,101.69381268164553,-4.63298082352,-18.9812850952,105.598922729,0.24869393270502496,1.0
186.0,18.6,0.0,1.0,0.7749999761581421,0.7921140920176807,0.0,10.829822853612605,0.83948917634875,0.7574578346638456,19.42303633194885,-1.7114874424796005,397.0479632750112,0.4103894475979843,100.61474117002255,-5.28953361511,-17.9164295197,102.319709778,0.24869393270502496,1.0
187.0,18.7,0.0,1.0,0.824999988079071,0.7937583868207502,0.0,10.474543751290964,0.8357647172630915,0.7565224429843596,19.42914856918199,-1.8207306582571905,396.86721517464105,0.4184824842569892,99.53566965839964,-5.28953361511,-17.9164295197,102.319709778,0.24869393270502496,1.0
188.0,18.8,0.0,1.0,0.824999988079071,0.7953204668836662,0.0,10.100928985828238,0.831913981131716,0.7555921542122471,19.43526080641513,-1.9299738740347845,396.6864670742709,0.4265755209159945,98.45659814677668,-5.28953361511,-17.9164295197,102.319709778,0.24869393270502496,1.0
189.0,18.9,0.0,1.0,0.6000000238418579,0.7855544447315758,0.0,9.782317740075097,0.8281932818665139,0.7543958798787402,19.452638684881865,-2.172319762891218,396.5072040480007,0.4325068434419759,97.373290330063,-5.28953361511,-17.9164295197,102.319709778,0.24869393270502496,1.0
190.0,19.0,0.0,1.0,0.75,0.783776722494997,0.0,9.429698455430453,0.8242211175347696,0.7531969192718428,19.478280163367504,-2.512299441867849,396.3290303568251,0.4368525002628175,96.2868750887384,-5.55706691742,-15.5924510956,98.4194335938,0.24869393270502496,1.0
191.0,19.1,0.0,1.0,0.925000011920929,0.7908378869662935,0.0,9.125404631697053,0.8205725614494148,0.7519537400286236,19.503921641853143,-2.8522791208444924,396.1508566656496,0.4411981570836592,95.20045984741375,-5.55706691742,-15.5924510956,98.4194335938,0.24869393270502496,1.0
192.0,19.200000000000003,0.0,1.0,0.8999999761581421,0.7962959914258859,0.0,8.938265509716427,0.8176064331385255,0.7505227197376312,19.529563120338786,-3.192258799821136,395.972682974474,0.445543813904501,94.1140446060891,-5.55706691742,-15.5924510956,98.4194335938,0.24869393270502496,1.0
193.0,19.3,0.0,1.0,0.925000011920929,0.8027311924506381,0.0,8.973627632110038,0.8159136112878841,0.7487257504562214,19.555204598824425,-3.532238478797767,395.7945092832984,0.4498894707253426,93.02762936476448,-5.55706691742,-15.5924510956,98.4194335938,0.24869393270502496,1.0
194.0,19.4,0.0,1.0,0.8999999761581421,0.8075946316360132,0.0,9.14507034572123,0.8149929304701702,0.746706129638882,19.57982985828409,-3.421383619506729,395.63059455576087,0.4540867523414967,92.18264758596936,-5.438490142440694,-14.7840904699332,97.41395524895688,0.24869393270502496,1.0
195.0,19.5,0.0,1.0,0.5249999761581421,0.7934648988621196,0.0,9.149360683262291,0.8129307836337372,0.7447874898624097,19.60442859917492,-3.2987640850514484,395.46705192055686,0.4582801620580125,91.34396609257688,-5.00121498108,-11.810008049,93.7007751465,0.24869393270502496,1.0
196.0,19.6,0.0,1.0,0.4000000059604645,0.7737916542170368,0.0,8.951563207820234,0.8094717441540271,0.742964782074761,19.629027340065747,-3.176144550596163,395.3035092853529,0.4624735717745285,90.50528459918436,-5.00121498108,-11.810008049,93.7007751465,0.24869393270502496,1.0
197.0,19.700000000000003,0.0,1.0,0.44999998807907104,0.7576020709101384,0.0,8.577252895853572,0.8048106566185002,0.7412332096764946,19.653626080956577,-3.0535250161408776,395.1399666501488,0.4666669814910445,89.66660310579186,-5.00121498108,-11.810008049,93.7007751465,0.24869393270502496,1.0
198.0,19.8,0.0,1.0,0.44999998807907104,0.742221966768585,0.0,8.034120373273895,0.7990076234299472,0.7395882158981417,19.673871502751176,-2.910144710964931,394.98338410854575,0.471042988452205,88.89570109153065,-5.00121498108,-11.810008049,93.7007751465,0.24869393270502496,1.0
199.0,19.9,0.0,1.0,0.625,0.7363608684301557,0.0,7.354209703525695,0.7929947419306242,0.7386713051314847,19.677252889087796,-2.686340626638118,394.85376381406576,0.4761263468250469,88.38736552694307,-3.68134140968,-7.3240237236,89.7817840576,0.24869393270502496,1.0
200.0,20.0,0.0,1.0,0.75,0.7370428250086478,0.0,6.5620675272222675,0.7869700045062675,0.7385085732361835,19.680634275424406,-2.462536542311313,394.72414351958577,0.4812097051978886,87.87902996235552,-3.68134140968,-7.3240237236,89.7817840576,0.24869393270502496,1.0
201.0,20.1,0.0,1.0,0.699999988079071,0.735190683162169,0.0,5.800292634045248,0.7816215038935239,0.7387706446116271,19.684015661761023,-2.2387324579844994,394.5945232251058,0.4862930635707305,87.37069439776793,-3.68134140968,-7.3240237236,89.7817840576,0.24869393270502496,1.0
202.0,20.200000000000003,0.0,1.0,0.800000011920929,0.7384311496001069,0.0,5.202644197677199,0.777665428356121,0.7392071124133316,19.679292569775196,-2.0348303053759467,394.48155315205554,0.490000009537,86.94574398050004,-3.68134140968,-7.3240237236,89.7817840576,0.24869393270502496,1.0
203.0,20.3,0.0,1.0,0.625,0.7327595921201016,0.0,4.622181396222166,0.7741571566551928,0.739955090138416,19.652742543447125,-1.884527920650699,394.4134253594673,0.490000009537,86.7453659617571,-1.78307056427,-3.45086312294,87.860534668,0.24869393270502496,1.0
204.0,20.4,0.0,1.0,0.42500001192092896,0.7173716131101429,0.0,3.93448994589538,0.770261798628718,0.7411031689573779,19.62619251711905,-1.734225535925446,394.34529756687897,0.490000009537,86.54498794301415,-1.78307056427,-3.45086312294,87.860534668,0.24869393270502496,1.0
205.0,20.5,0.0,1.0,0.44999998807907104,0.7040030318585893,0.0,3.1213151485818296,0.7658112084737647,0.7426313438403588,19.599642490790988,-1.583923151200198,394.27716977429066,0.490000009537,86.34460992427121,-1.78307056427,-3.45086312294,87.860534668,0.24869393270502496,1.0
206.0,20.6,0.0,1.0,0.75,0.7063028802656598,0.0,2.274767947022921,0.7615206478861636,0.744583109961806,19.57309246446292,-1.4336207664749452,394.2090419817024,0.490000009537,86.14423190552827,-1.78307056427,-3.45086312294,87.860534668,0.24869393270502496,1.0
207.0,20.700000000000003,0.0,1.0,0.6000000238418579,0.7009877374444696,0.0,1.334240385825919,0.7568821154173496,0.7469164544339133,19.54089532856296,-1.2983405376552373,394.1543324454372,0.490000009537,85.93700527955998,-1.78307056427,-3.45086312294,87.860534668,0.24869393270502496,1.0
208.0,20.8,0.0,1.0,0.44999998807907104,0.6884383499761997,0.0,0.26246731479667135,0.7515380095719763,0.7495706316625471,19.494191518422408,-1.2016502315807684,394.1340926269768,0.490000009537,85.71218549150498,0.227314993739,1.54588544369,86.2470550537,0.24869393270502496,1.0
209.0,20.9,0.0,1.0,0.875,0.6977664324773897,0.0,-0.69855913891757,0.7471486089592669,0.7524046000545844,19.44748770828185,-1.104959925506296,394.11385280851647,0.490000009537,85.48736570344997,0.227314993739,1.54588544369,86.2470550537,0.24869393270502496,1.0
210.0,21.0,0.0,1.0,0.824999988079071,0.7041281102574737,0.0,-1.626162088523209,0.7431661783473908,0.7554510367036207,19.400783898141302,-1.0082696194318272,394.0936129900561,0.490000009537,85.26254591539495,0.227314993739,1.54588544369,86.2470550537,0.24869393270502496,1.0
211.0,21.1,0.0,1.0,0.7749999761581421,0.7076717035525071,0.0,-2.6221612489102055,0.7390078691767015,0.7589076515301393,19.35408008800075,-0.911579313357355,394.0733731715957,0.490000009537,85.03772612733994,0.227314993739,1.54588544369,86.2470550537,0.24869393270502496,1.0
212.0,21.200000000000003,0.0,1.0,0.75,0.7097881183748816,0.0,-3.677646434222657,0.7346824755241512,0.7627331022621303,19.31050476023613,-0.6131588518329587,394.07159648428336,0.490000009537,85.16180972114176,0.4564866636906032,2.44684085201944,86.08755432697566,0.24869393270502496,1.0
213.0,21.3,0.0,1.0,0.375,0.6930487124561375,0.0,-4.901719153188648,0.7291983515244262,0.7667839471241885,19.26756026904848,-0.2740609162363822,394.07354275815584,0.490000009537,85.35624724015386,1.1660579443,5.2369685173,85.5935592651,0.24869393270502496,1.0
214.0,21.4,0.0,1.0,0.375,0.6771462768333306,0.0,-6.220448020468711,0.7226759337842921,0.7706114163800082,19.224615777860823,0.0650370193602064,394.0754890320283,0.490000009537,85.55068475916596,1.1660579443,5.2369685173,85.5935592651,0.24869393270502496,1.0
215.0,21.5,0.0,1.0,0.2750000059604645,0.6570389632896873,0.0,-7.519491284091875,0.7158546370056705,0.7740600121531686,19.18167128667317,0.4041349549567831,394.0774353059009,0.490000009537,85.74512227817806,1.1660579443,5.2369685173,85.5935592651,0.24869393270502496,1.0
216.0,21.6,0.0,1.0,0.32499998807907104,0.6404370145291564,0.0,-8.73767608281465,0.7091869050212765,0.7770861781525722,19.138726795485518,0.7432328905533717,394.0793815797733,0.490000009537,85.93955979719016,1.1660579443,5.2369685173,85.5935592651,0.24869393270502496,1.0
217.0,21.700000000000003,0.0,1.0,0.22499999403953552,0.6196651635046754,0.0,-9.951099103572991,0.7022900596510033,0.7798985358619397,19.097010044453054,0.5071600259617449,394.0897123132975,0.490000009537,86.19444361680901,1.1660579443,5.2369685173,85.5935592651,0.24869393270502496,1.0
218.0,21.8,0.0,1.0,0.20000000298023224,0.5986819054784531,0.0,-11.173273026525308,0.6951130565864967,0.7825494423475384,19.055847072153483,0.0116533100144748,394.1038249019824,0.490000009537,86.47659206210335,1.63610386848,6.46418714523,86.5425415039,0.24869393270502496,1.0
219.0,21.9,0.0,1.0,0.25,0.5812478102045304,0.0,-12.45772521380789,0.6873574036752155,0.7851719701755239,19.014684099853916,-0.4838534059328127,394.1179374906673,0.490000009537,86.75874050739772,1.63610386848,6.46418714523,86.5425415039,0.24869393270502496,1.0
220.0,22.0,0.0,1.0,0.25,0.5646854196943039,0.0,-13.837845448127077,0.6787395334094982,0.7877467049653116,18.973082058747732,-0.8673883967009085,394.1316765270973,0.490000009537,87.0,1.63610386848,6.46418714523,86.5425415039,0.24869393270502496,1.0
221.0,22.1,0.0,1.0,0.375,0.5552011487095887,0.0,-15.223335979664526,0.6697400566868692,0.7900052029957417,18.928889354136462,-0.5902500313676873,394.1432114711853,0.490000009537,87.0,1.91485500336,7.65268802643,87.2501983643,0.24869393270502496,1.0
222.0,22.200000000000003,0.0,1.0,0.3499999940395355,0.544941090976086,0.0,-16.665486034282374,0.6600655537556682,0.7920674428211194,18.884696649525196,-0.313111666034466,394.1547464152733,0.490000009537,87.0,1.91485500336,7.65268802643,87.2501983643,0.24869393270502496,1.0
223.0,22.3,0.0,1.0,0.20000000298023224,0.5276940365762933,0.0,-18.134478225909906,0.6498122759784778,0.7937557373318289,18.840503944913927,-0.0359733007012547,394.1662813593613,0.490000009537,87.0,1.91485500336,7.65268802643,87.2501983643,0.24869393270502496,1.0
224.0,22.4,0.0,1.0,0.15000000596046448,0.5088093350455019,0.0,-19.583299990152693,0.6393841620752457,0.7950887837936037,18.807234054249665,0.109086521268176,394.16998291,0.490000009537,87.14596181935694,1.9785922112186891,6.849128360591974,87.62079025148988,0.24869393270502496,1.0
225.0,22.5,0.0,1.0,0.10000000149011612,0.4883688683677325,0.0,-21.01960722996776,0.6286024539007029,0.7958968445890223,18.779125572775897,0.1917346413728404,394.16998291,0.490000009537,87.36089567097088,2.02534747124,6.26765727997,87.8925857544,0.24869393270502496,1.0
226.0,22.6,0.0,1.0,0.07500000298023224,0.46770042509835746,0.0,-22.583098414328074,0.6166723311423378,0.7965603356780033,18.751017091302128,0.2743827614775077,394.16998291,0.490000009537,87.5758295225848,2.02534747124,6.26765727997,87.8925857544,0.24869393270502496,1.0
227.0,22.700000000000003,0.0,1.0,0.15000000596046448,0.4518154041414628,0.0,-24.175420097544837,0.6042137144771874,0.7968573188990702,18.72290860982836,0.357030881582175,394.16998291,0.490000009537,87.79076337419873,2.02534747124,6.26765727997,87.8925857544,0.24869393270502496,1.0
228.0,22.8,0.0,1.0,0.10000000149011612,0.43422463400889544,0.0,-25.754104858909823,0.5915030286788222,0.7966811196158163,18.69516470122825,0.4316476817037504,394.1695088994597,0.490000009537,88.0,2.02534747124,6.26765727997,87.8925857544,0.24869393270502496,1.0
229.0,22.9,0.0,1.0,0.125,0.4187634023084506,0.0,-27.48041917805807,0.5775528771703753,0.7964095636300584,18.680810115862243,0.2113057862693841,394.1516263519749,0.490000009537,88.0,1.3233643289026296,4.115028037258956,88.27092181773217,0.24869393270502496,1.0
230.0,23.0,0.0,1.0,0.22499999403953552,0.40907523189500483,0.0,-29.298814441015168,0.5628002332522518,0.7960265854137861,18.66645553049624,-0.0090361091649744,394.1337438044901,0.490000009537,88.0,1.19066345692,3.70634078979,88.342124939,0.24869393270502496,1.0
231.0,23.1,0.0,1.0,0.20000000298023224,0.39862147044926616,0.0,-31.194165642146555,0.5473477215970898,0.7954960894019243,18.652100945130226,-0.2293780045993408,394.1158612570053,0.490000009537,88.0,1.19066345692,3.70634078979,88.342124939,0.24869393270502496,1.0
232.0,23.200000000000003,0.0,1.0,0.17499999701976776,0.38744039677779124,0.0,-33.162147857187634,0.5312303355172353,0.7948046181707874,18.63943334244725,-0.3844869735203127,394.0969662096929,0.490379914805735,88.0,1.19066345692,3.70634078979,88.342124939,0.24869393270502496,1.0
