step,t_sec,is_boundary,learn,anomaly,mwl,spike,growth_pct,mr,mp,airspeed,climb,altitude,throttle,heading,pitch,roll,yaw,thr,elev
0.0,0.0,0.0,1.0,1.0,1.0,0.0,nan,nan,nan,20.8979206085,-5.90029573441,437.679992676,0.0399999991059,332.0,-21.0012950897,37.3013114929,-35.5745239258,0.09393739008804523,1.0
1.0,0.1,0.0,1.0,1.0,1.0,0.0,nan,nan,nan,20.874918701213375,-5.7166697241208215,437.1714902145004,0.0399999991059,333.2504146374938,-20.771643401873657,36.66447434793456,-30.827853091899843,0.09393739008804523,1.0
2.0,0.2,0.0,1.0,1.0,1.0,0.0,nan,nan,nan,20.851916793926755,-5.533043713831643,436.6629877530008,0.0399999991059,334.5008292749876,-20.6317996979,36.2776069641,-27.971660614,0.09393739008804523,1.0
3.0,0.3,0.0,1.0,1.0,1.0,0.0,nan,nan,nan,20.82891488664013,-5.349417703542464,436.1544852915013,0.0399999991059,335.75124391248136,-20.6317996979,36.2776069641,-27.971660614,0.09393739008804523,1.0
4.0,0.4,0.0,1.0,1.0,1.0,0.0,nan,nan,nan,20.805912979353508,-5.1657916932532855,435.64598283000174,0.0399999991059,337.0016585499752,-20.6317996979,36.2776069641,-27.971660614,0.09393739008804523,1.0
5.0,0.5,0.0,1.0,0.15000000596046448,0.9575000002980232,0.0,nan,nan,nan,20.782733551797147,-5.049237959697258,435.145775857071,0.0399999991059,338.33173762704496,-20.6317996979,36.2776069641,-27.971660614,0.09393739008804523,1.0
6.0,0.6000000000000001,0.0,1.0,0.15000000596046448,0.9171250005811452,0.0,nan,nan,nan,20.758851051275037,-5.198325465824784,434.6784233506135,0.0399999991059,339.97732948403507,-19.6274833679,35.7420692444,-21.0286083221,0.09393739008804523,1.0
7.0,0.7000000000000001,0.0,1.0,0.25,0.8837687505520878,0.0,nan,nan,nan,20.73496855075292,-5.34741297195231,434.2110708441559,0.0399999991059,341.6229213410252,-19.6274833679,35.7420692444,-21.0286083221,0.09393739008804523,1.0
8.0,0.8,0.0,1.0,0.15000000596046448,0.8470803133225066,0.0,nan,nan,nan,20.705379085934315,-5.490168376925685,433.7286236933494,0.0407250269619845,343.32626254253006,-19.6274833679,35.7420692444,-21.0286083221,0.09393739008804523,1.0
9.0,0.9,0.0,1.0,0.15000000596046448,0.8122262979544044,0.0,nan,nan,nan,20.646521269323987,-5.600449395424571,433.168763168633,0.0451683837313445,345.3257731334311,-21.2510375977,36.9259910583,-16.0560913086,0.09393739008804523,1.0
10.0,1.0,0.0,1.0,0.25,0.784114983056684,0.0,nan,nan,nan,20.58766345271366,-5.710730413923456,432.6089026439167,0.0496117405007045,347.32528372433217,-21.2510375977,36.9259910583,-16.0560913086,0.09393739008804523,1.0
11.0,1.1,0.0,1.0,0.20000000298023224,0.7549092340528614,0.0,nan,nan,nan,20.52880563610333,-5.821011432422342,432.0490421192003,0.0540550972700645,349.3247943152332,-21.2510375977,36.9259910583,-16.0560913086,0.09393739008804523,1.0
12.0,1.2000000000000002,0.0,1.0,0.17499999701976776,0.7259137722012066,0.0,nan,nan,nan,20.469947819493004,-5.931292450921228,431.489181594484,0.0584984540394245,351.3243049061343,-21.2510375977,36.9259910583,-16.0560913086,0.09393739008804523,1.0
13.0,1.3,0.0,1.0,0.5,0.7146180835911462,0.0,nan,nan,nan,20.45576969937296,-5.886581746000258,430.8924892306197,0.0599999986589,305.12431098645993,-21.263865285736703,36.99661780456599,-15.853699055051678,0.09393739008804523,1.0
14.0,1.4,0.0,1.0,0.875,0.7226371794115888,0.0,nan,nan,nan,20.46439676002131,-5.762760963172566,430.276997348948,0.0599999986589,234.32257400100983,-21.8639202118,40.733959198,-7.37872266769,0.09393739008804523,1.0
15.0,1.5,0.0,1.0,1.0,0.7365053204410094,0.0,nan,nan,nan,20.47302382066966,-5.638940180344874,429.6615054672763,0.0599999986589,163.52083701556,-21.8639202118,40.733959198,-7.37872266769,0.09393739008804523,1.0
16.0,1.6,0.0,1.0,1.0,0.7496800544189589,0.0,nan,nan,nan,20.481650881318007,-5.515119397517182,429.0460135856046,0.0599999986589,92.71910003010998,-21.8639202118,40.733959198,-7.37872266769,0.09393739008804523,1.0
17.0,1.7000000000000002,0.0,1.0,1.0,0.762196051698011,0.0,nan,nan,nan,20.49027794196636,-5.3912986146894895,428.43052170393287,0.0599999986589,21.917363044659908,-21.8639202118,40.733959198,-7.37872266769,0.09393739008804523,1.0
18.0,1.8,0.0,1.0,0.75,0.7615862491131103,0.0,nan,nan,nan,20.5637858627784,-5.61544424745782,427.8355305274419,0.0582641104480399,1.2151220011007682,-21.40606622269396,40.75044447920906,-4.851987436174062,0.09393739008804523,1.0
19.0,1.9,0.0,1.0,0.30000001192092896,0.7385069372535012,0.0,nan,nan,nan,20.666383188899783,-5.995601006955614,427.2497308647599,0.0557499348407115,2.975045293385853,-20.4836578369,40.7832183838,0.154041290283,0.09393739008804523,1.0
20.0,2.0,0.0,1.0,0.30000001192092896,0.7165815909868726,0.0,nan,nan,nan,20.768980515021177,-6.375757766453406,426.6639312020778,0.0532357592333831,4.734968585670934,-20.4836578369,40.7832183838,0.154041290283,0.09393739008804523,1.0
21.0,2.1,0.0,1.0,0.30000001192092896,0.6957525120335754,0.0,nan,nan,nan,20.871577841142564,-6.7559145259512,426.0781315393958,0.0507215836260547,6.494891877956019,-20.4836578369,40.7832183838,0.154041290283,0.09393739008804523,1.0
22.0,2.2,0.0,1.0,0.3499999940395355,0.6784648861338733,0.0,nan,nan,nan,20.96508693183469,-6.699768936602376,425.5047965938154,0.0477488728962609,8.125563739917144,-20.48995617051392,39.24198898181507,4.055048294293173,0.09393739008804523,1.0
23.0,2.3000000000000003,0.0,1.0,0.30000001192092896,0.6595416424232261,0.0,nan,nan,nan,21.05493768172952,-6.467995999660243,424.9364791440355,0.0445915853298997,9.70420726432646,-20.4954776764,37.8731460571,7.54131507874,0.09393739008804523,1.0
24.0,2.4000000000000004,0.0,1.0,0.22499999403953552,0.6378145600040416,0.0,nan,nan,nan,21.144788431624335,-6.236223062718111,424.3681616942556,0.0414342977635386,11.282850788735775,-20.4954776764,37.8731460571,7.54131507874,0.09393739008804523,1.0
25.0,2.5,0.0,1.0,0.22499999403953552,0.6171738317058163,0.0,nan,nan,nan,21.23115455910184,-6.123893774034737,423.82252380339975,0.0386691608897449,12.798502947539562,-20.531975308828383,37.60422935870325,7.943586739275845,0.09393739008804523,1.0
26.0,2.6,0.0,1.0,0.20000000298023224,0.596315140269537,0.0,nan,nan,nan,21.314619919644485,-6.1109951105247,423.2957654658341,0.0362304690726165,14.261718070519478,-20.9953022003,34.023021698,12.8220396042,0.09393739008804523,1.0
27.0,2.7,0.0,1.0,0.20000000298023224,0.5764993834050718,0.0,nan,nan,nan,21.39808528018713,-6.098096447014663,422.7690071282685,0.0337917772554881,15.724933193499393,-20.9953022003,34.023021698,12.8220396042,0.09393739008804523,1.0
28.0,2.8000000000000003,0.0,1.0,0.15000000596046448,0.5551744145328414,0.0,nan,nan,nan,21.48155064072977,-6.085197783504626,422.2422487907029,0.0313530854383596,17.188148316479307,-20.9953022003,34.023021698,12.8220396042,0.09393739008804523,1.0
29.0,2.9000000000000004,0.0,1.0,0.22499999403953552,0.5386656935081762,0.0,nan,nan,nan,21.546786220415356,-6.03857624255326,421.7198392490017,0.0288773466207438,18.56132636687931,-20.980117290044166,33.73484147679756,13.07331788880992,0.09393739008804523,1.0
30.0,3.0,0.0,1.0,0.20000000298023224,0.521732408981779,0.0,nan,nan,nan,21.589300416949147,-5.949922906193429,421.2028499950076,0.0263554328600886,19.822283275401947,-20.6214866638,26.2885684967,18.5105190277,0.09393739008804523,1.0
31.0,3.1,0.0,1.0,0.25,0.50814578853269,0.0,nan,nan,nan,21.631814613482938,-5.861269569833596,420.6858607410135,0.0238335190994333,21.083240183924588,-20.6214866638,26.2885684967,18.5105190277,0.09393739008804523,1.0
32.0,3.2,0.0,1.0,0.25,0.4952384991060555,0.0,nan,nan,nan,21.67432881001673,-5.772616233473765,420.1688714870194,0.021311605338778,22.34419709244723,-20.6214866638,26.2885684967,18.5105190277,0.09393739008804523,1.0
33.0,3.3000000000000003,0.0,1.0,0.20000000298023224,0.4804765742997643,0.0,nan,nan,nan,21.7019316466639,-5.604980825293713,419.6421231972228,0.019999999553,23.40716556930024,-20.6214866638,26.2885684967,18.5105190277,0.09393739008804523,1.0
34.0,3.4000000000000004,0.0,1.0,0.25,0.46895274558477607,0.0,nan,nan,nan,21.713375103791904,-5.351752869991396,419.10479908037377,0.019999999553,24.25557479521438,-21.9498100281,16.6317100525,23.9962520599,0.09393739008804523,1.0
35.0,3.5,0.0,1.0,0.2750000059604645,0.45925510860356045,0.0,nan,nan,nan,21.72481856091991,-5.098524914689079,418.5674749635248,0.019999999553,25.10398402112851,-21.9498100281,16.6317100525,23.9962520599,0.09393739008804523,1.0
36.0,3.6,0.0,1.0,0.375,0.4550423531733824,0.0,nan,nan,nan,21.736262018047917,-4.845296959386761,418.0301508466758,0.019999999553,25.95239324704265,-21.9498100281,16.6317100525,23.9962520599,0.09393739008804523,1.0
37.0,3.7,0.0,1.0,0.6499999761581421,0.46479023432262034,0.0,nan,nan,nan,21.712039462709583,-5.73151366921728,417.49235576638847,0.0263455281230976,26.3172764355976,-21.930332571940674,12.077601416688116,25.82481518776221,0.09393739008804523,1.0
38.0,3.8,0.0,1.0,0.44999998807907104,0.46405072201044284,0.0,nan,nan,nan,21.6856966054219,-6.685469006878531,416.9545326878859,0.0330682908067528,26.65341457729473,-21.9241542816,10.5964899063,26.3882369995,0.09393739008804523,1.0
39.0,3.9,0.0,1.0,0.4749999940395355,0.4645981856118975,0.0,nan,nan,nan,21.65935374813421,-7.639424344539783,416.4167096093833,0.0397910534904079,26.98955271899185,-21.9241542816,10.5964899063,26.3882369995,0.09393739008804523,1.0
40.0,4.0,0.0,1.0,0.44999998807907104,0.46386827573525613,0.0,nan,nan,nan,21.6689311743458,-7.08010690478886,415.7771237877852,0.0445465123493754,27.0,-21.8321590424,9.19405937195,27.6494655609,0.09393739008804523,1.0
41.0,4.1000000000000005,0.0,1.0,0.30000001192092896,0.45567486254453976,0.0,nan,nan,nan,21.679660825998447,-6.4722477715001805,415.1342736929095,0.0492388654280903,27.0,-21.8321590424,9.19405937195,27.6494655609,0.09393739008804523,1.0
42.0,4.2,0.0,1.0,0.32499998807907104,0.4491411188212663,0.0,nan,nan,nan,21.6903904776511,-5.864388638211507,414.4914235980339,0.0539312185068051,27.0,-21.8321590424,9.19405937195,27.6494655609,0.09393739008804523,1.0
43.0,4.3,0.0,1.0,0.4000000059604645,0.4466840631782262,0.0,nan,nan,nan,21.70112012930375,-5.256529504922833,413.8485735031583,0.05862357158552,27.0,-21.8321590424,9.19405937195,27.6494655609,0.09393739008804523,1.0
44.0,4.4,0.0,1.0,0.4000000059604645,0.4443498603173381,0.0,nan,nan,nan,21.73225914109461,-5.1792200767591,413.2346378730417,0.0668606797816384,27.0,-21.77810429334039,9.413475726383083,27.562317205612175,0.09393739008804523,1.0
45.0,4.5,0.0,1.0,0.3499999940395355,0.43963236700344793,0.0,nan,nan,nan,21.771869993270155,-5.322139621356776,412.6327045168127,0.0765692010624417,27.0,-21.5119056702,10.5237531662,27.1343193054,0.09393739008804523,1.0
46.0,4.6000000000000005,0.0,1.0,0.32499998807907104,0.43390074805722906,0.0,nan,nan,nan,21.8114808454457,-5.465059165954454,412.0307711605837,0.0862777223432451,27.0,-21.5119056702,10.5237531662,27.1343193054,0.09393739008804523,1.0
47.0,4.7,0.0,1.0,0.2750000059604645,0.42595571095239076,0.0,nan,nan,nan,21.839377362886783,-5.757951854999335,411.4264534662231,0.0937353460648388,27.498045769035844,-21.172628695860386,10.490294014515785,27.466738409545435,0.09393739008804523,1.0
48.0,4.800000000000001,0.0,1.0,0.20000000298023224,0.4146579255537828,0.0,nan,nan,nan,21.8599898342502,-6.144098776514904,410.820653175607,0.0997933477072402,28.30577948985736,-20.6418571472,10.4383888245,27.9915466309,0.09393739008804523,1.0
49.0,4.9,0.0,1.0,0.125,0.4001750292760936,0.0,nan,nan,nan,21.880602305613618,-6.530245698030471,410.2148528849909,0.1058513493496415,29.11351321067886,-20.6418571472,10.4383888245,27.9915466309,0.09393739008804523,1.0
50.0,5.0,0.0,1.0,0.125,0.3864162778122889,0.0,nan,nan,nan,21.90121477697703,-6.916392619546037,409.6090525943748,0.1119093509920428,29.921246931500367,-20.6418571472,10.4383888245,27.9915466309,0.09393739008804523,1.0
51.0,5.1000000000000005,0.0,1.0,0.17499999701976776,0.3758454637726628,0.0,nan,nan,nan,21.92182724834045,-7.3025395410616065,409.0032523037586,0.1179673526344441,30.72898065232188,-20.6418571472,10.4383888245,27.9915466309,0.09393739008804523,1.0
52.0,5.2,0.0,1.0,0.2750000059604645,0.3708031908820529,0.0,nan,nan,nan,21.91696578196733,-7.102146797915848,408.3884168527447,0.1247672363998862,31.31781584724026,-20.537012578096142,11.680406287519157,29.30285319942499,0.09393739008804523,1.0
53.0,5.300000000000001,0.0,1.0,0.22499999403953552,0.363513031039927,0.0,nan,nan,nan,21.899240993250697,-6.605574922519813,407.76901900616303,0.1319417410420955,31.796116018938548,-20.3555030823,13.8571214676,31.5396995544,0.09393739008804523,1.0
54.0,5.4,0.0,1.0,0.30000001192092896,0.3603373800839771,0.0,nan,nan,nan,21.88151620453406,-6.109003047123782,407.1496211595814,0.1391162456843047,32.27441619063683,-20.3555030823,13.8571214676,31.5396995544,0.09393739008804523,1.0
55.0,5.5,0.0,1.0,0.30000001192092896,0.3573205116758247,0.0,nan,nan,nan,21.86379141581742,-5.612431171727751,406.5302233129997,0.146290750326514,32.75271636233511,-20.3555030823,13.8571214676,31.5396995544,0.09393739008804523,1.0
56.0,5.6000000000000005,0.0,1.0,0.32499998807907104,0.355704485495987,0.0,nan,nan,nan,21.875282990713902,-5.572300940001051,405.8841975955247,0.1583111095422867,33.16622208155257,-20.385811271795728,14.384728730204811,31.63335665595493,0.09393739008804523,1.0
57.0,5.7,0.0,1.0,0.17499999701976776,0.34666926107217605,0.0,nan,nan,nan,21.918048208875025,-6.020752837257287,405.2096689970531,0.1755185457417899,33.5103708260539,-21.0023269653,23.1179866791,33.4320220947,0.09393739008804523,1.0
58.0,5.800000000000001,0.0,1.0,0.125,0.3355857980185672,0.0,nan,nan,nan,21.960813427036147,-6.469204734513526,404.5351403985815,0.1927259819412932,33.85451957055523,-21.0023269653,23.1179866791,33.4320220947,0.09393739008804523,1.0
59.0,5.9,0.0,1.0,0.15000000596046448,0.32630650841566206,0.0,nan,nan,nan,22.03532898247197,-6.660638818638739,403.89149467658297,0.2044442593652786,34.74070936811558,-21.0023269653,23.1179866791,33.4320220947,0.09393739008804523,1.0
60.0,6.0,0.0,1.0,0.125,0.3162411829948789,0.0,nan,nan,nan,22.13309461027301,-6.663864421614797,403.2704638045192,0.2121429467719756,36.023823884916,-20.7335586548,27.2795219421,34.9058303833,0.09393739008804523,1.0
61.0,6.1000000000000005,0.0,1.0,0.22499999403953552,0.3116791235471117,0.0,nan,nan,nan,22.230860238074047,-6.667090024590855,402.64943293245545,0.2198416341786727,37.30693840171643,-20.7335586548,27.2795219421,34.9058303833,0.09393739008804523,1.0
62.0,6.2,0.0,1.0,0.15000000596046448,0.30359516766777933,0.0,nan,nan,nan,22.32862586587509,-6.670315627566913,402.0284020603917,0.2275403215853697,38.59005291851685,-20.7335586548,27.2795219421,34.9058303833,0.09393739008804523,1.0
63.0,6.300000000000001,0.0,1.0,0.25,0.30091540928439037,0.0,nan,nan,nan,22.3901226208842,-6.400679143046269,401.4560415844638,0.251321441980056,39.98406628366764,-20.7335586548,27.2795219421,34.91391463498209,0.09393739008804523,1.0
64.0,6.4,0.0,1.0,0.375,0.30461963882017085,0.0,nan,nan,nan,22.43459134902429,-6.002935480117141,400.9065315791827,0.2826531720286385,41.4301460193474,-18.9139442444,29.7399215698,39.6887054443,0.09393739008804523,1.0
65.0,6.5,0.0,1.0,0.30000001192092896,0.3043886574752087,0.0,nan,nan,nan,22.479060077164387,-5.605191817188013,400.3570215739017,0.3139849020772209,42.87622575502715,-18.9139442444,29.7399215698,39.6887054443,0.09393739008804523,1.0
66.0,6.6000000000000005,0.0,1.0,0.375,0.30791922460144827,0.0,nan,nan,nan,22.523528805304483,-5.2074481542588815,399.80751156862055,0.3453166321258036,44.32230549070693,-18.9139442444,29.7399215698,39.6887054443,0.09393739008804523,1.0
67.0,6.7,0.0,1.0,0.4749999940395355,0.31627326307335263,0.0,nan,nan,nan,22.605231995966754,-5.262340578445544,399.280262274473,0.3783072440713073,45.97638574272965,-18.9139442444,29.7399215698,39.6887054443,0.09393739008804523,1.0
68.0,6.800000000000001,0.0,1.0,0.44999998807907104,0.3229595993236385,0.0,nan,nan,nan,22.71977495233668,-5.71644550752218,398.7726463116156,0.4127609439504457,47.813916695019785,-17.6291904449,33.1024246216,45.4665527344,0.09393739008804523,1.0
69.0,6.9,0.0,1.0,0.5,0.33181161935745657,0.0,nan,nan,nan,22.8343179087066,-6.170550436598813,398.26503034875816,0.4472146438295838,49.65144764730991,-17.6291904449,33.1024246216,45.4665527344,0.09393739008804523,1.0
70.0,7.0,0.0,1.0,0.6499999761581421,0.3477210371974908,0.0,nan,nan,nan,22.94886086507652,-6.624655365675444,397.7574143859008,0.481668343708722,51.48897859960002,-17.6291904449,33.1024246216,45.4665527344,0.09393739008804523,1.0
71.0,7.1000000000000005,0.0,1.0,0.8999999761581421,0.37533498414552335,0.0,nan,nan,nan,23.068913712358786,-6.901722971475741,397.2710071932989,0.5145992678729624,53.36794210507223,-17.6291904449,33.1024246216,45.4665527344,0.09393739008804523,1.0
72.0,7.2,0.0,1.0,0.75,0.39406823493824716,0.0,nan,nan,nan,23.21446524117799,-6.359496983592537,396.8827499799148,0.540483088269793,55.43864724312116,-14.554149547902124,35.214815634755695,50.63030466717828,0.09393739008804523,1.0
73.0,7.300000000000001,0.0,1.0,0.9750000238418579,0.4231148243834277,0.0,nan,nan,nan,23.360016769997195,-5.817270995709328,396.4944927665306,0.5663669086666239,57.50935238117011,-12.7291650772,36.4810523987,53.6924209595,0.09393739008804523,1.0
74.0,7.4,0.0,1.0,1.0,0.45195908316425626,0.0,nan,nan,nan,23.5055682988164,-5.275045007826124,396.1062355531464,0.5922507290634544,59.58005751921905,-12.7291650772,36.4810523987,53.6924209595,0.09393739008804523,1.0
75.0,7.5,0.0,1.0,1.0,0.47936112900604344,0.0,nan,nan,nan,23.649155623401377,-4.9385050295397575,395.7684185206526,0.6168635366334115,61.784402631962,-12.7291650772,36.4810523987,53.6924209595,0.09393739008804523,1.0
76.0,7.6,0.0,1.0,1.0,0.5053930725557413,0.0,nan,nan,nan,23.78845711965561,-5.050765085285774,395.54066028576256,0.6387030364753686,64.28034572605688,-8.40787124634,37.3962135315,61.8688850403,0.09393739008804523,1.0
77.0,7.7,0.0,1.0,1.0,0.5301234189279542,0.0,nan,nan,nan,23.927758615909852,-5.16302514103179,395.3129020508725,0.6605425363173255,66.77628882015173,-8.40787124634,37.3962135315,61.8688850403,0.09393739008804523,1.0
78.0,7.800000000000001,0.0,1.0,1.0,0.5536172479815565,0.0,nan,nan,nan,24.065286481377537,-5.231655159964417,395.0982696305401,0.6809763575256712,69.21967871600987,-8.40787124634,37.3962135315,61.8688850403,0.09393739008804523,1.0
79.0,7.9,0.0,1.0,1.0,0.5759363855824787,0.0,-35.13314981310266,0.38785161520140776,0.597919606214749,24.188326542871508,-4.943895661130097,394.9908546929811,0.6899279713613586,71.2337907486195,-6.12998199463,38.3811950684,69.130645752,0.09393739008804523,1.0
80.0,8.0,0.0,1.0,0.949999988079071,0.5946395657073084,0.0,-31.49951398819384,0.4017715343370292,0.5865236259313303,24.31136660436548,-4.656136162295776,394.88343975542216,0.6988795851970462,73.24790278122913,-6.12998199463,38.3811950684,69.130645752,0.09393739008804523,1.0
81.0,8.1,0.0,1.0,0.8999999761581421,0.60990758622985,0.0,-27.539902633791037,0.4166829574711661,0.5750516113237822,24.434406665859456,-4.368376663461455,394.7760248178632,0.7078311990327336,75.26201481383876,-6.12998199463,38.3811950684,69.130645752,0.09393739008804523,1.0
82.0,8.200000000000001,0.0,1.0,0.875,0.6231622069183574,0.0,-23.211420142983815,0.4326613094336951,0.5634448641182452,24.55744672735343,-4.08061716462713,394.66860988030425,0.7167828128684213,77.27612684644843,-6.12998199463,38.3811950684,69.130645752,0.09393739008804523,1.0
83.0,8.3,0.0,1.0,0.6499999761581421,0.6245040953803467,0.0,-18.657834691086972,0.44884074373849286,0.551793454272985,24.640279058301918,-3.3308435224762434,394.6474643605196,0.72000002861,79.42869296908896,-3.770887750556369,38.61506682484613,75.11887905633121,0.09393739008804523,1.0
84.0,8.4,0.0,1.0,0.6000000238418579,0.6232788918034222,0.0,-13.963263081470911,0.4647737063876554,0.5402037815866545,24.700553320989147,-2.321862348808289,394.67471926992135,0.72000002861,81.65893710965277,-2.53013467789,38.7407646179,78.7983398438,0.09393739008804523,1.0
85.0,8.5,0.0,1.0,1.0,0.6421149472132511,0.0,-9.003759236264488,0.48166002087455756,0.5293185925396077,24.760827583676384,-1.3128811751403346,394.7019741793231,0.72000002861,83.88918125021658,-2.53013467789,38.7407646179,78.7983398438,0.09393739008804523,1.0
86.0,8.6,0.0,1.0,1.0,0.6600091998525885,0.0,-3.8332008238259543,0.4992645196371146,0.519165162939946,24.821101846363614,-0.3039000014723805,394.7292290887248,0.72000002861,86.11942539078038,-2.53013467789,38.7407646179,78.7983398438,0.09393739008804523,1.0
87.0,8.700000000000001,0.0,1.0,1.0,0.6770087398599591,0.0,1.4899520860711932,0.5173012934764449,0.5097069048153005,24.800515336811824,0.2486152691169497,394.86081999940353,0.7160384919938751,88.38653500576117,-2.4189017281464675,38.6400262411476,79.09516557828668,0.09393739008804523,1.0
88.0,8.8,0.0,1.0,1.0,0.6931583028669612,0.0,6.954420546486835,0.5358112286536111,0.5009715595819859,24.727172251474656,0.5033152042550688,395.06048359855777,0.7094923015223886,90.67769702762708,1.39866578579,34.3454246521,87.5901031494,0.09393739008804523,1.0
89.0,8.9,0.0,1.0,0.8999999761581421,0.7035003865315202,0.0,12.461546473080439,0.5543956670123142,0.49296464827203684,24.653829166137484,0.758015139393188,395.260147197712,0.702946111050902,92.96885904949298,1.39866578579,34.3454246521,87.5901031494,0.09393739008804523,1.0
90.0,9.0,0.0,1.0,1.0,0.7183253672049442,0.0,17.960883150585758,0.5729258835126869,0.4856914158410503,24.47847522681936,1.489142220184318,395.5912939516151,0.689032165488231,94.7311881436654,1.7810226683565862,33.91821626388426,88.1390422289533,0.09393739008804523,1.0
91.0,9.1,0.0,1.0,1.0,0.7324090988446971,0.0,23.24207429714991,0.5907795892476456,0.4793651783425946,24.21964048600756,2.610154479075039,396.0300402276574,0.6690888017193759,96.06074567542798,6.0781211853,28.8905467987,94.0238189697,0.09393739008804523,1.0
92.0,9.2,0.0,1.0,1.0,0.7457886439024622,0.0,28.39202573788188,0.6083656096958563,0.47383441938821197,23.960805745195756,3.73116673796578,396.4687865036997,0.6491454379505204,97.3903032071906,6.0781211853,28.8905467987,94.0238189697,0.09393739008804523,1.0
93.0,9.3,0.0,1.0,1.0,0.7584992117073391,0.0,33.29782051966876,0.6251348290620519,0.46897603173475,23.671289148725013,4.583532903629425,396.9615859153378,0.6289960756513406,98.41264671272047,6.0781211853,28.8905467987,94.0238189697,0.09393739008804523,1.0
94.0,9.4,0.0,1.0,1.0,0.7705742511219722,0.0,38.02244731901215,0.6410655874599377,0.4644647301306278,23.35578609684638,5.208365252572481,397.5001664366139,0.60867223982351,99.1747907152569,9.59685611725,20.6580123901,98.8026580811,0.09393739008804523,1.0
95.0,9.5,0.0,1.0,1.0,0.7820455385658736,0.0,42.59664544765055,0.6561998079379292,0.4601789936067117,23.040283044967747,5.833197601515536,398.0387469578899,0.5883484039956794,99.93693471779332,9.59685611725,20.6580123901,98.8026580811,0.09393739008804523,1.0
96.0,9.6,0.0,1.0,1.0,0.7929432616375799,0.0,47.02175536167486,0.6705773173920211,0.4561075439089914,22.724779993089108,6.458029950458602,398.5773274791659,0.5680245681678485,100.69907872032974,9.59685611725,20.6580123901,98.8026580811,0.09393739008804523,1.0
97.0,9.7,0.0,1.0,1.0,0.8032960985557009,0.0,51.29941085710222,0.6842359513734084,0.4522396666961571,22.400676102620064,7.262312019123738,399.1341793187946,0.547880353918367,101.12119649188084,9.59685611725,20.6580123901,98.8026580811,0.09393739008804523,1.0
98.0,9.8,0.0,1.0,1.0,0.8131312936279159,0.0,55.35935783774744,0.6972116536557265,0.4487735166772979,22.070960660016777,8.183674701162964,399.70295214199024,0.5278533324101217,101.32146671890142,10.8461179733,7.88446903229,101.836837769,0.09393739008804523,1.0
99.0,9.9,0.0,1.0,1.0,0.8224747289465202,0.0,59.06653729539442,0.7095385708239286,0.44606400748278086,21.74124521741349,9.105037383202191,400.27172496518585,0.5078263109018764,101.52173694592196,10.8461179733,7.88446903229,101.836837769,0.09393739008804523,1.0
100.0,10.0,0.0,1.0,1.0,0.8313509924991942,1.0,62.4600763860318,0.7213741421635228,0.4440316403947881,21.4115297748102,10.026400065241416,400.8404977883815,0.487799289393631,101.72200717294254,10.8461179733,7.88446903229,101.836837769,0.09393739008804523,1.0
101.0,10.1,0.0,1.0,1.0,0.8397834428742345,0.0,65.582118981832,0.732867934995742,0.4426008916313927,21.081814332206903,10.94776274728066,401.4092706115771,0.4677722678853853,101.92227739996312,10.8461179733,7.88446903229,101.836837769,0.09393739008804523,1.0
102.0,10.2,0.0,1.0,1.0,0.8477942707305227,0.0,68.47059389627123,0.7440995381863503,0.4416791803111341,20.758051135413428,10.303176870054422,401.9612163147506,0.4483374908461796,102.0,11.364164350569158,2.12679247480228,102.36480391241626,0.09393739008804523,1.0
103.0,10.3,0.0,1.0,1.0,0.8554045571939966,0.0,71.31098342711654,0.7556445612770328,0.4410952211937528,20.438062993525417,8.665429423356342,402.50248986089065,0.4292783292401258,102.0,11.9472169876,-4.42347669601,102.951072693,0.09393739008804523,1.0
104.0,10.4,0.0,1.0,1.0,0.8626343293342967,0.0,74.11980925662746,0.7676123331535765,0.4408529600570758,20.11807485163741,7.027681976658261,403.0437634070307,0.4102191676340721,102.0,11.9472169876,-4.42347669601,102.951072693,0.09393739008804523,1.0
105.0,10.5,0.0,1.0,1.0,0.8695026128675819,0.0,76.53230627326246,0.7789817164362931,0.44126864531553306,19.857834361280403,6.886637440421918,403.5184267080053,0.3929657903671091,101.71609657699892,11.4809370041,-8.54778194427,102.300437927,0.09393739008804523,1.0
106.0,10.6,0.0,1.0,1.0,0.8760274822242028,0.0,78.55046012854292,0.7897826305548737,0.44233021297525055,19.598288933118745,6.763004494165701,403.99231511219233,0.375733420326286,101.42889042106351,11.4809370041,-8.54778194427,102.300437927,0.09393739008804523,1.0
107.0,10.7,0.0,1.0,1.0,0.8822261081129926,0.0,80.18779838641665,0.8000434989675255,0.4440053689161653,19.33874350495709,6.639371547909486,404.4662035163794,0.3585010502854632,101.14168426512812,11.4809370041,-8.54778194427,102.300437927,0.09393739008804523,1.0
108.0,10.8,0.0,1.0,1.0,0.888114802707343,0.0,81.44343930974956,0.8097913239595446,0.44630510038840066,19.10814371151179,6.447299767451874,404.8876363905581,0.343392498971687,100.73570010274857,11.4809370041,-8.54778194427,102.300437927,0.09393739008804523,1.0
109.0,10.9,0.0,1.0,0.9750000238418579,0.8924590637640687,0.0,82.4373631374128,0.8192392578211719,0.44905234527212307,18.90572621394446,6.1885939852213285,405.2579970639847,0.330351758170389,100.21407028415138,9.07413196564,-11.7555789948,101.035842896,0.09393739008804523,1.0
110.0,11.0,0.0,1.0,0.824999988079071,0.8890861099798187,0.0,83.00340855654122,0.8277772949599157,0.4523288945758425,18.703308716377137,5.929888202990783,405.6283577374113,0.3173110173690909,99.6924404655542,9.07413196564,-11.7555789948,101.035842896,0.09393739008804523,1.0
111.0,11.1,0.0,1.0,0.925000011920929,0.8908818050768742,0.0,83.24097844342504,0.8357009302715246,0.45606661641437596,18.50089121880981,5.671182420760234,405.9987184108378,0.3042702765677927,99.170810646957,9.07413196564,-11.7555789948,101.035842896,0.09393739008804523,1.0
112.0,11.2,0.0,1.0,0.9750000238418579,0.8950877160151234,0.0,83.20037187317884,0.8431658838771576,0.46024245216098275,18.34399227576712,5.093638777437048,406.2151043858011,0.2985589674688926,98.42358338732294,7.866823758096831,-12.101048012834504,100.62876306719544,0.09393739008804523,1.0
113.0,11.3,0.0,1.0,1.0,0.9003333302143672,0.0,82.89980383372841,0.850257589802509,0.4648761627844423,18.20925590072364,4.360855894841373,406.35652148795,0.2964162916492419,97.56651479639788,3.75060415268,-13.3115596771,99.2504730225,0.09393739008804523,1.0
114.0,11.4,0.0,1.0,0.75,0.8928166637036488,0.0,82.24386054947277,0.8563697104315928,0.4699031878767289,18.07451952568016,3.6280730122456974,406.49793859009895,0.2942736158295912,96.7094462054728,3.75060415268,-13.3115596771,99.2504730225,0.09393739008804523,1.0
115.0,11.5,0.0,1.0,0.625,0.8794258305184662,0.0,81.20544467405374,0.8612387250292225,0.4752830283761008,17.93978315063668,2.895290129650024,406.6393556922479,0.2921309400099405,95.85237761454772,3.75060415268,-13.3115596771,99.2504730225,0.09393739008804523,1.0
116.0,11.6,0.0,1.0,0.42500001192092896,0.8567045395885893,0.0,79.74638134822946,0.8644267889267729,0.4809147101838374,17.8053034229677,2.1638960199355317,406.7799685047634,0.289999991655,94.99546329483516,3.75060415268,-13.3115596771,99.2504730225,0.09393739008804523,1.0
117.0,11.7,0.0,1.0,0.7250000238418579,0.8501193138012526,0.0,78.14333894611022,0.8667679496890505,0.4865564745877221,17.717458011752097,1.6848499973564806,406.7744372261587,0.289999991655,94.16658094918036,-1.52158379555,-12.5301122665,95.5866928101,0.09393739008804523,1.0
118.0,11.8,0.0,1.0,1.0,0.8576133481111899,0.0,76.49006608774947,0.8689920524132142,0.49237448411468,17.629612600536493,1.2058039747774296,406.768905947554,0.289999991655,93.33769860352554,-1.52158379555,-12.5301122665,95.5866928101,0.09393739008804523,1.0
119.0,11.9,0.0,1.0,0.9750000238418579,0.8634826818977234,0.0,74.78910685483461,0.8710424500607744,0.49833909317025704,17.541767189320886,0.7267579521983787,406.7633746689492,0.289999991655,92.50881625787072,-1.52158379555,-12.5301122665,95.5866928101,0.09393739008804523,1.0
120.0,12.0,0.0,1.0,0.9750000238418579,0.8690585489949301,0.0,73.04072542613349,0.8729278278855611,0.5044638051163227,17.474672664896662,0.3536043490864795,406.7213848550043,0.2909896337492077,91.70310797341908,-1.52158379555,-12.5301122665,95.5866928101,0.09393739008804523,1.0
121.0,12.1,0.0,1.0,1.0,0.8756056215451836,0.0,71.22290314670563,0.8747189368191086,0.5108656147884842,17.440566291881375,0.1487903066671286,406.6214360874956,0.2935525321371151,90.93424001523464,-5.52752494812,-13.1601428986,92.3707580566,0.09393739008804523,1.0
122.0,12.2,0.0,1.0,0.949999988079071,0.879325339871878,0.0,69.32924414693092,0.8762954902761764,0.5175098339869718,17.40645991886609,-0.0560237357522186,406.5214873199868,0.2961154305250225,90.16537205705023,-5.52752494812,-13.1601428986,92.3707580566,0.09393739008804523,1.0
123.0,12.3,0.0,1.0,0.925000011920929,0.8816090734743305,0.0,67.37920212772829,0.8776057160901931,0.524321842220568,17.372353545850803,-0.260837778171566,406.421538552478,0.2986783289129299,89.39650409886583,-5.52752494812,-13.1601428986,92.3707580566,0.09393739008804523,1.0
124.0,12.4,0.0,1.0,0.925000011920929,0.8837786203966603,0.0,65.38191113500206,0.8786629306433112,0.5312932500375174,17.35150434406957,-0.6651936503832758,406.276980017729,0.3042930569883074,88.42759401376928,-5.52752494812,-13.1601428986,92.3707580566,0.09393739008804523,1.0
125.0,12.5,0.0,1.0,0.8500000238418579,0.8820896905689202,0.0,63.29828622126455,0.8792922845283782,0.5384577541352529,17.344771772036694,-1.2820275905596017,406.0849196776422,0.3131574639727412,87.24567312947309,-8.87943553925,-10.3722047806,89.1732254028,0.09393739008804523,1.0
126.0,12.6,0.0,1.0,0.3499999940395355,0.8554852057424509,0.0,60.90554737526637,0.8782651707042906,0.5458265330380357,17.338039200003816,-1.8988615307359389,405.8928593375553,0.3220218709571751,86.0637522451769,-8.87943553925,-10.3722047806,89.1732254028,0.09393739008804523,1.0
127.0,12.7,0.0,1.0,0.44999998807907104,0.8352109448592818,0.0,58.26983847596812,0.8759144125416051,0.5534310396573792,17.337489577401843,-2.446842441554358,405.6954385655093,0.330818746119057,85.0,-8.87943553925,-10.3722047806,89.1732254028,0.09393739008804523,1.0
128.0,12.8,0.0,1.0,0.6000000238418579,0.8234503988084106,0.0,55.46891296071638,0.8726811923466584,0.5613219876099385,17.39259876908391,-2.375009456633739,405.4497632686237,0.3390077008682487,85.0,-11.389377594,-8.51842021942,85.9498748779,0.09393739008804523,1.0
129.0,12.9,0.0,1.0,1.0,0.8322778788679901,0.0,52.700847957361276,0.8696721331018545,0.5695267215180714,17.447707960765975,-2.30317647171312,405.2040879717381,0.3471966556174405,85.0,-11.389377594,-8.51842021942,85.9498748779,0.09393739008804523,1.0
130.0,13.0,0.0,1.0,0.949999988079071,0.8381639843285441,0.0,50.04658186841383,0.8671260268192907,0.5779045520541969,17.502817152448042,-2.2313434867925017,404.9584126748524,0.3553856103666322,85.0,-11.389377594,-8.51842021942,85.9498748779,0.09393739008804523,1.0
131.0,13.1,0.0,1.0,0.7749999761581421,0.835005783920024,0.0,47.37411541969057,0.8643322257614483,0.5864884910759338,17.584832632339523,-2.273783875870856,404.7056972608429,0.3637469738683562,85.0,-11.44693431046438,-8.162790323652564,85.91541342445745,0.09393739008804523,1.0
132.0,13.2,0.0,1.0,0.949999988079071,0.8407554941279763,0.0,44.75422690572929,0.8616156146670909,0.5952265664948183,17.701581562348537,-2.4637402844263163,404.4438937275417,0.3723309006147495,85.0,-11.9859972,-4.75814008713,85.5951309204,0.09393739008804523,1.0
133.0,13.3,0.0,1.0,0.699999988079071,0.8337177188255311,0.0,42.05931451017741,0.8582848340976491,0.604173571481059,17.818330492357553,-2.6536966929817765,404.18209019424046,0.3809148273611429,85.0,-11.9859972,-4.75814008713,85.5951309204,0.09393739008804523,1.0
134.0,13.4,0.0,1.0,0.625,0.8232818328842545,0.0,39.43570114279697,0.8548080925566793,0.6130482262080534,17.935079422366567,-2.8436531015372366,403.92028666093927,0.3894987541075363,85.0,-11.9859972,-4.75814008713,85.5951309204,0.09393739008804523,1.0
135.0,13.5,0.0,1.0,0.675000011920929,0.8158677418360882,0.0,36.97309423921437,0.8516301881225605,0.6217499815220975,18.051828352375583,-3.033609510092697,403.6584831276381,0.3980826808539296,85.0,-11.9859972,-4.75814008713,85.5951309204,0.09393739008804523,1.0
136.0,13.6,0.0,1.0,0.925000011920929,0.8213243553403302,0.0,34.8771945114502,0.8498611789101476,0.6300999824236408,18.173418105521367,-3.286792520960304,403.4944295047963,0.4022950376046263,84.5409932333659,-11.480090910479593,-3.297036127715292,85.471678682259,0.09393739008804523,1.0
137.0,13.7,0.0,1.0,0.6499999761581421,0.8127581363812207,0.0,32.81210910866681,0.847993120039146,0.6384908166357921,18.296400087007,-3.558159601992134,403.35848890978366,0.4052501239561143,83.94997539947367,-10.2056407928,0.360610067844,85.1436462402,0.09393739008804523,1.0
138.0,13.8,0.0,1.0,0.75,0.8096202295621596,0.0,30.655881147535233,0.8455934641116944,0.6471912758040025,18.419382068492634,-3.829526683023965,403.222548314771,0.4082052103076024,83.35895756558146,-10.2056407928,0.360610067844,85.1436462402,0.09393739008804523,1.0
139.0,13.9,0.0,1.0,0.5,0.7941392180840516,0.0,28.344695492668826,0.8421262909210109,0.6561442120287035,18.525786645940453,-3.776868573511595,403.1262421944437,0.409999996424,82.72517804400543,-10.2056407928,0.360610067844,85.1436462402,0.09393739008804523,1.0
140.0,14.0,0.0,1.0,0.3499999940395355,0.7719322568818258,0.0,25.8375467349619,0.8372699763153556,0.665357834795371,18.606548813162725,-3.222998884647516,403.0912438311472,0.409999996424,82.02525350147052,-8.4588727951,2.17903065681,83.0363616943,0.09393739008804523,1.0
141.0,14.1,0.0,1.0,0.20000000298023224,0.743335644186746,0.0,23.10460771038847,0.8306564774474338,0.6747566097620056,18.687310980385003,-2.669129195783426,403.0562454678508,0.409999996424,81.32532895893559,-8.4588727951,2.17903065681,83.0363616943,0.09393739008804523,1.0
142.0,14.2,0.0,1.0,0.25,0.7186688619774086,0.0,20.20473647532594,0.8226236535527103,0.684352112632074,18.71964302923759,-2.1486394106254343,403.0265697779331,0.4087809035030867,81.24381881668826,-8.457732685321963,2.237050575378426,82.98653904113853,0.09393739008804523,1.0
143.0,14.3,0.0,1.0,0.44999998807907104,0.7052354182824917,0.0,17.25783780013676,0.8138049707931183,0.6940303403685729,18.70991446477769,-1.6571394208561876,403.0015167260413,0.4065030521552972,81.6993895206784,-8.41205883026,3.56544876099,81.1179656982,0.09393739008804523,1.0
144.0,14.4,0.0,1.0,0.675000011920929,0.7037236479644136,0.0,14.369998072733292,0.804802222171506,0.7036829900615144,18.700185900317788,-1.1656394310869411,402.9764636741494,0.4042252008075077,82.15496022466851,-8.41205883026,3.56544876099,81.1179656982,0.09393739008804523,1.0
145.0,14.5,0.0,1.0,0.6499999761581421,0.7010374643741,0.0,11.557123173989469,0.795749610861765,0.7133113406130762,18.69045733585789,-0.6741394413176942,402.9514106222575,0.4019473494597182,82.61053092865865,-8.41205883026,3.56544876099,81.1179656982,0.09393739008804523,1.0
146.0,14.6,0.0,1.0,0.550000011920929,0.6934855917514413,0.0,9.026690233065256,0.7876496301622145,0.7224374402987597,18.68152773809087,-0.2114372610051763,402.91636465363183,0.4005451263348988,83.0,-8.41205883026,3.56544876099,81.1179656982,0.09393739008804523,1.0
147.0,14.7,0.0,1.0,0.4000000059604645,0.6788113124618924,0.0,6.667234785065977,0.779829648542345,0.7310864016618585,18.67730563094764,0.0815889876193252,402.82244068389815,0.4043020815416109,83.0,-7.37869787216,6.8788895607,83.0439529419,0.09393739008804523,1.0
148.0,14.8,0.0,1.0,0.4749999940395355,0.6686207465407745,0.0,4.4169621244215875,0.7720881659289632,0.7394279149866047,18.6730835238044,0.3746152362438267,402.7285167141644,0.4080590367483229,83.0,-7.37869787216,6.8788895607,83.0439529419,0.09393739008804523,1.0
149.0,14.9,0.0,1.0,0.4000000059604645,0.6551897095117589,0.0,2.068116992009729,0.7632337574611516,0.7477690193117802,18.66599216691532,0.3660823081602145,402.67422740374616,0.4090390795380255,83.09609178023057,-7.37869787216,6.8788895607,83.0439529419,0.09393739008804523,1.0
150.0,15.0,0.0,1.0,0.3499999940395355,0.6399302237381478,0.0,-0.3467190994211455,0.7533220694316318,0.7559430684306311,18.65583411852785,0.0352390044077687,402.6623001334188,0.4070511221690327,83.29488770670164,-6.2190182001974765,8.712025422498481,83.57417303862228,0.09393739008804523,1.0
151.0,15.1,0.0,1.0,0.25,0.6204337125512404,0.0,-2.751527719622461,0.7425934658631926,0.7636042484268728,18.645676070140382,-0.2956042993446829,402.6503728630914,0.4050631648000398,83.49368363317272,-6.02230453491,8.9935464859,83.6673049927,0.09393739008804523,1.0
152.0,15.2,0.0,1.0,0.32499998807907104,0.6056620263276319,0.0,-5.215004717635847,0.7308387924731754,0.7710490360800349,18.63551802175291,-0.6264476030971285,402.638445592764,0.403075207431047,83.6924795596438,-6.02230453491,8.9935464859,83.6673049927,0.09393739008804523,1.0
153.0,15.3,0.0,1.0,0.25,0.5878789250112503,0.0,-7.6290195822424955,0.7185468527824614,0.77789241765407,18.62535997336544,-0.9572909068495744,402.6265183224365,0.4010872500620542,83.89127548611489,-6.02230453491,8.9935464859,83.6673049927,0.09393739008804523,1.0
154.0,15.4,0.0,1.0,0.20000000298023224,0.5684849789096993,0.0,-9.9829108310201,0.7058070100837337,0.7840811301494033,18.597808202711104,-1.0460554066135288,402.633380885396,0.3989703680561457,84.10296358172972,-5.805572856495827,8.930528237129229,83.79161231819457,0.09393739008804523,1.0
155.0,15.5,0.0,1.0,0.32499998807907104,0.5563107293681678,0.0,-12.26563164343494,0.6928291594603376,0.7896895736965707,18.54926060281613,-0.8426084318386764,402.6629245125405,0.3966978621061463,84.33021371620727,-4.48744678497,8.53741359711,84.5283737183,0.09393739008804523,1.0
156.0,15.6,0.0,1.0,0.2750000059604645,0.5422451931977826,0.0,-14.602069279392476,0.6788752013532102,0.7949550950763139,18.500713002921145,-0.6391614570638203,402.692468139685,0.3944253561561469,84.55746385068481,-4.48744678497,8.53741359711,84.5283737183,0.09393739008804523,1.0
157.0,15.7,0.0,1.0,0.3499999940395355,0.5326329332398703,0.0,-16.856636084003277,0.6648689411961427,0.799665673700535,18.452165403026168,-0.4357144822889679,402.7220117668295,0.3921528502061476,84.78471398516236,-4.48744678497,8.53741359711,84.5283737183,0.09393739008804523,1.0
158.0,15.8,0.0,1.0,0.20000000298023224,0.5160012867268883,0.0,-19.124045492720807,0.6501879940543791,0.8039323900602117,18.40359170108661,-0.2295769598432083,402.7505461252179,0.389999985695,84.97267873084955,-4.48744678497,8.53741359711,84.5283737183,0.09393739008804523,1.0
159.0,15.9,0.0,1.0,0.125,0.4964512223905438,0.0,-21.331364563861378,0.6353035942697037,0.807569103935238,18.354548311002315,0.0249750973309663,402.7609193940368,0.389999985695,84.45373021851303,-3.66474270821,9.92170333862,85.4043197632,0.09393739008804523,1.0
160.0,16.0,0.0,1.0,0.125,0.4778786612710166,0.0,-23.432134251624312,0.6206009144891633,0.8105239821214799,18.30550492091802,0.2795271545051411,402.77129266285567,0.389999985695,83.93478170617651,-3.66474270821,9.92170333862,85.4043197632,0.09393739008804523,1.0
161.0,16.1,0.0,1.0,0.15000000596046448,0.46148472850548894,0.0,-25.375573907919506,0.6065083687051005,0.8127477830874281,18.25646153083372,0.5340792116793204,402.7816659316746,0.389999985695,83.41583319383997,-3.66474270821,9.92170333862,85.4043197632,0.09393739008804523,1.0
162.0,16.2,0.0,1.0,0.20000000298023224,0.4484104922292261,0.0,-27.180812666336436,0.5929954502176913,0.8143395606717456,18.206478000766875,0.7043286997389624,402.792728269188,0.3894501391467934,82.94501529274042,-3.66474270821,9.92170333862,85.4043197632,0.09393739008804523,1.0
163.0,16.3,0.0,1.0,0.20000000298023224,0.43598996776677634,0.0,-28.951357580391075,0.5795331776919056,0.8156850827201148,18.1527031677462,0.5346111773200847,402.80656941435257,0.3866829261626745,82.66829373041918,-2.13373708725,9.18677997589,83.4178771973,0.09393739008804523,1.0
164.0,16.400000000000002,0.0,1.0,0.17499999701976776,0.4229404692294259,0.0,-30.786273955953416,0.5654940187551561,0.8170258286561313,18.09892833472552,0.3648936549012069,402.82041055951714,0.3839157131785556,82.39157216809794,-2.13373708725,9.18677997589,83.4178771973,0.09393739008804523,1.0
165.0,16.5,0.0,1.0,0.15000000596046448,0.40929344606597784,0.0,-32.65262626021788,0.55090681783975,0.8180078706088121,18.04515350170485,0.1951761324823352,402.8342517046817,0.3811485001944368,82.11485060577671,-2.13373708725,9.18677997589,83.4178771973,0.09393739008804523,1.0
166.0,16.6,0.0,1.0,0.125,0.3950787737626789,0.0,-34.52127243989358,0.535986476940312,0.818565810473793,17.99711497426171,0.1935525307110462,402.83249826448366,0.379999995232,82.0,-2.13373708725,9.18677997589,83.4178771973,0.09393739008804523,1.0
167.0,16.7,0.0,1.0,0.15000000596046448,0.3828248353725682,0.0,-36.33156692003263,0.5211871530858457,0.8185958533504918,17.953146467683126,0.3111948493116065,402.8196801613346,0.379999995232,82.0,-3.20212125778,7.5408449173,82.5464401245,0.09393739008804523,1.0
168.0,16.8,0.0,1.0,0.17499999701976776,0.37243359345492816,0.0,-38.10976451756285,0.5063777954315534,0.8181868940783887,17.9123410451958,0.398030435488108,402.79301277236937,0.3805661196920588,82.05661249999723,-3.20212125778,7.5408449173,82.5464401245,0.09393739008804523,1.0
169.0,16.900000000000002,0.0,1.0,0.15000000596046448,0.36131191408020497,0.0,-39.84647613735667,0.4916839056599757,0.8173817161280593,17.881303403748234,0.3897331044904236,402.72357801222273,0.3828804682294947,82.28804757446045,-3.88115692139,6.52899980545,83.0131149292,0.09393739008804523,1.0
170.0,17.0,0.0,1.0,0.125,0.34949631837619466,0.0,-41.52962238220835,0.47716221039187806,0.8160751304036128,17.850265762300673,0.3814357734927394,402.6541432520761,0.3851948167669305,82.51948264892366,-3.88115692139,6.52899980545,83.0131149292,0.09393739008804523,1.0
171.0,17.1,0.0,1.0,0.10000000149011612,0.3370215025318907,0.0,-43.13601648235142,0.4629915998909106,0.8142088739653884,17.81922812085311,0.3731384424950548,402.5847084919295,0.3875091653043664,82.75091772338688,-3.88115692139,6.52899980545,83.0131149292,0.09393739008804523,1.0
172.0,17.2,0.0,1.0,0.10000000149011612,0.32517042747980196,0.0,-44.69987523043173,0.44896701994851906,0.8118734303391413,17.788190479405547,0.3648411114973706,402.5152737317829,0.3898235138418022,82.98235279785008,-3.88115692139,6.52899980545,83.0131149292,0.09393739008804523,1.0
173.0,17.3,0.0,1.0,0.125,0.31516190610581185,0.0,-46.190957227795415,0.43533116900324714,0.8090297588942065,17.79759575397683,0.005355258191068,402.3795116355871,0.3940772018659179,83.0,-5.117835062176477,6.749685712164618,83.49730947290814,0.09393739008804523,1.0
174.0,17.400000000000002,0.0,1.0,0.15000000596046448,0.3069038110985445,0.0,-47.589396301253075,0.4222521106126894,0.8056616043573352,17.81033940460655,-0.383119586767791,402.2382745239256,0.398490973413895,83.0,-5.8939948082,6.88971757889,83.7967605591,0.09393739008804523,1.0
175.0,17.5,0.0,1.0,0.17499999701976776,0.30030862039460565,0.0,-48.939726498667476,0.4094520051640113,0.8018993575373735,17.823083055236275,-0.7715944317266362,402.097037412264,0.4029047449618719,83.0,-5.8939948082,6.88971757889,83.7967605591,0.09393739008804523,1.0
176.0,17.6,0.0,1.0,0.07500000298023224,0.28904318952388697,0.0,-50.259316612172995,0.3967919049803165,0.7977210563967102,17.835826705866,-1.1600692766854954,401.9558003006024,0.4073185165098489,83.0,-5.8939948082,6.88971757889,83.7967605591,0.09393739008804523,1.0
177.0,17.7,0.0,1.0,0.15000000596046448,0.2820910303457158,0.0,-51.55572823444779,0.3842648098356088,0.7932100036414463,17.860777170279032,-1.439349519434845,401.807965905773,0.4127568683788787,83.06892181325078,-5.8939948082,6.88971757889,83.7967605591,0.09393739008804523,1.0
178.0,17.8,0.0,1.0,0.22499999403953552,0.2792364785304068,0.0,-52.753204343714955,0.3724265694257847,0.7882578368597626,17.904623024669466,-1.5496032964084523,401.64991932613776,0.4197812069822958,83.24453031497254,-6.62958145142,7.25622558594,83.4927978516,0.09393739008804523,1.0
179.0,17.900000000000002,0.0,1.0,0.20000000298023224,0.27527465475289803,0.0,-53.837939376210926,0.36136774104390246,0.7828241117504964,17.9484688790599,-1.65985707338206,401.49187274650245,0.426805545585713,83.42013881669429,-6.62958145142,7.25622558594,83.4927978516,0.09393739008804523,1.0
180.0,18.0,0.0,1.0,0.25,0.2740109220152531,0.0,-54.79991241648581,0.35117435408111425,0.7769329062300266,17.99231473345033,-1.770110850355664,401.3338261668672,0.4338298841891299,83.59574731841603,-6.62958145142,7.25622558594,83.4927978516,0.09393739008804523,1.0
181.0,18.1,0.0,1.0,0.2750000059604645,0.27406037621251367,0.0,-55.64615241682441,0.3418031364664655,0.7706279276572142,18.03616058784076,-1.880364627329272,401.175779587232,0.440854222792547,83.77135582013779,-6.62958145142,7.25622558594,83.4927978516,0.09393739008804523,1.0
182.0,18.2,0.0,1.0,0.17499999701976776,0.2691073572528764,0.0,-56.433195994883064,0.332837979717648,0.7639715313488593,18.08000644223119,-1.990618404302876,401.01773300759663,0.4478785613959639,83.94696432185953,-6.62958145142,7.25622558594,83.4927978516,0.09393739008804523,1.0
183.0,18.3,0.0,1.0,0.125,0.2619019893902325,0.0,-57.1807671001876,0.3241335807988208,0.756981288191739,18.12819169514133,-2.0415754189105764,400.8694869740603,0.4525126959819203,84.0,-6.566106583484372,6.783031447452294,83.80661132815764,0.09393739008804523,1.0
184.0,18.4,0.0,1.0,0.125,0.25505688992072084,0.0,-57.88192967332021,0.31573940183338556,0.7496530571899911,18.17825454976194,-2.066875490064373,400.7254815102792,0.4561126201511115,84.0,-6.50721073151,6.36490011215,84.0930938721,0.09393739008804523,1.0
185.0,18.5,0.0,1.0,0.125,0.2485540454246848,0.0,-58.52971409819605,0.3077024318013209,0.7419829044099644,18.22831740438255,-2.0921755612181703,400.5814760464982,0.4597125443203024,84.0,-6.50721073151,6.36490011215,84.0930938721,0.09393739008804523,1.0
186.0,18.6,0.0,1.0,0.15000000596046448,0.24362634345147377,0.0,-59.10854678489008,0.3001298102857607,0.7339670926022723,18.241632034874367,-1.938640693527152,400.49980258570514,0.460000008345,84.0,-4.982018592323489,6.395726888304203,84.26058500770544,0.09393739008804523,1.0
187.0,18.7,0.0,1.0,0.15000000596046448,0.2389450265769233,0.0,-59.63090364005455,0.29293581984597844,0.7256437380565987,18.25175755758896,-1.7695860583417795,400.4235384604708,0.460000008345,84.0,-4.26144218445,6.41055965424,84.3383255005,0.09393739008804523,1.0
188.0,18.8,0.0,1.0,0.125,0.23324777524807713,0.0,-60.11757794772913,0.28597652893563585,0.717049051235725,18.260926878468265,-1.5982671726065354,400.3491186207535,0.460000008345,84.0,-4.26144218445,6.41055965424,84.3383255005,0.09393739008804523,1.0
189.0,18.9,0.0,1.0,0.20000000298023224,0.2315853866346849,0.0,-60.53494141877731,0.2794902025633599,0.7081965987409939,18.24435764667568,-1.3660003469181976,400.3243423167129,0.460000008345,84.0,-2.3168399334,6.0290722847,84.4866714478,0.09393739008804523,1.0
190.0,19.0,0.0,1.0,0.2750000059604645,0.23375611760097387,0.0,-60.85499890168006,0.27370319252459885,0.6992034355476002,18.227788414883097,-1.133733521229868,400.2995660126724,0.460000008345,84.0,-2.3168399334,6.0290722847,84.4866714478,0.09393739008804523,1.0
191.0,19.1,0.0,1.0,0.22499999403953552,0.23331831142290194,0.0,-61.08278808001852,0.2685180329691494,0.6899724305051839,18.20298194905508,-0.8727255844664885,400.289978027,0.460000008345,84.0,-2.3168399334,6.0290722847,84.4866714478,0.09393739008804523,1.0
192.0,19.200000000000003,0.0,1.0,0.32499998807907104,0.23790239525571039,0.0,-61.180779061188495,0.2641546313579448,0.6804738090295951,18.17297553416116,-0.5935741406661038,400.289978027,0.460000008345,84.0,-1.98455822468,4.74478435516,84.4338684082,0.09393739008804523,1.0
193.0,19.3,0.0,1.0,0.25,0.23850727549292486,0.0,-61.18774893401705,0.2603218998273005,0.6707209519611192,18.14296911926725,-0.3144226968657291,400.289978027,0.460000008345,84.0,-1.98455822468,4.74478435516,84.4338684082,0.09393739008804523,1.0
194.0,19.4,0.0,1.0,0.10000000149011612,0.2315819117927844,0.0,-61.18411714905927,0.25655580486201246,0.6609557377510341,18.11310999015498,-0.0450535987333206,400.29075199685536,0.4598065568151089,84.0,-1.98455822468,4.74478435516,84.4338684082,0.09393739008804523,1.0
195.0,19.5,0.0,1.0,0.07500000298023224,0.22375281635215677,0.0,-61.19659968637903,0.25272801465989003,0.6513037842489698,18.084828879609848,0.1195075340843194,400.29981827292335,0.4575404672980649,84.0,-2.19554424286,5.00836229324,84.4548034668,0.09393739008804523,1.0
196.0,19.6,0.0,1.0,0.05000000074505806,0.21506517557180183,0.0,-61.20091573766137,0.24902911396228575,0.6418427617478915,18.056547769064714,0.2840686669019654,400.3088845489913,0.455274377781021,84.0,-2.19554424286,5.00836229324,84.4548034668,0.09393739008804523,1.0
197.0,19.700000000000003,0.0,1.0,0.02500000037252903,0.2055619168118382,0.0,-61.22515652094808,0.24520265828559187,0.6323756236902992,18.02826665851958,0.4486297997196115,400.31795082505926,0.4530082882639769,84.0,-2.19554424286,5.00836229324,84.4548034668,0.09393739008804523,1.0
198.0,19.8,0.0,1.0,0.0,0.19528382097124627,0.0,-61.29900602370945,0.24100502540763385,0.6227360091972861,17.999985547974447,0.6131909325372515,400.3270171011272,0.450742198746933,84.0,-2.19554424286,5.00836229324,84.4548034668,0.09393739008804523,1.0
199.0,19.9,0.0,1.0,0.0,0.18551962992268395,0.0,-61.412185203254346,0.23651727416612314,0.6129325420782057,17.97231185966524,0.595588133141308,400.3327290003338,0.449999988079,84.0,-2.086736802729703,4.760851443863641,84.5514275068001,0.09393739008804523,1.0
200.0,20.0,0.0,1.0,0.02500000037252903,0.1774936484451762,0.0,-61.57784149247189,0.2316914104876193,0.6030150816285444,17.944934018538184,0.4892617361441425,400.33680713823975,0.449999988079,84.0,-1.99562144279,4.55318403244,84.634147644,0.09393739008804523,1.0
201.0,20.1,0.0,1.0,0.02500000037252903,0.16986896604154386,0.0,-61.8067595046353,0.22648183997907081,0.5929893275396666,17.917556177411125,0.3829353391469732,400.3408852761457,0.449999988079,84.0,-1.99562144279,4.55318403244,84.634147644,0.09393739008804523,1.0
202.0,20.200000000000003,0.0,1.0,0.0,0.16137551773946665,0.0,-62.064511032378775,0.22109524800340033,0.5828190278293499,17.890178336284066,0.2766089421498039,400.3449634140516,0.449999988079,84.0,-1.99562144279,4.55318403244,84.634147644,0.09393739008804523,1.0
203.0,20.3,0.0,1.0,0.0,0.15330674185249332,0.0,-62.328552729696106,0.21566548562651336,0.5724905764279482,17.862800495157007,0.1702825451526383,400.3490415519575,0.449999988079,84.0,-1.99562144279,4.55318403244,84.634147644,0.09393739008804523,1.0
204.0,20.4,0.0,1.0,0.0,0.14564140475986864,0.0,-62.599596466825375,0.21019471136847076,0.5620118809200159,17.84673861296636,0.0666815412254114,400.3389624676978,0.449999988079,84.0,-2.0660939487751038,4.793833268369151,84.51469235712113,0.09393739008804523,1.0
205.0,20.5,0.0,1.0,0.02500000037252903,0.13960933454050167,0.0,-62.87127042762125,0.2047474758242616,0.5514529535009454,17.834182280898123,-0.0360751681914088,400.3244976436016,0.449999988079,84.0,-2.30413603783,5.603038311,84.1222686768,0.09393739008804523,1.0
206.0,20.6,0.0,1.0,0.02500000037252903,0.13387886783210304,0.0,-63.18556143293323,0.19926010204329306,0.5412553057960957,17.821625948829887,-0.1388318776082328,400.3100328195053,0.449999988079,84.0,-2.30413603783,5.603038311,84.1222686768,0.09393739008804523,1.0
207.0,20.700000000000003,0.0,1.0,0.02500000037252903,0.12843492445912436,0.0,-63.536946896534324,0.1937345969374031,0.5313175404913897,17.816267328259016,-0.188085578158623,400.28616745357215,0.4507678175120232,84.0,-2.30413603783,5.603038311,84.1222686768,0.09393739008804523,1.0
208.0,20.8,0.0,1.0,0.0,0.12201317823616813,0.0,-63.915669335115126,0.18817286708680767,0.5214808300987175,17.82726719499005,-0.1157411441526165,400.2409371518082,0.4532807193940783,84.0,-3.28544569016,6.77105236053,84.5003433228,0.09393739008804523,1.0
209.0,20.9,0.0,1.0,0.0,0.11591251932435971,0.0,-64.3401416663237,0.1823892237212914,0.5114692885614958,17.83826706172108,-0.0433967101466075,400.1957068500443,0.4557936212761335,84.0,-3.28544569016,6.77105236053,84.5003433228,0.09393739008804523,1.0
210.0,21.0,0.0,1.0,0.0,0.11011689335814172,0.0,-64.85665535411984,0.17620726250914978,0.5013958241160362,17.849266928452113,0.0289477238593988,400.1504765482804,0.4583065231581886,84.0,-3.28544569016,6.77105236053,84.5003433228,0.09393739008804523,1.0
211.0,21.1,0.0,1.0,0.0,0.10461104869023463,0.0,-65.44911284979477,0.16977189937251644,0.49136769957441756,17.86410568498308,-0.0001543911410445,400.0987600450466,0.4606850154088779,84.0,-3.28544569016,6.77105236053,84.5003433228,0.09393739008804523,1.0
212.0,21.200000000000003,0.0,1.0,0.02500000037252903,0.10063049627434935,0.0,-66.15385723509966,0.1629083044234484,0.4813201479265464,17.88687825961628,-0.2389156807625673,400.0336385353349,0.462785723815274,84.0,-3.615409277291852,7.630874432697033,84.45283726604616,0.09393739008804523,1.0
213.0,21.3,0.0,1.0,0.15000000596046448,0.1030989717586551,0.0,-66.87783243716058,0.15613788923673488,0.471399973871003,17.90965083424948,-0.4776769703840817,399.96851702562327,0.46488643222167,84.0,-3.71285915375,7.88744354248,84.438949585,0.09393739008804523,1.0
214.0,21.4,0.0,1.0,0.125,0.10419402317072234,0.0,-67.55014870031941,0.14976849480563179,0.4615383085194785,17.932423408882677,-0.7164382600056045,399.9033955159116,0.466987140628066,84.0,-3.71285915375,7.88744354248,84.438949585,0.09393739008804523,1.0
215.0,21.5,0.0,1.0,0.07500000298023224,0.10273432216119782,0.0,-68.18082734199625,0.14371757009608385,0.4516697264280796,17.955195983515875,-0.9551995496271186,399.8382740062,0.469087849034462,84.0,-3.71285915375,7.88744354248,84.438949585,0.09393739008804523,1.0
216.0,21.6,0.0,1.0,0.05000000074505806,0.10009760609039083,0.0,-68.75452888560277,0.1379691916220133,0.44156540676527084,17.977910091008432,-1.016600147527822,399.7813523312619,0.4716848775117642,84.16848803106346,-3.71285915375,7.88744354248,84.438949585,0.09393739008804523,1.0
217.0,21.700000000000003,0.0,1.0,0.07500000298023224,0.09884272593488289,0.0,-69.25840196024802,0.13263323207816552,0.4314454697724478,18.00057932836365,-0.9418867075382436,399.7307235536409,0.4746628028398938,84.46628084788144,-2.84592628479,7.69836759567,84.7309188843,0.09393739008804523,1.0
218.0,21.8,0.0,1.0,0.07500000298023224,0.09765058978715035,0.0,-69.67008782332884,0.12775157051896072,0.4212065296292659,18.023248565718863,-0.8671732675486677,399.6800947760199,0.4776407281680234,84.7640736646994,-2.84592628479,7.69836759567,84.7309188843,0.09393739008804523,1.0
219.0,21.9,0.0,1.0,0.07500000298023224,0.09651806044680444,0.0,-70.00422536406985,0.12330149204516676,0.41106286982657647,18.04049597860067,-0.7777965748236825,399.63738707207045,0.479999989271,84.94804613739298,-2.84592628479,7.69836759567,84.7309188843,0.09393739008804523,1.0
220.0,22.0,0.0,1.0,0.07500000298023224,0.09544215757347582,0.0,-70.28611105504967,0.11919891750158174,0.4011555596859656,18.03706739460529,-0.6325019214097567,399.62488619154345,0.479999989271,84.6979674726482,-1.95678901672,7.74432039261,85.0790328979,0.09393739008804523,1.0
221.0,22.1,0.0,1.0,0.07500000298023224,0.09442004984381364,0.0,-70.52422738820637,0.11542647169169522,0.3915977817168789,18.033638810609908,-0.4872072679958257,399.6123853110165,0.479999989271,84.44788880790341,-1.95678901672,7.74432039261,85.0790328979,0.09393739008804523,1.0
222.0,22.200000000000003,0.0,1.0,0.07500000298023224,0.09344904750063456,0.0,-70.69648261448283,0.11203014817975361,0.3823095593129132,18.03021022661453,-0.3419126145818948,399.5998844304895,0.479999989271,84.19781014315862,-1.95678901672,7.74432039261,85.0790328979,0.09393739008804523,0.0
223.0,22.3,0.0,1.0,0.0,0.08877659512560282,0.0,-70.83878140331328,0.10880364084340909,0.3731107480390799,18.02011020207527,-0.2124612626349657,399.5971677367959,0.4793479577148572,84.0,-1.95678901672,7.74432039261,85.0790328979,0.09393739008804523,0.0
224.0,22.4,0.0,1.0,0.05000000074505806,0.08683776540657558,0.0,-70.90139356608209,0.10586345887574444,0.36380937731900415,17.984762120598276,-0.1429688618155495,399.63147928379993,0.4762283136923479,84.0,0.361587226391,7.36158132553,84.9628143311,0.09393739008804523,0.0
225.0,22.5,0.0,1.0,0.05000000074505806,0.08499587717349968,0.0,-70.9036158221703,0.10313278600739434,0.35445224182177754,17.949414039121283,-0.0734764609961358,399.6657908308039,0.4731086696698386,84.0,0.361587226391,7.36158132553,84.9628143311,0.09393739008804523,0.0
226.0,22.6,0.0,1.0,0.05000000074505806,0.08324608335207759,0.0,-70.8508477228119,0.10060114678339306,0.34512546308978853,17.91406378831865,-0.0042369517288829,399.700093199983,0.4699920345787286,84.00079642368668,0.361587226391,7.36158132553,84.9628143311,0.09393739008804523,0.0
227.0,22.700000000000003,0.0,1.0,0.05000000074505806,0.0815837792217266,0.0,-70.75223946546161,0.09825858952152318,0.3359525232897424,17.87809897261462,-0.0066410302129069,399.731795512729,0.467727822745325,84.22721782296514,0.5924578806886213,6.653709345913008,84.74147203927282,0.09393739008804523,0.0
228.0,22.8,0.0,1.0,0.10000000149011612,0.08250459033514608,0.0,-70.54141048846495,0.09628316012647208,0.3268423971513323,17.84213415691059,-0.0090451086969308,399.7634978254751,0.4654636109119214,84.45363922224358,0.846327543259,5.8874707222,84.5005493164,0.09393739008804523,0.0
229.0,22.9,0.0,1.0,0.10000000149011612,0.08337936089289458,0.0,-70.22017341673678,0.09465650220489882,0.31785444398154233,17.80616934120656,-0.0114491871809547,399.7952001382211,0.4631993990785177,84.68006062152203,0.846327543259,5.8874707222,84.5005493164,0.09393739008804523,0.0
230.0,23.0,0.0,1.0,0.10000000149011612,0.08421039292275566,0.0,-69.78839502070747,0.09336117718312952,0.3090242218085422,17.77020452550253,-0.0138532656649786,399.8269024509672,0.4609351872451142,84.90648202080048,0.846327543259,5.8874707222,84.5005493164,0.09393739008804523,0.0
231.0,23.1,0.0,1.0,0.10000000149011612,0.08499987335112368,0.0,-69.2502458624654,0.09238061841617397,0.3004271774108588,17.744751213705072,-0.0126166880283336,399.8306017137634,0.4613419558356565,85.0,0.846327543259,5.8874707222,84.5005493164,0.09393739008804523,0.0
232.0,23.200000000000003,0.0,1.0,0.0,0.08074987968356749,0.0,-68.70429361842159,0.09138658758663487,0.29200998524330407,17.72669436020122,-0.0088183493537627,399.8145965277112,0.4636281696021059,85.0,-1.06530416012,4.61702156067,85.018081665,0.09393739008804523,0.0
