step,t_sec,is_boundary,learn,anomaly,mwl,spike,growth_pct,mr,mp,airspeed,climb,altitude,throttle,heading,pitch,roll,yaw
0.0,0.0,0.0,1.0,1.0,1.0,0.0,nan,nan,nan,21.1363067627,4.02383613586,411.229980469,0.490000009537,274.0,7.04618883133,-38.0212402344,-80.785697937
1.0,0.1,0.0,1.0,1.0,1.0,0.0,nan,nan,nan,20.930717992527885,4.351431574192274,411.5577210769068,0.458410623746184,273.0128316719738,7.04618883133,-38.0212402344,-80.785697937
2.0,0.2,0.0,1.0,1.0,1.0,0.0,nan,nan,nan,20.72512922235577,4.679027012524547,411.8854616848136,0.4268212379553681,272.0256633439476,7.04618883133,-38.0212402344,-80.785697937
3.0,0.3,0.0,1.0,1.0,1.0,0.0,nan,nan,nan,20.51954045218366,5.006622450856821,412.2132022927204,0.3952318521645521,271.03849501592134,7.04618883133,-38.0212402344,-80.785697937
4.0,0.4,0.0,1.0,1.0,1.0,0.0,nan,nan,nan,20.313951682011545,5.334217889189095,412.5409429006272,0.3636424663737361,270.05132668789514,6.61251783371,-30.3290176392,-85.7952423096
5.0,0.5,0.0,1.0,1.0,1.0,0.0,nan,nan,nan,20.108362911839432,5.661813327521369,412.86868350853393,0.3320530805829201,269.06415835986894,6.61251783371,-30.3290176392,-85.7952423096
6.0,0.6000000000000001,0.0,1.0,1.0,1.0,0.0,nan,nan,nan,19.912135940679267,5.87788870502932,413.20474762566016,0.32723895970801,269.5522095618901,6.61251783371,-30.3290176392,-85.7952423096
7.0,0.7000000000000001,0.0,1.0,1.0,1.0,0.0,nan,nan,nan,19.71655970752926,6.086212330723303,413.541390309344,0.3242859856693476,270.1428031727256,6.61251783371,-30.3290176392,-85.7952423096
8.0,0.8,0.0,1.0,1.0,1.0,0.0,nan,nan,nan,19.52098347437925,6.294535956417286,413.87803299302783,0.3213330116306851,270.73339678356103,6.61251783371,-30.3290176392,-85.8280104370284
9.0,0.9,0.0,1.0,0.9750000238418579,0.9987500011920929,0.0,nan,nan,nan,19.38308290909629,5.8912074609093015,414.1739421802368,0.3187591065578152,271.3722662417857,4.13220262527,3.01641798019,-90.2890930176
10.0,1.0,0.0,1.0,1.0,0.9988125011324882,0.0,nan,nan,nan,19.292642141478822,4.984566442331342,414.4363328392276,0.3164971274163319,272.0508606314062,4.13220262527,3.01641798019,-90.2890930176
11.0,1.1,0.0,1.0,1.0,0.9988718760758638,0.0,nan,nan,nan,19.20220137386136,4.077925423753381,414.6987234982184,0.3142351482748486,272.72945502102664,4.13220262527,3.01641798019,-90.2890930176
12.0,1.2000000000000002,0.0,1.0,1.0,0.9989282822720706,0.0,nan,nan,nan,19.111760606243887,3.171284405175421,414.9611141572092,0.3119731691333653,273.4080494106471,2.865665308809816,13.533371416399998,-89.3820768587288
13.0,1.3,0.0,1.0,1.0,0.9989818681584671,0.0,nan,nan,nan,19.029912696085503,2.328129900677835,415.21065826509926,0.310000002384,274.1332644306355,2.01798152924,20.5594444275,-88.8424224854
14.0,1.4,0.0,1.0,1.0,0.9990327747505438,0.0,nan,nan,nan,19.00677120255962,1.9187153673009405,415.3724347142331,0.310000002384,275.176991675816,2.01798152924,20.5594444275,-88.8424224854
15.0,1.5,0.0,1.0,1.0,0.9990811360130165,0.0,nan,nan,nan,18.983629709033732,1.5093008339240466,415.534211163367,0.310000002384,276.22071892099643,2.01798152924,20.5594444275,-88.8424224854
16.0,1.6,0.0,1.0,1.0,0.9991270792123657,0.0,nan,nan,nan,18.960488215507848,1.0998863005471518,415.69598761250086,0.310000002384,277.2644461661769,1.6929811685571314,21.67199115835999,-88.31151765581897
17.0,1.7000000000000002,0.0,1.0,0.699999988079071,0.9841707246557009,0.0,nan,nan,nan,18.953283125877974,0.7505380784141401,415.8107081891795,0.310000002384,278.35605397293483,-1.7929302454,35.9423217773,-85.3991699219
18.0,1.8,0.0,1.0,0.699999988079071,0.9699621878268694,0.0,nan,nan,nan,18.98411533132632,0.5445572069050715,415.813114964236,0.310000002384,279.5619439641251,-1.7929302454,35.9423217773,-85.3991699219
19.0,1.9,0.0,1.0,0.30000001192092896,0.9364640790315724,0.0,nan,nan,nan,19.014947536774663,0.3385763353960022,415.8155217392926,0.310000002384,280.7678339553153,-1.7929302454,35.9423217773,-85.3991699219
20.0,2.0,0.0,1.0,0.22499999403953552,0.9008908747819705,0.0,nan,nan,nan,19.045779742223008,0.1325954638869334,415.8179285143492,0.310000002384,281.9737239465056,-2.520698272800839,36.99715762605852,-84.48858906467547
21.0,2.1,0.0,1.0,0.22499999403953552,0.8670963307448487,0.0,nan,nan,nan,19.085991228977534,-0.0764882261862808,415.7984502312861,0.3082639741297983,283.1736027840298,-5.03452110291,40.723941803,-81.9329910278
22.0,2.2,0.0,1.0,0.4000000059604645,0.8437415145056294,0.0,nan,nan,nan,19.179793945494104,-0.3033007653208254,415.65392535459193,0.2966086475831983,284.33913516080355,-5.03452110291,40.723941803,-81.9329910278
23.0,2.3000000000000003,0.0,1.0,0.6000000238418579,0.8315544399724408,0.0,nan,nan,nan,19.27359666201067,-0.5301133044553701,415.5094004778978,0.2849533210365984,285.50466753757735,-5.03452110291,40.723941803,-81.9329910278
24.0,2.4000000000000004,0.0,1.0,0.75,0.8274767179738187,0.0,nan,nan,nan,19.36739937852724,-0.7569258435899147,415.36487560120366,0.2732979944899985,286.6701999143511,-5.348607339605812,40.87580379000666,-81.14426551677114
25.0,2.5,0.0,1.0,0.875,0.8298528820751278,0.0,nan,nan,nan,19.46120209504381,-0.9837383827244582,415.2203507245096,0.2616426679433986,287.8357322911248,-8.19002342224,42.2149009705,-76.550201416
26.0,2.6,0.0,1.0,0.8500000238418579,0.8308602391634642,0.0,nan,nan,nan,19.474971222292638,-1.0711937255090007,415.08261963964674,0.259999990463,288.50299336910206,-8.19002342224,42.2149009705,-76.550201416
27.0,2.7,0.0,1.0,0.75,0.8268172272052909,0.0,nan,nan,nan,19.47561002070477,-1.1357860950022518,414.9460031458151,0.259999990463,289.0885079446053,-8.19002342224,42.2149009705,-76.550201416
28.0,2.8000000000000003,0.0,1.0,0.675000011920929,0.8192263664410728,0.0,nan,nan,nan,19.476248819116915,-1.200378464495503,414.8093866519835,0.259999990463,289.67402252010845,-8.19002342224,42.2149009705,-76.550201416
29.0,2.9000000000000004,0.0,1.0,0.75,0.8157650481190192,0.0,nan,nan,nan,19.47688761752905,-1.264970833988754,414.6727701581519,0.259999990463,290.2595370956116,-9.043893944557114,21.203906973935712,-71.56299849958765
30.0,3.0,0.0,1.0,1.0,0.8249767957130683,0.0,nan,nan,nan,19.477526415941195,-1.3295632034820049,414.5361536643202,0.259999990463,290.8450516711148,-9.10912322998,19.4340801239,-71.3633880615
31.0,3.1,0.0,1.0,0.8999999761581421,0.8287279547353219,0.0,nan,nan,nan,19.429718637916224,-1.54351338480029,414.33625624667815,0.2690967220616426,290.24193906356675,-9.10912322998,19.4340801239,-71.3633880615
32.0,3.2,0.0,1.0,1.0,0.8372915569985558,0.0,nan,nan,nan,19.364476339377617,-1.811213119247785,414.1135858563012,0.2814671040464878,289.2110739391227,-9.10912322998,19.4340801239,-71.3633880615
33.0,3.3000000000000003,0.0,1.0,1.0,0.8454269791486281,0.0,nan,nan,nan,19.29923404083901,-2.07891285369528,413.8909154659243,0.293837486031333,288.1802088146786,-9.286554203183076,15.063212871243913,-70.82475499639571
34.0,3.4000000000000004,0.0,1.0,0.550000011920929,0.830655630787243,0.0,nan,nan,nan,19.233991742300407,-2.3466125881427744,413.66824507554736,0.3062078680161782,287.14934369023456,-10.4860677719,-16.3982696533,-68.0842971802
35.0,3.5,0.0,1.0,1.0,0.8391228492478808,0.0,nan,nan,nan,19.1687494437618,-2.614312322590268,413.44557468517047,0.3185782500010233,286.1184785657905,-10.4860677719,-16.3982696533,-68.0842971802
36.0,3.6,0.0,1.0,1.0,0.8471667067854868,0.0,nan,nan,nan,19.10892377032937,-2.930374836638301,413.1616991809024,0.3374126902447056,284.5489419412041,-10.4860677719,-16.3982696533,-68.0842971802
37.0,3.7,0.0,1.0,1.0,0.8548083714462125,0.0,nan,nan,nan,19.049801476366877,-3.2527175317240395,412.8698758457022,0.3570865250897544,282.90945576928624,-10.4860677719,-16.3982696533,-68.0842971802
38.0,3.8,0.0,1.0,1.0,0.8620679528739018,0.0,nan,nan,nan,18.99067918240438,-3.575060226809778,412.57805251050206,0.3767603599348034,281.2699695973684,-10.4860677719,-16.3982696533,-68.0842971802
39.0,3.9,0.0,1.0,0.699999988079071,0.8539645546341603,0.0,nan,nan,nan,18.94602752342411,-3.85483118799746,412.2449190291492,0.392958094296818,279.2722535266734,-10.7214784622,-29.6740512848,-73.4491195679
40.0,4.0,0.0,1.0,0.44999998807907104,0.8337663263064058,0.0,nan,nan,nan,18.90422842685339,-4.126210082909116,411.9036421753602,0.4084705931054581,277.2039204343698,-10.7214784622,-29.6740512848,-73.4491195679
41.0,4.1000000000000005,0.0,1.0,0.5,0.8170780099910855,0.0,nan,nan,nan,18.86242933028267,-4.3975889778207735,411.5623653215711,0.4239830919140984,275.13558734206623,-10.72020241982035,-29.845225205509333,-73.94470332762626
42.0,4.2,0.0,1.0,0.875,0.8199741094915312,0.0,nan,nan,nan,18.82063023371195,-4.668967872732429,411.2210884677821,0.4394955907227384,273.06725424976264,-10.6974058151,-33.6547698975,-78.3854904175
43.0,4.3,0.0,1.0,0.5,0.8039754040169546,0.0,nan,nan,nan,18.815813920275318,-4.444770904145271,410.9109416840815,0.4558786785296709,270.6181979575863,-10.6974058151,-33.6547698975,-78.3854904175
44.0,4.4,0.0,1.0,0.375,0.7825266338161069,0.0,nan,nan,nan,18.81224056102965,-4.2039181286046166,410.6018411507656,0.4722910259583071,268.15634594110844,-10.6974058151,-33.6547698975,-78.3854904175
45.0,4.5,0.0,1.0,0.22499999403953552,0.7546503018272783,0.0,nan,nan,nan,18.808667201784,-3.9630653530639632,410.2927406174496,0.4887033733869431,265.69449392463065,-10.6974058151,-33.6547698975,-78.3854904175
46.0,4.6000000000000005,0.0,1.0,0.3499999940395355,0.7344177864378911,0.0,nan,nan,nan,18.81791987974932,-3.7843197010734766,410.0017567339808,0.5028974073801116,263.3239376332358,-9.60453510284,-36.6176300049,-87.0191268921
47.0,4.7,0.0,1.0,0.32499998807907104,0.7139468965199501,0.0,nan,nan,nan,18.855495243514127,-3.742720115111576,409.7507783621846,0.5121929217912712,261.1549822021714,-9.60453510284,-36.6176300049,-87.0191268921
48.0,4.800000000000001,0.0,1.0,0.375,0.6969995516939527,0.0,nan,nan,nan,18.89307060727894,-3.701120529149675,409.49979999038845,0.5214884362024308,258.986026771107,-9.60453510284,-36.6176300049,-87.0191268921
49.0,4.9,0.0,1.0,0.550000011920929,0.6896495747053014,0.0,nan,nan,nan,18.93231568711157,-3.666506075720493,409.2545358307274,0.5304905458285878,256.7792419500127,-8.752739365280295,-37.42477289582252,-91.59250184600457
50.0,5.0,0.0,1.0,1.0,0.7051670959700364,0.0,nan,nan,nan,18.989688603291,-3.707728072484202,409.0713099447772,0.5363072073247376,254.16174958122448,-7.88800096512,-38.2379646301,-95.545425415
51.0,5.1000000000000005,0.0,1.0,1.0,0.7199087411715346,0.0,nan,nan,nan,19.047061519470425,-3.748950069247911,408.88808405882696,0.5421238688208874,251.54425721243624,-7.88800096512,-38.2379646301,-95.545425415
52.0,5.2,0.0,1.0,1.0,0.7339133041129579,0.0,nan,nan,nan,19.10443443564985,-3.79017206601162,408.7048581728768,0.5479405303170372,248.926764843648,-7.578885666235741,-38.55317862444872,-97.06410209997333
53.0,5.300000000000001,0.0,1.0,1.0,0.74721763890731,0.0,nan,nan,nan,19.16239564696686,-3.475394253708844,408.54601700007015,0.5542075987077962,246.17671065357808,-6.01313829422,-40.1733016968,-103.219734192
54.0,5.4,0.0,1.0,1.0,0.7598567569619444,0.0,nan,nan,nan,19.220679329671544,-2.965476714582943,408.40054220033545,0.5607215556533658,243.35399328523303,-6.01313829422,-40.1733016968,-103.219734192
55.0,5.5,0.0,1.0,1.0,0.7718639191138472,0.0,nan,nan,nan,19.278963012376224,-2.455559175457042,408.2550674006008,0.5672355125989355,240.5312759168881,-6.01313829422,-40.1733016968,-103.219734192
56.0,5.6000000000000005,0.0,1.0,1.0,0.7832707231581548,0.0,nan,nan,nan,19.337246695080903,-1.945641636331136,408.1095926008661,0.5737494695445052,237.7085585485431,-4.59407138824,-38.9832115173,-111.439735413
57.0,5.7,0.0,1.0,1.0,0.7941071870002471,0.0,nan,nan,nan,19.395579643318904,-1.4483604707273583,407.9671074389148,0.5802553200383281,234.8978654145874,-4.59407138824,-38.9832115173,-111.439735413
58.0,5.800000000000001,0.0,1.0,1.0,0.8044018276502347,0.0,nan,nan,nan,19.45508147698904,-1.25089282444101,407.89555511412266,0.5865688349840525,232.372462045376,-4.59407138824,-38.9832115173,-111.439735413
59.0,5.9,0.0,1.0,1.0,0.8141817362677229,0.0,nan,nan,nan,19.51458331065917,-1.0534251781546635,407.8240027893306,0.5928823499297768,229.8470586761647,-4.59407138824,-38.9832115173,-111.439735413
60.0,6.0,0.0,1.0,1.0,0.8234726494543368,0.0,nan,nan,nan,19.5740851443293,-0.855957531868317,407.7524504645386,0.5991958648755012,227.32165530695332,-4.59407138824,-38.9832115173,-111.439735413
61.0,6.1000000000000005,0.0,1.0,0.8500000238418579,0.8247990181737128,0.0,nan,nan,nan,19.633586977999432,-0.6584898855819686,407.6808981397465,0.6055093798212257,224.796251937742,-3.2084543705,-39.3443984985,-124.420280457
62.0,6.2,0.0,1.0,1.0,0.8335590672650272,0.0,nan,nan,nan,19.690298241288808,-0.5699021153322872,407.6363014502911,0.609300367916495,222.16042353309004,-3.2084543705,-39.3443984985,-124.420280457
63.0,6.300000000000001,0.0,1.0,1.0,0.8418811139017758,0.0,nan,nan,nan,19.74013498271962,-0.749538036172197,407.6581095021786,0.6068771547531795,219.2525649638867,-3.2084543705,-39.3443984985,-124.420280457
64.0,6.4,0.0,1.0,1.0,0.849787058206687,0.0,nan,nan,nan,19.789971724150437,-0.9291739570121054,407.67991755406615,0.6044539415898641,216.34470639468336,-3.2084543705,-39.3443984985,-124.420280457
65.0,6.5,0.0,1.0,1.0,0.8572977052963526,0.0,nan,nan,nan,19.83980846558125,-1.1088098778520137,407.7017256059536,0.6020307284265486,213.4368478254801,-2.0370689741503343,-40.8553306567999,-131.56645856739843
66.0,6.6000000000000005,0.0,1.0,0.8500000238418579,0.8569328212236278,0.0,nan,nan,nan,19.886679177938262,-1.1902059589941931,407.7302279473296,0.6004261543726411,210.616482156662,-0.787345170975,-42.3375930786,-136.713912964
67.0,6.7,0.0,1.0,0.9750000238418579,0.8628361813545393,0.0,nan,nan,nan,19.91820467451176,-0.7633428487418028,407.7933642434513,0.6030569379198041,208.2487747061328,-0.787345170975,-42.3375930786,-136.713912964
68.0,6.800000000000001,0.0,1.0,0.949999988079071,0.8671943716907659,0.0,nan,nan,nan,19.949730171085253,-0.3364797384894084,407.8565005395731,0.605687721466967,205.88106725560357,-0.787345170975,-42.3375930786,-136.713912964
69.0,6.9,0.0,1.0,1.0,0.8738346531062275,0.0,nan,nan,nan,19.981255667658747,0.0903833717629822,407.9196368356949,0.6083185050141299,203.51335980507432,-0.787345170975,-42.3375930786,-136.95047803329905
70.0,7.0,0.0,1.0,0.9750000238418579,0.878892921643009,0.0,nan,nan,nan,20.011085444666385,0.3490646720395535,407.99717894591066,0.6091548495518134,200.90128477301283,0.547732174397,-41.642829895,-148.800628662
71.0,7.1000000000000005,0.0,1.0,0.550000011920929,0.8624482761569049,0.0,nan,nan,nan,20.03791148678308,0.3098349374861153,408.10023898214297,0.6068125912291152,197.85634604954708,0.547732174397,-41.642829895,-148.800628662
72.0,7.2,0.0,1.0,0.44999998807907104,0.8418258617530131,0.0,nan,nan,nan,20.06473752889977,0.2706052029326773,408.2032990183753,0.604470332906417,194.8114073260813,0.547732174397,-41.642829895,-148.800628662
73.0,7.300000000000001,0.0,1.0,0.7749999761581421,0.8384845674732695,0.0,nan,nan,nan,20.091563571016465,0.231375468379239,408.3063590546077,0.6021280745837189,191.7664686026156,2.454632733128093,-43.47436219932284,-157.0036771591412
74.0,7.4,0.0,1.0,1.0,0.846560339099606,0.0,nan,nan,nan,20.11924276430969,0.2443852168168272,408.4114751172469,0.5997390871372194,188.7651581415036,2.58281159401,-43.6239242554,-157.025909424
75.0,7.5,0.0,1.0,1.0,0.8542323221446257,0.0,nan,nan,nan,20.155397609985084,0.7763694572765183,408.5370168272899,0.596885868004285,186.19727377874617,2.58281159401,-43.6239242554,-157.025909424
76.0,7.6,0.0,1.0,1.0,0.8615207060373945,0.0,nan,nan,nan,20.191552455660485,1.3083536977362138,408.66255853733287,0.5940326488713507,183.62938941598867,2.58281159401,-43.6239242554,-157.025909424
77.0,7.7,0.0,1.0,1.0,0.8684446707355248,0.0,nan,nan,nan,20.227707301335883,1.8403379381959049,408.7881002473759,0.5911794297384164,181.06150505323123,2.570424213985455,-43.63433013493704,-157.73148022589675
78.0,7.800000000000001,0.0,1.0,0.4000000059604645,0.8450224374967716,0.0,nan,nan,nan,20.25824571522409,1.9726676330471271,408.9154180268786,0.5854287806799527,178.6286407639891,1.96729421616,-44.1795730591,-171.123260498
79.0,7.9,0.0,1.0,0.42500001192092896,0.8240213162179795,0.0,-1.811067615313277,0.8506524029215575,0.8663424504799107,20.284826380432705,1.8233715003080613,409.04398735484233,0.5776363905487842,176.29092149527258,1.96729421616,-44.1795730591,-171.123260498
80.0,8.0,0.0,1.0,0.375,0.8015702504070805,0.0,-1.603317088627455,0.8495572829691947,0.8634003279708163,20.310684558350022,1.675418197123443,409.1725597530721,0.569999992847,173.9383827828742,1.96729421616,-44.1795730591,-171.123260498
81.0,8.1,0.0,1.0,0.30000001192092896,0.7764917384827729,0.0,-1.5501101469115715,0.8471419189846477,0.8604803116070449,20.301174351323446,1.5932012925829948,409.3012824520119,0.569999992847,170.860378314731,1.970720388164571,-45.03684386962656,-178.40545175221098
82.0,8.200000000000001,0.0,1.0,0.22499999403953552,0.748917151260611,0.0,-1.725121168514159,0.842909823184427,0.857706296061462,20.291664144296867,1.510984388042545,409.4300051509517,0.569999992847,167.78237384658777,1.97151398659,-45.2488670349,-179.570358276
83.0,8.3,0.0,1.0,0.10000000149011612,0.7164712937720863,0.0,-2.155569481183989,0.8366393321779425,0.8550709812931583,20.282153937270284,1.4287674835020971,409.5587278498916,0.569999992847,164.70436937844454,1.97151398659,-45.2488670349,-179.570358276
84.0,8.4,0.0,1.0,0.22499999403953552,0.6918977287854587,0.0,-2.7942149388873525,0.8287448657068811,0.8525674322632697,20.273472277544027,1.4080118577073943,409.6674123134977,0.569999992847,161.75303491106683,1.8842716217,-43.4326019287,173.742019653
85.0,8.5,0.0,1.0,0.20000000298023224,0.6673028424951973,0.0,-3.639653760438319,0.8192451225668232,0.8501890606848755,20.26581865696576,1.4635157292419805,409.7512338750443,0.569999992847,158.95886916491014,1.8842716217,-43.4326019287,173.742019653
86.0,8.6,0.0,1.0,0.15000000596046448,0.6414377006684606,0.0,-4.639540857494205,0.8084703665390649,0.8478046077052693,20.258165036387496,1.5190196007765662,409.8350554365909,0.569999992847,156.16470341875345,1.8842716217,-43.4326019287,173.742019653
87.0,8.700000000000001,0.0,1.0,0.574999988079071,0.6381158150389911,0.0,-5.710601639317462,0.7972343482232875,0.8455185440611783,20.25051141580923,1.574523472311153,409.9188769981374,0.569999992847,153.37053767259673,0.656286238587128,-45.07355386648574,164.31327187247064
88.0,8.8,0.0,1.0,1.0,0.6562100242870416,0.0,-6.714056980491475,0.7866851308531013,0.8433051169226911,20.27143074658298,1.3962811529078238,410.0207279140437,0.5637425805690618,150.4970327017448,0.465711653233,-45.3599433899,163.718490601
89.0,8.9,0.0,1.0,0.875,0.6671495230726894,0.0,-7.71166564721613,0.7763508743514244,0.8412231944545934,20.296718468286297,1.18230242224843,410.1253352574216,0.5565285004726412,147.61139791114667,0.465711653233,-45.3599433899,163.718490601
90.0,9.0,0.0,1.0,0.9750000238418579,0.6825420481111478,0.0,-8.661711032940213,0.7665333306748313,0.8392245347964353,20.322842632711943,1.0146202923280154,410.2307714516843,0.5494614910776373,144.8115180867911,0.465711653233,-45.3599433899,163.718490601
91.0,9.1,0.0,1.0,0.875,0.6921649457055904,0.0,-9.430858207199195,0.7580191641522657,0.8369508081311193,20.356931753500277,1.2877936983398186,410.34410030966825,0.5437949502236945,142.8282328071379,0.5740493536,-45.058555603,153.983673096
92.0,9.2,0.0,1.0,0.8500000238418579,0.7000566996124037,0.0,-9.996222724454656,0.7509307060452352,0.8343324344558017,20.391020874288603,1.5609671043516269,410.45742916765226,0.5381284093697517,140.84494752748466,0.5740493536,-45.058555603,153.983673096
93.0,9.3,0.0,1.0,0.7250000238418579,0.7013038658238764,0.0,-10.531476075959919,0.7440716709627655,0.8316574794443818,20.42510999507693,1.83414051036343,410.5707580256362,0.5324618685158089,138.86166224783148,0.5740493536,-45.05838287927733,153.74773798807004
94.0,9.4,0.0,1.0,0.675000011920929,0.699988673128729,0.0,-11.14116169449193,0.7367430876642216,0.8291162721835328,20.45866946650331,1.8487274219095733,410.69611081980827,0.5236567441061882,136.94279444447633,-0.079104475677,-44.91355896,145.965652466
95.0,9.5,0.0,1.0,0.875,0.7087392394722926,0.0,-11.761635634058063,0.729468433530605,0.8267021252857263,20.491822046445797,1.6646609412208426,410.8307007387448,0.5124404718466522,135.0734139517878,-0.079104475677,-44.91355896,145.965652466
96.0,9.6,0.0,1.0,0.800000011920929,0.7133022780947244,0.0,-12.41510131693476,0.7220575121334715,0.8244086857328101,20.52497462638828,1.4805944605321089,410.9652906576813,0.501224199587116,133.20403345909924,-0.079104475677,-44.91355896,145.965652466
97.0,9.7,0.0,1.0,1.0,0.7276371641899881,0.0,-13.065702759127749,0.7150171368061946,0.8224799181674739,20.539658021048577,1.818456238812831,411.0612355280349,0.4949216723162152,130.96867001619304,0.456965059042,-43.9695129395,137.730453491
98.0,9.8,0.0,1.0,0.800000011920929,0.7312553065765351,0.0,-13.53841237772802,0.7093287802601829,0.8203975889953056,20.552078625020894,2.220263144404141,411.1524457198017,0.4892211627430924,128.68846741015864,0.456965059042,-43.9695129395,137.730453491
99.0,9.9,0.0,1.0,0.6499999761581421,0.7271925400556155,0.0,-13.931939096776219,0.7044873414520646,0.8185235429484123,20.564499228993206,2.622070049995452,411.2436559115686,0.4835206531699696,126.4082648041242,0.456965059042,-43.9695129395,137.730453491
100.0,10.0,0.0,1.0,0.6499999761581421,0.7233329118607418,0.0,-14.236412287406615,0.7005754745247477,0.8168681992088308,20.593654979844448,2.7540360921324325,411.3443934808379,0.479999989271,124.05520058557792,1.57579088211,-42.166015625,133.239700317
101.0,10.1,0.0,1.0,0.625,0.7184162662677046,0.0,-14.433709370747705,0.6976717009139942,0.8153581226711296,20.6498396291903,2.4501827560010274,411.4605186963163,0.479999989271,121.58445773875395,1.57579088211,-42.166015625,133.239700317
102.0,10.2,0.0,1.0,0.5249999761581421,0.7087454517622265,0.0,-14.51435671757945,0.695663115939075,0.8137777166170459,20.706024278536148,2.146329419869628,411.5766439117947,0.479999989271,119.11371489193006,1.57579088211,-42.166015625,133.239700317
103.0,10.3,0.0,1.0,0.5,0.6983081791741151,0.0,-14.424254478687756,0.6947549602091765,0.8118596641803734,20.762208927882,1.8424760837382288,411.6927691272731,0.479999989271,116.64297204510616,0.0690894946456,-40.4171409607,125.006393433
104.0,10.4,0.0,1.0,0.5,0.6883927702154093,0.0,-14.207052870513825,0.694579712280674,0.8096000143605674,20.816846070880143,1.54683506993701,411.7884394425605,0.479999989271,114.5387674373157,0.0690894946456,-40.4171409607,125.006393433
105.0,10.5,0.0,1.0,0.5249999761581421,0.680223130512546,0.0,-13.838937541939414,0.6952257266815415,0.8068908470342352,20.86841169980262,1.2674939980833568,411.8435105616339,0.479999989271,113.16207348699793,0.0690894946456,-40.4171409607,125.006393433
106.0,10.6,0.0,1.0,0.6000000238418579,0.6762119751790115,0.0,-13.284169919332529,0.696964440407069,0.8037338047259851,20.919977328725096,0.9881529262296987,411.8985816807072,0.479999989271,111.78537953668013,0.0690894946456,-40.4171409607,125.006393433
107.0,10.7,0.0,1.0,0.6499999761581421,0.674901375227968,0.0,-12.713775806611178,0.6988037184165179,0.8005887811898802,20.97154295764757,0.7088118543760457,411.9536527997805,0.479999989271,110.40868558636237,-1.4183725100480742,-43.85676666811508,116.50699038353036
108.0,10.8,0.0,1.0,1.0,0.6911563064665697,0.0,-12.197549090810464,0.7005510325254942,0.7978718421539797,21.03580453721305,0.5879526847015845,411.9784935743767,0.479999989271,108.08817027437478,-1.61662662029,-44.3264503479,115.871398926
109.0,10.9,0.0,1.0,1.0,0.7065984911432412,0.0,-11.67614148058239,0.7025234809290218,0.7953949167365408,21.10542624818458,0.5340033388795424,411.9905713331576,0.479999989271,105.36918093987026,-1.61662662029,-44.3264503479,115.871398926
110.0,11.0,0.0,1.0,1.0,0.7212685665860792,0.0,-11.167572730880787,0.7044598068527684,0.7930210042765088,21.175047959156107,0.4800539930575005,412.0026490919384,0.479999989271,102.65019160536576,-1.61662662029,-44.3264503479,115.871398926
111.0,11.1,0.0,1.0,0.925000011920929,0.7314551388528217,0.0,-10.66344301989008,0.7064243165101299,0.7907449541260133,21.257611726966747,0.3024714081219026,412.0008932751306,0.4786018729264214,100.09122350932375,-0.647452771664,-44.3547477722,110.380485535
112.0,11.2,0.0,1.0,0.574999988079071,0.7236323813141341,0.0,-10.254780344060945,0.7076031005952165,0.7884577065029107,21.36015764197868,-0.0659971861746465,411.97777883293816,0.4750451069213433,97.77932340116384,-0.647452771664,-44.3547477722,110.380485535
113.0,11.3,0.0,1.0,0.699999988079071,0.722450761652381,0.0,-9.846021560078018,0.7086604453866417,0.7860556546141648,21.46270355699061,-0.4344657804711958,411.9546643907457,0.4714883409162651,95.46742329300392,-0.647452771664,-44.3547477722,110.380485535
114.0,11.4,0.0,1.0,0.699999988079071,0.7213282229737155,0.0,-9.459438996500563,0.709727422878891,0.7838778719865229,21.56524947200255,-0.802934374767745,411.9315499485533,0.467931574911187,93.155523184844,-2.50003170967,-45.3792304993,101.757957458
115.0,11.5,0.0,1.0,0.925000011920929,0.7315118124210761,0.0,-9.062085742060413,0.7108660515263302,0.7817048118235965,21.667795387014483,-1.1714029690642942,411.9084355063609,0.4643748089061088,90.84362307668408,-2.50003170967,-45.3792304993,101.757957458
116.0,11.6,0.0,1.0,0.925000011920929,0.7411862223960687,0.0,-8.622931856832398,0.7122602487413975,0.7794737380120837,21.77034130202642,-1.5398715633608495,411.88532106416847,0.4608180429010306,88.53172296852411,-2.50003170967,-45.3792304993,101.757957458
117.0,11.7,0.0,1.0,1.0,0.7541269112762653,0.0,-8.203400757049096,0.7135847360957113,0.7773542178911467,21.866707479899425,-1.0394583797640018,411.8460535081927,0.460000008345,86.20271623917549,-2.50003170967,-45.3792304993,101.757957458
118.0,11.8,0.0,1.0,0.824999988079071,0.7576705651164056,0.0,-7.774836042396641,0.7149054990227048,0.7751740071195239,21.96122782563413,-0.2795179907270837,411.8019611617953,0.460000008345,83.86859991528297,-2.50003170967,-45.3792304993,101.757957458
119.0,11.9,0.0,1.0,0.675000011920929,0.7535370374566318,0.0,-7.352383060115341,0.7162227238927557,0.7730611402098815,22.055748171368837,0.4804223983098339,411.757868815398,0.460000008345,81.53448359139045,-2.50003170967,-45.3792304993,101.757957458
120.0,12.0,0.0,1.0,0.699999988079071,0.7508601849877538,0.0,-6.952809211047532,0.7175990875491063,0.7712205833024538,22.150268517103537,1.240362787346752,411.7137764690007,0.460000008345,79.20036726749794,-3.91620802879,-41.2766418457,88.8725204468
121.0,12.1,0.0,1.0,0.875,0.757067175738366,0.0,-6.502876066705847,0.7195316330226393,0.7695762209070641,22.236474818320016,0.9064050383246244,411.6521207020329,0.4620668279926593,76.93317838121285,-3.91620802879,-41.2766418457,88.8725204468
122.0,12.2,0.0,1.0,0.824999988079071,0.7604638163554013,0.0,-5.940279728956141,0.722117551252298,0.767722409944909,22.32190039868416,0.4697260343418442,411.5888156621213,0.4643277299781509,74.67227423949693,-3.91620802879,-41.2766418457,88.8725204468
123.0,12.3,0.0,1.0,0.7250000238418579,0.7586906267297241,0.0,-5.329853669992594,0.7251366736300785,0.7659612895308617,22.407325979048306,0.0330470303590639,411.5255106222096,0.4665886319636426,72.411370097781,-3.937562283135441,-41.2146732735863,88.09082132946921
124.0,12.4,0.0,1.0,0.7749999761581421,0.7595060942011449,0.0,-4.67038295482714,0.7286923398293653,0.7643923918041834,22.49275155941245,-0.4036319736237161,411.46220558229794,0.4688495339491342,70.15046595606508,-4.40636205673,-39.5534324646,79.1414794922
125.0,12.5,0.0,1.0,0.875,0.7652807894910876,0.0,-3.9581523192155106,0.7329452227782923,0.7631519389489378,22.58238913520484,-0.6599802274135971,411.39055582051947,0.4730334892536993,67.7866038699325,-4.40636205673,-39.5534324646,79.1414794922
126.0,12.6,0.0,1.0,0.949999988079071,0.7745167494204868,0.0,-3.1910207329811593,0.7378604614903661,0.7621818420946233,22.67639053548553,-0.7294973801035026,411.3102605361495,0.479209817842866,65.31607253242832,-4.40636205673,-39.5534324646,79.1414794922
127.0,12.7,0.0,1.0,0.949999988079071,0.7832909113534159,0.0,-2.3966382341407964,0.7432799382966385,0.7615310834064235,22.770391935766224,-0.799014532793407,411.22996525177945,0.4853861464320325,62.84554119492417,-4.40636205673,-39.5534324646,79.1414794922
128.0,12.8,0.0,1.0,0.8999999761581421,0.7891263645936522,0.0,-1.740828499297042,0.7481784412029926,0.7614336959859671,22.864393336046916,-0.8685316854833113,411.1496699674095,0.491562475021199,60.37500985742002,-3.780489525693326,-39.846114627184456,70.3616096988594
129.0,12.9,0.0,1.0,0.875,0.7934200463639695,0.0,-1.2073603304059928,0.752519518964029,0.7617161779265995,22.958394736327605,-0.9380488381732156,411.0693746830394,0.4977388036103655,57.90447851991587,-3.71653079987,-39.8765029907,69.9414672852
130.0,13.0,0.0,1.0,0.7749999761581421,0.792499042853678,0.0,-0.7747523362562869,0.756081042777409,0.7619845357702002,23.052288986448943,-0.984007169967156,410.99608525738506,0.4976898861128608,55.38291873679221,-3.71653079987,-39.8765029907,69.9414672852
131.0,13.1,0.0,1.0,0.875,0.796624090710994,0.0,-0.37228694274238844,0.7593394903703176,0.762176975731555,23.14612135167315,-1.0163590338210444,410.9268420865253,0.4940455589948458,52.83188732126304,-3.71653079987,-39.8765029907,69.9414672852
132.0,13.2,0.0,1.0,0.7749999761581421,0.7955428849833514,0.0,0.12196609875098698,0.7629350155537784,0.7620056270182413,23.23995371689735,-1.048710897674932,410.8575989156656,0.4904012318768309,50.2808559057339,-3.7498658292727582,-39.946024525056814,69.1451952915183
133.0,13.3,0.0,1.0,0.8500000238418579,0.7982657419262766,0.0,0.673971514515695,0.7667257645674732,0.7615928457306591,23.341594290249308,-1.704851861462116,410.799130993258,0.502712324565551,47.966030080370935,-4.57112693787,-41.2066726685,57.8304176331
134.0,13.4,0.0,1.0,1.0,0.8083524548299628,0.0,1.3307396413750272,0.7710769761602856,0.7609507034975219,23.44420085999953,-2.43816520768968,410.7419961361356,0.5169973500457449,45.68042654847352,-4.57112693787,-41.2066726685,57.8304176331
135.0,13.5,0.0,1.0,1.0,0.8179348320884646,0.0,1.9887403566747293,0.7753981271436551,0.7602781683859757,23.546807429749748,-3.171478553917244,410.68486127901326,0.5312823755259387,43.3948230165761,-4.730284058546377,-41.27194623763501,56.381628949307846
136.0,13.6,0.0,1.0,1.0,0.8270380904840414,0.0,2.6480484351647346,0.7796907205480537,0.759576760039941,23.65252203827392,-3.219983153370238,410.60860536213545,0.5437625909836868,41.05935672151031,-5.57545185089,-41.6360168457,50.170425415
137.0,13.7,0.0,1.0,1.0,0.8356861859598393,0.0,3.2755199357878553,0.7837686842822323,0.758910422111208,23.76310334958709,-2.196184322825996,410.50240885519145,0.5534167561220172,38.64581313519153,-5.57545185089,-41.6360168457,50.170425415
138.0,13.8,0.0,1.0,1.0,0.8439018766618473,0.0,3.950327805674909,0.7880802498595044,0.7581315677356442,23.873684660900278,-1.1723854922817545,410.3962123482474,0.5630709212603476,36.23226954887276,-5.57545185089,-41.6360168457,50.170425415
139.0,13.9,0.0,1.0,1.0,0.851706782828755,0.0,4.737409577788914,0.7929887371281106,0.7571208227554592,23.98426597221345,-0.1485866617375122,410.2900158413034,0.572725086398678,33.818725962553984,-5.501670710537725,-43.11230645845112,47.52010398435612
140.0,14.0,0.0,1.0,0.9750000238418579,0.8578714448794101,0.0,5.612923573978193,0.7983393001226935,0.7559106150143495,24.097003736349794,0.4933632842860618,410.1801113813891,0.579999983311,31.33601637586481,-5.33474969864,-46.4569358826,42.2798500061
141.0,14.1,0.0,1.0,0.9750000238418579,0.8637278738275326,0.0,6.47744649235577,0.8036723350271517,0.7547817509737604,24.216335112678884,-0.0322353632482377,410.0588694121854,0.579999983311,28.641823478033142,-5.33474969864,-46.4569358826,42.2798500061
142.0,14.2,0.0,1.0,0.925000011920929,0.8667914807322024,0.0,7.355083107132239,0.8089887182459918,0.7535634967919334,24.335666489007973,-0.5578340107825281,409.9376274429817,0.579999983311,25.94763058020153,-5.33474969864,-46.4569358826,42.2798500061
143.0,14.3,0.0,1.0,0.9750000238418579,0.8722019078876851,0.0,8.307525299568326,0.8146642823038899,0.7521769886723991,24.45499786533706,-1.0834326583168183,409.816385473778,0.579999983311,23.253437682369917,-5.172104891644075,-46.574980633578974,40.65553956249367
144.0,14.4,0.0,1.0,0.550000011920929,0.8560918130893472,0.0,9.167950084856518,0.8194935682483,0.7506723059389735,24.565172663583297,-1.5171601564053885,409.6918209899405,0.5860140182453486,20.195791383683478,-3.93638324738,-47.5633354187,32.381690979
145.0,14.5,0.0,1.0,0.9750000238418579,0.8620372236269728,0.0,10.037220105630265,0.8243313899550943,0.7491386906755524,24.667381361906774,-1.870960988671687,409.5643659630061,0.5972601827801345,16.821945508880326,-3.93638324738,-47.5633354187,32.381690979
146.0,14.6,0.0,1.0,0.7749999761581421,0.8576853612535312,0.0,10.795466678469234,0.8284898205467465,0.7477650894788334,24.769590060230254,-2.224761820937992,409.4369109360717,0.6085063473149207,13.44809963407712,-3.93638324738,-47.5633354187,32.381690979
147.0,14.7,0.0,1.0,0.949999988079071,0.8623010925948081,0.0,11.52149821156495,0.8324403296088161,0.7464393349788147,24.81709848722575,-2.2067623248271446,409.3108628578322,0.5910222512152301,11.102224709060852,-4.35301828384,-46.6935539246,21.3969573975
148.0,14.8,0.0,1.0,0.574999988079071,0.8479360373690212,0.0,12.110855615164006,0.8353808132475845,0.745138201527196,24.856229163880226,-2.1318188638650577,409.1850302641713,0.5691379036179749,8.91379112329317,-4.35301828384,-46.6935539246,21.3969573975
149.0,14.9,0.0,1.0,0.699999988079071,0.8405392349045238,0.0,12.629614476950257,0.8377367726746122,0.7437979580814917,24.89535984053469,-2.056875402902971,409.05919767051023,0.5472535560207197,6.725357537525484,-4.35301828384,-46.6935539246,21.3969573975
150.0,15.0,0.0,1.0,0.925000011920929,0.844762273755344,0.0,13.200082195457732,0.8403499342196955,0.7423580601016696,24.898827410990467,-1.8607502362803476,408.97734283341526,0.5272603165177915,4.771695322988332,-4.07995271683,-48.0637283325,13.0283946991
151.0,15.1,0.0,1.0,0.949999988079071,0.8500241594715303,0.0,13.727816334463823,0.8430199376577223,0.7412609903442378,24.769419162614604,-1.2131187348661383,409.059343056548,0.5143130851537167,3.692758882944108,-4.07995271683,-48.0637283325,13.0283946991
152.0,15.2,0.0,1.0,0.9750000238418579,0.8562729526900467,0.0,14.256355874584097,0.8460564410430571,0.7404896073980767,24.64001091423874,-0.5654872334519403,409.1413432796806,0.501365853789642,2.6138224428999037,-4.07995271683,-48.0637283325,13.0283946991
153.0,15.3,0.0,1.0,0.925000011920929,0.8597093056515908,0.0,14.775138541291788,0.8491286192293228,0.7398192936389602,24.51060266586288,0.0821442679622574,409.2233435028133,0.4884186224255675,1.5348860028556983,-3.610066887458304,-45.01112688535979,11.41056311011248
154.0,15.4,0.0,1.0,0.9750000238418579,0.8654738415611041,0.0,15.260398301427852,0.8519846885658799,0.7391824955677995,24.381194417487013,0.7297757693764553,409.305343725946,0.4754713910614929,0.4559495628114938,-0.913035452366,-25.3749732971,5.54003620148
155.0,15.5,0.0,1.0,1.0,0.8722001494830489,0.0,15.722170138582594,0.8546979544356091,0.7385775374001967,24.22579194062597,1.2698435133656183,409.51292854331336,0.4652403806472128,0.1586539323890544,-0.913035452366,-25.3749732971,5.54003620148
156.0,15.6,0.0,1.0,1.0,0.8785901420088965,0.0,16.161554601754126,0.8572755570118519,0.7380028271409742,24.051364894313185,1.731187852473203,409.8124257956449,0.456997308983841,0.4334229769172936,-0.913035452366,-25.3749732971,5.54003620148
157.0,15.7,0.0,1.0,1.0,0.8846606349084517,0.0,16.579604171760806,0.8597242794592825,0.7374568523947128,23.8769378480004,2.192532191580779,410.1119230479764,0.4487542373204692,0.7081920214455278,-0.913035452366,-25.3749732971,5.54003620148
158.0,15.8,0.0,1.0,1.0,0.8904276031630292,0.0,16.898011710638244,0.8620505657843416,0.7374381763807973,23.70251080168762,2.653876530688355,410.411420300308,0.4405111656570975,0.982961065973762,2.66569185257,8.29321575165,0.197212174535
159.0,15.9,0.0,1.0,1.0,0.8959062230048777,0.0,17.124407822917806,0.8642605377931477,0.7378996008243103,23.55939469147713,3.040253035525451,410.7102277358204,0.4326252878283502,1.7374709494627991,2.66569185257,8.29321575165,0.197212174535
160.0,16.0,0.0,1.0,1.0,0.9011109118546338,0.0,17.2682732897449,0.8664225111419089,0.7388379540655158,23.418348595412485,3.421673301529077,411.0089895664818,0.4247630246334184,2.5236972377165863,2.66569185257,8.29321575165,0.197212174535
161.0,16.1,0.0,1.0,1.0,0.9060553662619021,0.0,17.32384183877384,0.8685388857636274,0.7402918896545951,23.277302499347837,3.803093567532709,411.3077513971433,0.4169007614384865,3.309923525970388,2.66569185257,8.29321575165,0.197212174535
162.0,16.2,0.0,1.0,1.0,0.910752597948807,0.0,17.309445780812297,0.8707369416244576,0.742256461812455,23.1422067685605,4.109196302508039,411.60512121790873,0.4093430956911978,4.098535057061198,3.4801671505,23.6946868896,1.19936239719
163.0,16.3,0.0,1.0,1.0,0.9152149680513667,0.0,17.189405061644226,0.8728875946326417,0.7448519720477149,23.049817382272,3.8747378656911344,411.8925004496276,0.4039715551524071,4.904265705645588,3.4801671505,23.6946868896,1.19936239719
164.0,16.400000000000002,0.0,1.0,1.0,0.9194542196487984,0.0,17.184208685253783,0.8760557149606143,0.7475885401194464,22.95742799598349,3.6402794288742295,412.1798796813465,0.3986000146136165,5.709996354229979,3.4801671505,23.6946868896,1.19936239719
165.0,16.5,0.0,1.0,0.9750000238418579,0.9222315098584514,0.0,17.07851493293268,0.8790654292721882,0.7508341131383094,22.86503860969499,3.405820992057333,412.4672589130653,0.393228474074826,6.515727002814341,3.4801671505,23.6946868896,1.19936239719
166.0,16.6,0.0,1.0,0.9750000238418579,0.9248699355576216,0.0,16.964465777139203,0.8824246579873927,0.7544382408147272,22.78930549807277,3.281501288237392,412.7080724913563,0.389999985695,7.446469436723861,2.84625220299,33.7225723267,4.14246702194
167.0,16.7,0.0,1.0,1.0,0.9286264387797406,0.0,16.825445318199968,0.8857409252966393,0.7581746621073241,22.738664911140788,3.323104573347992,412.87873534076175,0.389999985695,8.565540976192061,2.84625220299,33.7225723267,4.14246702194
168.0,16.8,0.0,1.0,0.9750000238418579,0.9309451180328465,0.0,16.880264197919583,0.8898913793298305,0.7613700956586905,22.688024324208804,3.3647078584585937,413.0493981901672,0.389999985695,9.6846125156603,2.84625220299,33.7225723267,4.14246702194
169.0,16.900000000000002,0.0,1.0,0.8999999761581421,0.9293978609391113,0.0,17.01965291197634,0.89433431063156,0.7642599241892211,22.63738373727682,3.406311143569196,413.2200610395727,0.389999985695,10.80368405512854,2.141446099176928,36.38220507587621,5.886226483991878
170.0,17.0,0.0,1.0,0.875,0.9266779678921556,0.0,17.14116571432459,0.8984300953384006,0.7669635946166243,22.60963242180425,2.95725011510315,413.2766876637887,0.3929654083404429,12.482708318013064,1.29857170582,39.4873504639,7.77369356155
171.0,17.1,0.0,1.0,0.699999988079071,0.9153440689015014,0.0,17.165077882632133,0.9016960908098991,0.7695945815127233,22.586750791197616,2.4038004176346472,413.309053119144,0.3965617236642856,14.280862335975284,1.29857170582,39.4873504639,7.77369356155
172.0,17.2,0.0,1.0,0.8500000238418579,0.9120768666485192,0.0,17.131366431787526,0.9044862865078227,0.772198185730684,22.565371386981774,1.8370251664470287,413.3365634748105,0.400127139723368,16.063566942301453,0.8404908863369478,40.104103866194464,8.692493067656278
173.0,17.3,0.0,1.0,0.8999999761581421,0.9114730221240003,0.0,17.06629627956596,0.9070744723314432,0.7748382763944792,22.576675520281917,0.980329409553836,413.2584427260077,0.4030202887491999,17.51014283467216,-1.19792723656,42.9231910706,11.9952526093
174.0,17.400000000000002,0.0,1.0,0.8999999761581421,0.9108993698257073,0.0,16.943158759146225,0.9093457487446733,0.7775963625350188,22.587979653582053,0.1236336526606425,413.180321977205,0.4059134377750317,18.95671872704287,-1.19792723656,42.9231910706,11.9952526093
175.0,17.5,0.0,1.0,0.7749999761581421,0.904104400142329,0.0,16.739303262776943,0.9109409612776374,0.7803207110351982,22.599283786882197,-0.7330621042325207,413.10220122840224,0.4088065868008635,20.40329461941352,-1.19792723656,42.9231910706,11.9952526093
176.0,17.6,0.0,1.0,0.800000011920929,0.898899180731259,0.0,16.45829846595109,0.9119564132137554,0.783075508767101,22.62485540815328,-1.2142233416711652,412.9733815110535,0.4141999629628362,21.979992153456763,-3.5670273304,42.5773773193,16.3381614685
177.0,17.7,0.0,1.0,0.875,0.8977042216946959,0.0,16.153395276204535,0.9126085925530677,0.7856925666124087,22.660444422335008,-1.431716802375154,412.8089653741302,0.4213487818235927,23.64804982135579,-3.5670273304,42.5773773193,16.3381614685
178.0,17.8,0.0,1.0,0.8999999761581421,0.8978190094178681,0.0,15.809405192308624,0.9129781628658097,0.7883454382221836,22.69603343651674,-1.6492102630791503,412.6445492372069,0.4284976006843495,25.316107489254883,-3.5670273304,42.5773773193,16.3381614685
179.0,17.900000000000002,0.0,1.0,0.824999988079071,0.8941780583509282,0.0,15.386879022285022,0.9128917546331121,0.7911573329380046,22.731622450698477,-1.8667037237831472,412.4801331002835,0.4356464195451063,26.98416515715397,-5.28621665238971,42.69417558974644,20.39002353316927
180.0,18.0,0.0,1.0,0.925000011920929,0.8957191560294282,0.0,14.922407511341813,0.9126221668418519,0.7941202996045695,22.779182509009644,-2.072151452385589,412.2801560210374,0.4448944571206497,28.88100250078834,-5.9219956398,42.7389984131,21.5832233429
181.0,18.1,0.0,1.0,0.9750000238418579,0.8996831994200497,0.0,14.431644318933381,0.9123035584997593,0.7972476179378062,22.84538742804145,-2.258837994003596,412.0247928944644,0.4574120207405509,31.13416341517193,-5.9219956398,42.7389984131,21.5832233429
182.0,18.2,0.0,1.0,1.0,0.9046990394490472,0.0,13.912624648191025,0.9120008805747712,0.8006144037075825,22.911592347073267,-2.4455245356215958,411.7694297678914,0.4699295843604517,33.38732432955543,-5.9219956398,42.7389984131,21.5832233429
183.0,18.3,0.0,1.0,1.0,0.9094640874765948,0.0,13.364819051997477,0.9117133365460327,0.8042295168555367,22.97779726610508,-2.6322110772396017,411.5140666413183,0.4824471479803529,35.640485243939025,-7.890842457654611,42.31671545397715,29.2639522552
184.0,18.4,0.0,1.0,1.0,0.9139908831027651,0.0,12.790758279667456,0.911440169718731,0.8080805410127598,23.05344293345246,-2.8125217529838182,411.269283446295,0.4939436401422881,37.98590859158305,-8.01647281647,42.2898330688,29.2639522552
185.0,18.5,0.0,1.0,1.0,0.9182913389476268,0.0,12.20630914652641,0.9112431611731898,0.8121140140018582,23.143450925892097,-2.9831327465245563,411.0405956296559,0.5038867638919389,40.47169189968728,-8.01647281647,42.2898330688,29.2639522552
186.0,18.6,0.0,1.0,1.0,0.9223767720002455,0.0,11.621344383678215,0.9111185029953209,0.8162583133415018,23.230857583980008,-3.156630585047139,410.8162219254466,0.5147868793003758,42.837705097153865,-8.01647281647,42.2898330688,29.2639522552
187.0,18.7,0.0,1.0,0.9750000238418579,0.9250079345923261,0.0,11.024002365146293,0.9109375777859503,0.820487064400698,23.31411202974009,-3.3347363638424112,410.59873434520006,0.5272145309751847,45.01254297355364,-8.348887769668213,42.43188618850976,37.14732988414207
188.0,18.8,0.0,1.0,0.8500000238418579,0.9212575390548026,0.0,10.427091578397487,0.910453198837048,0.8244835445934693,23.39736647550019,-3.51284214263769,410.3812467649535,0.539642182649994,47.187380849953485,-8.37952613831,42.4456672668,37.7698898315
189.0,18.9,0.0,1.0,0.75,0.9126946621020624,0.0,9.831137338771194,0.9096180388951957,0.8281968674234004,23.47634185513087,-3.563144869193966,410.1706764976112,0.550000011921,49.39736099431106,-7.695990226419216,42.334707427902046,40.90059990395367
190.0,19.0,0.0,1.0,0.675000011920929,0.9008099295930058,0.0,9.223473048533101,0.9083246369802381,0.8316203574451684,23.53390388242449,-2.973894079964237,409.9947219277051,0.550000011921,51.783200483428345,-7.36837482452,42.2813873291,42.1563262939
191.0,19.1,0.0,1.0,0.7250000238418579,0.8920194343054483,0.0,8.6827027307392,0.9071584052504355,0.8346851729459797,23.59146590971811,-2.384643290734488,409.81876735779895,0.550000011921,54.16903997254572,-7.36837482452,42.2813873291,42.1563262939
192.0,19.200000000000003,0.0,1.0,0.875,0.8911684625901758,0.0,8.150508298706919,0.9061129850475182,0.8378259143682194,23.64902793701173,-1.7953925015047385,409.6428127878928,0.550000011921,56.55487946166309,-6.875318199442067,42.9961267447068,45.453293450248594
193.0,19.3,0.0,1.0,0.9750000238418579,0.8953600406527599,0.0,7.649567736515675,0.9053073359739563,0.8409762853760797,23.670725857509577,-1.5100414245944809,409.5159609195983,0.5480410917397991,59.15481425436731,-6.14599180222,44.0145111084,49.7612304688
194.0,19.4,0.0,1.0,0.9750000238418579,0.8993420398122147,0.0,7.178189180068107,0.9047294694732817,0.8441358044902796,23.68419803748096,-1.294392353476287,409.4003711771084,0.5456328764119389,61.80385364140236,-6.14599180222,44.0145111084,49.7612304688
195.0,19.5,0.0,1.0,0.9750000238418579,0.9031249390136968,0.0,6.808418904398919,0.90468049641685,0.8470123476189672,23.69767021745234,-1.0787432823581,409.28478143461854,0.5432246610840789,64.45289302843732,-6.14599180222,44.0145111084,49.7612304688
196.0,19.6,0.0,1.0,0.949999988079071,0.9054686914669655,0.0,6.516644294018519,0.9050089719536354,0.8496408969245537,23.711142397423725,-0.8630942112399057,409.1691916921287,0.5408164457562187,67.10193241547236,-4.8014292717,40.767124176,57.5742683411
197.0,19.700000000000003,0.0,1.0,0.8999999761581421,0.9051952557015243,0.0,6.261449756298445,0.9053835236539768,0.8520338520981942,23.674731494827427,-0.978656190161422,409.0859439045651,0.5432635584511053,69.30541604221742,-4.8014292717,40.767124176,57.5742683411
198.0,19.8,0.0,1.0,0.824999988079071,0.9011854923204016,0.0,5.990637392910854,0.9055518477991035,0.8543696595032185,23.61273572592649,-1.2640952095081806,409.01928419757365,0.5482009526589399,71.28037560887017,-4.8014292717,40.767124176,57.5742683411
199.0,19.9,0.0,1.0,0.7749999761581421,0.8948762165122885,0.0,5.704715651053827,0.9055867557071715,0.8567136765181235,23.55073995702556,-1.5495342288549492,408.9526244905822,0.5531383468667747,73.255335175523,-4.8014292717,40.767124176,57.5742683411
200.0,20.0,0.0,1.0,0.7749999761581421,0.8888824044945811,0.0,5.36787601149272,0.9052449181304292,0.8591279927021515,23.488744188124624,-1.8349732482017076,408.8859647835908,0.5580757410746092,75.23029474217577,-4.20819711685,38.1679077148,68.4234542847
201.0,20.1,0.0,1.0,0.7250000238418579,0.8806882854619449,0.0,4.966918318117395,0.9042951724325239,0.8615049264301795,23.404931395581013,-1.721131810114816,408.8538305807429,0.560000002384,77.23069134497882,-4.20819711685,38.1679077148,68.4234542847
202.0,20.200000000000003,0.0,1.0,0.7749999761581421,0.8754038699967547,0.0,4.505286326019903,0.9028304139599093,0.8639088468150735,23.30718571129428,-1.352299981052388,408.8437452200969,0.560000002384,79.2473326691862,-4.20819711685,38.1679077148,68.4234542847
203.0,20.3,0.0,1.0,0.8999999761581421,0.876633675304824,0.0,4.012728906245468,0.9011888933513207,0.8664217378275214,23.209440027007545,-0.9834681519899732,408.8336598594508,0.560000002384,81.26397399339352,-4.20819711685,38.1679077148,68.4234542847
204.0,20.4,0.0,1.0,0.8999999761581421,0.8778019903474897,0.0,3.4963276552832037,0.8993794487135569,0.8689964843092151,23.11169434272081,-0.6146363229275453,408.8235744988048,0.560000002384,83.2806153176009,-0.853696584702,39.9401016235,76.2434997559
205.0,20.5,0.0,1.0,0.8999999761581421,0.8789118896380222,0.0,2.9675767572357574,0.8974104762480767,0.8715466601334907,23.00214448366433,-0.5691394207891839,408.8346123563672,0.561625687898545,85.46311835846639,-0.853696584702,39.9401016235,76.2434997559
206.0,20.6,0.0,1.0,0.949999988079071,0.8824662945600746,0.0,2.448934702617235,0.8954149523760682,0.8740109938431534,22.886048701277005,-0.7029456620824741,408.8573639482306,0.5641528860512766,87.73759886509694,-0.853696584702,39.9401016235,76.2434997559
207.0,20.700000000000003,0.0,1.0,0.4749999940395355,0.8620929795340476,0.0,1.813869368895689,0.8922692046231543,0.8763729442304685,22.769952918889672,-0.8367519033757644,408.8801155400941,0.5666800842040083,90.0120793717275,-0.853696584702,39.9401016235,76.2434997559
208.0,20.8,0.0,1.0,0.6499999761581421,0.8514883293652523,0.0,1.161609669250725,0.8887807441386767,0.8785751304714877,22.653857136502342,-0.97055814466905,408.9028671319575,0.5692072823567398,92.28655987835798,-0.1435115675831237,39.99864673543754,82.67069706390642
209.0,20.9,0.0,1.0,0.7749999761581421,0.8476639117048967,0.0,0.5639761896991256,0.8855292066188185,0.8805630407337893,22.523072525950425,-0.8813945030170716,408.9180853463564,0.5716167228854157,94.77840473814398,0.199642270803,40.0251083374,85.3445129395
210.0,21.0,0.0,1.0,0.800000011920929,0.8452807167156984,0.0,0.04357860877611613,0.8827527459749531,0.8823682221794448,22.385574700639104,-0.6903272450713098,408.9298605917032,0.5739723448105252,97.36959132671996,0.199642270803,40.0251083374,85.3445129395
211.0,21.1,0.0,1.0,0.8500000238418579,0.8455166820720063,0.0,-0.39940083487905254,0.8804276083632809,0.8839581445726856,22.248076875327783,-0.4992599871255412,408.9416358370499,0.5763279667356347,99.96077791529603,0.199642270803,40.0251083374,85.3445129395
212.0,21.200000000000003,0.0,1.0,0.800000011920929,0.8432408485644524,0.0,-0.849264340329084,0.8780312276619948,0.8855519041994661,22.110579050016455,-0.3081927291797726,408.9534110823967,0.5786835886607443,102.55196450387211,-0.00739592080936,41.0927124023,93.900100708
213.0,21.3,0.0,1.0,0.925000011920929,0.8473288067322762,0.0,-1.3008188612989724,0.8756296659659706,0.8871701425115741,21.974934052746267,-0.30321699627121,408.9550220142068,0.5824841780569034,104.86946639904907,-0.00739592080936,41.0927124023,93.900100708
214.0,21.4,0.0,1.0,0.824999988079071,0.8462123657996159,0.0,-1.7681658190749272,0.8729731822653407,0.8886866355946116,21.841636042492485,-0.5339643760488056,408.9437577566462,0.5881151153420273,106.84029045486896,-0.00739592080936,41.0927124023,93.900100708
215.0,21.5,0.0,1.0,0.699999988079071,0.8389017469135887,0.0,-2.2856196105919984,0.8697620226603353,0.8901064707100321,21.708338032238707,-0.764711755826393,408.9324934990856,0.5937460526271511,108.81111451068875,-0.00739592080936,41.0927124023,93.900100708
216.0,21.6,0.0,1.0,0.824999988079071,0.8382066589718628,0.0,-2.8061861550645757,0.8663989210355801,0.8914136473930809,21.575040021984925,-0.9954591356039886,408.92122924152494,0.5993769899122751,110.78193856650866,-0.5280400819068988,42.30101758384336,101.6138747258426
217.0,21.700000000000003,0.0,1.0,0.7250000238418579,0.8325463272153625,0.0,-3.339299560521975,0.8627664746112721,0.8925721318887756,21.4552922587598,-0.8935750190484948,408.9015424313721,0.600000023842,113.25392798656894,-0.764073610306,42.838142395,104.318725586
218.0,21.8,0.0,1.0,0.6000000238418579,0.8209190120466873,0.0,-3.8917361997258646,0.8587531505975863,0.8935268588164182,21.337230283589246,-0.750308173314082,408.8808077703189,0.600000023842,115.78826745697268,-0.764073610306,42.838142395,104.318725586
219.0,21.9,0.0,1.0,0.5,0.8048730614443529,0.0,-4.4722974336375065,0.8542529928441895,0.8942463493778104,21.21916830841869,-0.607041327579664,408.86007310926567,0.600000023842,118.3226069273765,-0.764073610306,42.838142395,104.318725586
220.0,22.0,0.0,1.0,0.44999998807907104,0.7871294077760888,0.0,-5.09608081361337,0.849165343008265,0.89476319870473,21.101106333248147,-0.4637744818452513,408.8393384482125,0.600000023842,120.85694639778023,0.377719372511,45.3558959961,111.507408142
221.0,22.1,0.0,1.0,0.925000011920929,0.7940229379833307,0.0,-5.610192522581897,0.8448320756343343,0.8950458722319702,20.988221303930185,-0.4784141270104358,408.8145597633615,0.6022036209864828,123.32215954763323,0.377719372511,45.3558959961,111.507408142
222.0,22.200000000000003,0.0,1.0,0.875,0.798071791084164,0.0,-6.05725890345184,0.8409654716887047,0.895189412053046,20.87958955335287,-0.6227866957711586,408.7864585866523,0.6062176509912733,125.730579847418,0.377719372511,45.3558959961,111.507408142
223.0,22.3,0.0,1.0,0.925000011920929,0.8044182021260022,0.0,-6.468329310582065,0.8373546980297636,0.8952632748433317,20.770011756127182,-0.7683446206275236,408.760468289409,0.610000014305,128.13445766396566,0.377719372511,45.3558959961,111.507408142
224.0,22.4,0.0,1.0,0.8999999761581421,0.8091972908276092,0.0,-6.889115469226207,0.8339244630537695,0.8956251111309674,20.644988095193327,-0.9332555538481584,408.7689417858812,0.610000014305,130.4641715086875,-0.641063034534,44.2790756226,122.049240112
225.0,22.5,0.0,1.0,0.675000011920929,0.8024874268822751,0.0,-7.3448653689974055,0.8301032399159822,0.8959063555644848,20.51996443425948,-1.0981664870687873,408.7774152823533,0.610000014305,132.7938853534093,-0.641063034534,44.2790756226,122.049240112
226.0,22.6,0.0,1.0,0.675000011920929,0.7961130561342078,0.0,-7.869270195153896,0.8257855779946889,0.8963193711195939,20.394940773325622,-1.263077420289422,408.7858887788255,0.610000014305,135.12359919813116,-0.641063034534,44.2790756226,122.049240112
227.0,22.700000000000003,0.0,1.0,0.550000011920929,0.7838074039235438,0.0,-8.305621170067493,0.8218712992141637,0.8963159025685813,20.269917112391767,-1.4279883535100568,408.79436227529766,0.610000014305,137.45331304285304,-0.47378385067,45.0467987061,128.035263062
228.0,22.8,0.0,1.0,0.925000011920929,0.790867034323413,0.0,-8.649824423947395,0.8188402344620718,0.8963751074351851,20.14911246465449,-1.32739794447137,408.82139130854017,0.610000014305,139.89184943834744,-0.47378385067,45.0467987061,128.035263062
229.0,22.9,0.0,1.0,0.625,0.7825736826072422,0.0,-9.024950796534451,0.815585723007189,0.8964938520485247,20.03664149330394,-0.7023715681705982,408.8850724761616,0.610000014305,142.54533939749902,-0.47378385067,45.0467987061,128.035263062
230.0,23.0,0.0,1.0,0.699999988079071,0.7784449978808337,0.0,-9.398585768485487,0.8122439370654457,0.8965024927645305,19.9241705219534,-0.0773451918698486,408.9487536437829,0.610000014305,145.19882935665052,-0.47378385067,45.0467987061,128.035263062
231.0,23.1,0.0,1.0,0.8500000238418579,0.7820227491788848,0.0,-9.745142866572417,0.8090692404207896,0.8964273681412052,19.81169955060285,0.5476811844309233,409.0124348114042,0.610000014305,147.8523193158021,0.5844824479440391,45.3140950663686,133.1188050426097
232.0,23.200000000000003,0.0,1.0,0.550000011920929,0.7704216123159869,0.0,-10.129531130124313,0.8054282786083664,0.8962101664057787,19.705780968524717,0.896636118510651,409.058770135502,0.610000014305,150.70812707955443,2.15052914619,45.7285041809,139.104324341
233.0,23.3,0.0,1.0,0.949999988079071,0.7794005311041411,0.0,-10.48789718678225,0.8020318648269597,0.8960038247571234,19.604856412402174,1.0351780428116304,409.09188500074464,0.610000014305,153.71813513963355,2.15052914619,45.7285041809,139.104324341
234.0,23.4,0.0,1.0,0.875,0.784180504548934,0.0,-10.802097391986427,0.7989302717644255,0.8956828001610986,19.503931856279635,1.1737199671126148,409.1249998659873,0.610000014305,156.7281431997128,2.15052914619,45.7285041809,139.104324341
235.0,23.5,0.0,1.0,0.6499999761581421,0.7774714781293943,0.0,-11.08993212916561,0.7958587583252158,0.8951278267849408,19.401303532772022,1.2786414947410247,409.14638583703913,0.610000014305,159.57743041915074,0.7352267663576173,46.051770940716885,148.80178130650657
236.0,23.6,0.0,1.0,0.625,0.7698479042229246,0.0,-11.40515448208823,0.792440820587769,0.8944547687343236,19.29343141205001,1.2800873108594906,409.1316730171267,0.610000014305,161.9320565106495,0.514581978321,46.1037750244,149.916091919
237.0,23.700000000000003,0.0,1.0,0.4000000059604645,0.7513555093098016,0.0,-11.773337324063208,0.7883812796924909,0.8935861969394389,19.185559291328,1.2815331269779564,409.1169601972142,0.610000014305,164.28668260214823,0.514581978321,46.1037750244,149.916091919
238.0,23.8,0.0,1.0,0.574999988079071,0.742537733248265,0.0,-12.097955072187938,0.7844622157525698,0.8924277204208332,19.07768717060599,1.282978943096422,409.10224737730175,0.610000014305,166.6413086936469,-0.1178522460492987,45.72541673092673,156.93207627414648
239.0,23.9,0.0,1.0,0.675000011920929,0.7391608471818982,0.0,-12.3170504659334,0.7811766050394471,0.8909105010614911,18.955815113427843,0.7952997229157046,409.0888386038508,0.610000014305,168.85943416344583,-0.384018361568,45.56590271,159.375595093
240.0,24.0,0.0,1.0,0.5249999761581421,0.7284528036307104,0.0,-12.459694902758622,0.7782427748321781,0.8890108093268486,18.831427114579814,0.2197193851504633,409.07566418180863,0.610000014305,171.05302897889672,-0.384018361568,45.56590271,159.375595093
241.0,24.1,0.0,1.0,0.4749999940395355,0.7157801631511517,0.0,-12.716426722794022,0.7743306360905692,0.8871436021888724,18.70205833641064,0.1240512935850883,409.0669251229476,0.608473335129108,173.67934869507604,-0.3352206723175419,45.56164909719959,160.4765337390096
242.0,24.200000000000003,0.0,1.0,0.6000000238418579,0.709991156185687,0.0,-13.028743674482843,0.7699266043456453,0.8852655887411284,18.56890601608462,0.3929382441137749,409.0615552925736,0.6057869468696524,176.6343785986892,0.0786992534995,45.5227203369,167.156021118
243.0,24.3,0.0,1.0,0.8500000238418579,0.7169915995684955,0.0,-13.341767039558915,0.76555527421777,0.8834189759757056,18.43575369575861,0.6618251946424519,409.0561854621996,0.6031005586101968,179.5894085023023,0.0786992534995,45.5227203369,167.156021118
244.0,24.4,0.0,1.0,0.75,0.7186420195900707,0.0,-13.674727624880973,0.761027510655893,0.8815813604953525,18.302601375432594,0.9307121451711384,409.0508156318256,0.6004141703507413,182.54443840591549,0.473592609167,45.1525039673,173.311706543
245.0,24.5,0.0,1.0,0.7250000238418579,0.7189599198026599,0.0,-13.953671692674604,0.7568511353019123,0.879585625779083,18.168472287360288,0.6712128172089191,409.1061332916865,0.5915787043331147,184.68426216165355,0.473592609167,45.1525039673,173.311706543
246.0,24.6,0.0,1.0,0.7749999761581421,0.721761922620434,0.0,-14.166911106156379,0.7531335786262237,0.8774396777886927,18.034165170276825,0.3154080092355822,409.1725120598987,0.5816224864919968,186.67550367259275,0.473592609167,45.1525039673,173.311706543
247.0,24.700000000000003,0.0,1.0,0.875,0.7294238264894123,0.0,-14.240905250656345,0.7504143997545171,0.875026027207756,17.899858053193363,-0.0403967987377545,409.2388908281108,0.5716662686508789,188.666745183532,0.5058305677033397,44.931063238014254,128.91044606516422
248.0,24.8,0.0,1.0,0.8999999761581421,0.7379526339728487,0.0,-14.314649350141813,0.7477686797369888,0.8726913924792655,17.767846330592434,0.3063595696155374,409.4092889263963,0.5601975000652621,190.7154353166017,0.802081823349,42.9258003235,-176.597839355
249.0,24.9,0.0,1.0,1.0,0.7510550022742063,0.0,-14.254798780550562,0.746192745720337,0.870244322840401,17.63629598157764,0.7943305186738862,409.60059487808513,0.5484247092444621,192.77567260507897,0.802081823349,42.9258003235,-176.597839355
250.0,25.0,0.0,1.0,0.9750000238418579,0.7622522533525888,0.0,-14.103982928083273,0.7453831084939248,0.8677737733402123,17.50474563256285,1.2823014677322175,409.7919008297739,0.5366519184236624,194.8359098935561,0.802081823349,42.9258003235,-176.59631582368857
251.0,25.1,0.0,1.0,0.9750000238418579,0.7728896418770523,0.0,-13.93623177685018,0.7449264531288332,0.8655517513448354,17.38382433820197,1.747494023366848,409.9905281010429,0.5289091812297062,196.76355384040693,3.91647529602,38.0372123718,-170.82963562
