step,t_sec,is_boundary,learn,anomaly,mwl,spike,growth_pct,mr,mp,airspeed,climb,altitude,throttle,heading,pitch,roll,yaw,thr,elev
0.0,0.0,0.0,1.0,1.0,1.0,0.0,nan,nan,nan,17.5415992737,-0.502018928528,392.649993896,0.460000008345,289.0,-2.08845806122,9.60470294952,-70.8663330078,0.3289072637365827,1.0
1.0,0.1,0.0,1.0,1.0,1.0,0.0,nan,nan,nan,17.53673314695445,-0.4788283515892507,392.58196728851067,0.4648590682919988,289.2429532290544,-2.08845806122,9.60470294952,-70.8663330078,0.3289072637365827,1.0
2.0,0.2,0.0,1.0,1.0,1.0,0.0,nan,nan,nan,17.5318670202089,-0.4556377746505014,392.51394068102127,0.4697181282389978,289.4859064581089,-2.08845806122,9.60470294952,-70.8663330078,0.3289072637365827,1.0
3.0,0.3,0.0,1.0,1.0,1.0,0.0,nan,nan,nan,17.52700089346335,-0.4324471977117521,392.4459140735319,0.4745771881859966,289.7288596871633,-2.08845806122,9.60470294952,-70.8663330078,0.3289072637365827,1.0
4.0,0.4,0.0,1.0,1.0,1.0,0.0,nan,nan,nan,17.522134766717798,-0.4092566207730028,392.3778874660426,0.4794362481329955,289.97181291621774,-2.12212872505,20.9942474365,-69.9898223877,0.3289072637365827,1.0
5.0,0.5,0.0,1.0,1.0,1.0,0.0,nan,nan,nan,17.541572568388546,-0.6207090336014,392.2775923891247,0.4879200852997286,290.5280063809358,-2.12212872505,20.9942474365,-69.9898223877,0.3289072637365827,1.0
6.0,0.6000000000000001,0.0,1.0,0.8999999761581421,0.994999998807907,0.0,nan,nan,nan,17.564200150579126,-0.8629572760197024,392.17306222175466,0.4968796580580986,291.1253112077609,-2.12212872505,20.9942474365,-69.9898223877,0.3289072637365827,1.0
7.0,0.7000000000000001,0.0,1.0,1.0,0.9952499988675116,0.0,nan,nan,nan,17.586827732769702,-1.1052055184380047,392.0685320543846,0.5058392308164685,291.72261603458594,-2.08435511589,29.6260986328,-67.1983413696,0.3289072637365827,1.0
8.0,0.8,0.0,1.0,1.0,0.995487498924136,0.0,nan,nan,nan,17.624902858566323,-1.31279768351378,391.9629767306488,0.515701220157406,292.7981719669167,-2.08435511589,29.6260986328,-67.1983413696,0.3289072637365827,1.0
9.0,0.9,0.0,1.0,0.9750000238418579,0.9944631251700221,0.0,nan,nan,nan,17.676371612032142,-1.490341666934359,391.856532556037,0.5263456401564254,294.2883904114815,-2.08435511589,29.6260986328,-67.1983413696,0.3289072637365827,1.0
10.0,1.0,0.0,1.0,0.8500000238418579,0.9872399701036139,0.0,nan,nan,nan,17.727840365497965,-1.667885650354938,391.75008838142526,0.5369900601554447,295.77860885604633,-2.08435511589,29.6260986328,-67.1983413696,0.3289072637365827,1.0
11.0,1.1,0.0,1.0,1.0,0.9878779715984332,0.0,nan,nan,nan,17.779309118963788,-1.8454296337755167,391.6436442068135,0.547634480154464,297.2688273006112,-2.1262492414000693,30.765890615721453,-66.26130735578487,0.3289072637365827,1.0
12.0,1.2000000000000002,0.0,1.0,0.7749999761581421,0.9772340718264185,0.0,nan,nan,nan,17.830777872429607,-2.0229736171960964,391.53720003220167,0.5582789001534835,298.759045745176,-2.38279891014,37.7430381775,-60.0749816895,0.3289072637365827,1.0
13.0,1.3,0.0,1.0,0.9750000238418579,0.9771223694271906,0.0,nan,nan,nan,17.91070448461728,-2.1742092188429667,391.411131877096,0.5704672584150796,300.88410563638587,-2.38279891014,37.7430381775,-60.0749816895,0.3289072637365827,1.0
14.0,1.4,0.0,1.0,0.824999988079071,0.9695162503597845,0.0,nan,nan,nan,17.9961199615291,-2.3203705403031747,391.28127870867166,0.5829534067651204,303.1316118035428,-2.38279891014,37.7430381775,-60.0749816895,0.3289072637365827,1.0
15.0,1.5,0.0,1.0,0.949999988079071,0.9685404372457488,0.0,nan,nan,nan,18.08153543844092,-2.4665318617633822,391.1514255402474,0.5954395551151612,305.3791179706997,-1.9319932999393967,40.4712186285747,-55.29623954185424,0.3289072637365827,1.0
16.0,1.6,0.0,1.0,1.0,0.9701134153834613,0.0,nan,nan,nan,18.166950915352736,-2.6126931832235902,391.021572371823,0.607925703465202,307.62662413785665,-1.53769803047,42.7318611145,-51.1142807007,0.3289072637365827,1.0
17.0,1.7000000000000002,0.0,1.0,1.0,0.9716077446142882,0.0,nan,nan,nan,18.274677576315646,-2.374582047798472,390.9212496046644,0.6158329494222241,310.0415292379328,-1.53769803047,42.7318611145,-51.1142807007,0.3289072637365827,1.0
18.0,1.8,0.0,1.0,1.0,0.9730273573835738,0.0,nan,nan,nan,18.386849209732297,-2.059913770373312,390.8268100671843,0.6228279580475676,312.4897845915818,-0.6982105289084133,43.22586413397168,-47.81450989913918,0.3289072637365827,1.0
19.0,1.9,0.0,1.0,1.0,0.9743759895143951,0.0,nan,nan,nan,18.49902084314895,-1.7452454929481511,390.7323705297042,0.6298229666729112,314.9380399452307,0.00270518171601,43.6358757019,-44.7411575317,0.3289072637365827,1.0
20.0,2.0,0.0,1.0,1.0,0.9756571900386753,0.0,nan,nan,nan,18.600532355179187,-1.529458619704466,390.6765828083771,0.6341078315388097,317.4647041346741,0.00270518171601,43.6358757019,-44.7411575317,0.3289072637365827,1.0
21.0,2.1,0.0,1.0,1.0,0.9768743305367416,0.0,nan,nan,nan,18.701767077616253,-1.3162391978661552,390.6217986797934,0.6383223276385932,319.9934042061655,0.00270518171601,43.6358757019,-44.7411575317,0.3289072637365827,1.0
22.0,2.2,0.0,1.0,1.0,0.9780306140099044,0.0,nan,nan,nan,18.803001800053323,-1.1030197760278444,390.56701455120975,0.6425368237383768,322.5221042776569,0.00270518171601,43.6358757019,-44.7411575317,0.3289072637365827,1.0
23.0,2.3000000000000003,0.0,1.0,1.0,0.9791290833094092,0.0,nan,nan,nan,18.90423652249039,-0.8898003541895334,390.51223042262615,0.6467513198381604,325.05080434914834,0.970805381579499,44.3523075473855,-32.851695574000885,0.3289072637365827,1.0
24.0,2.4000000000000004,0.0,1.0,1.0,0.9801726291439388,0.0,nan,nan,nan,18.99813871474377,-0.7224761842785218,390.4677846640437,0.649999976158,327.5911058933111,0.977282762527,44.3569602966,-32.7706069946,0.3289072637365827,1.0
25.0,2.5,0.0,1.0,1.0,0.9811639976867418,0.0,nan,nan,nan,19.06737753009313,-0.7095232706776393,390.4581125933327,0.649999976158,330.1704296420838,0.977282762527,44.3569602966,-32.7706069946,0.3289072637365827,1.0
26.0,2.6,0.0,1.0,0.949999988079071,0.9796057972063582,0.0,nan,nan,nan,19.13661634544249,-0.6965703570767569,390.4484405226217,0.649999976158,332.7497533908564,1.3958772878987855,44.54630242486011,-26.754647389329328,0.3289072637365827,1.0
27.0,2.7,0.0,1.0,0.9750000238418579,0.9793755085381332,0.0,nan,nan,nan,19.20226633932338,-0.6482838729099202,390.4441669571567,0.649999976158,335.3272490774225,1.52687120438,44.6056365967,-24.872625351,0.3289072637365827,1.0
28.0,2.8000000000000003,0.0,1.0,0.8999999761581421,0.9754067319191335,0.0,nan,nan,nan,19.24337578520586,-0.3583845941119807,390.4768086515545,0.649999976158,337.8922443794704,1.52687120438,44.6056365967,-24.872625351,0.3289072637365827,1.0
29.0,2.9000000000000004,0.0,1.0,0.5,0.9516363953231768,0.0,nan,nan,nan,19.284485231088336,-0.0684853153140412,390.5094503459524,0.649999976158,340.4572396815183,1.52687120438,44.6056365967,-24.872625351,0.3289072637365827,1.0
30.0,3.0,0.0,1.0,0.44999998807907104,0.9265545749609715,0.0,nan,nan,nan,19.325594676970816,0.2214139634838969,390.5420920403502,0.649999976158,343.02223498356614,1.52687120438,44.6056365967,-24.872625351,0.3289072637365827,1.0
31.0,3.1,0.0,1.0,0.30000001192092896,0.8952268468089694,0.0,nan,nan,nan,19.366704122853296,0.5113132422818364,390.57473373474807,0.649999976158,345.587230285614,2.61020588875,45.46534729,-13.0362138748,0.3289072637365827,1.0
32.0,3.2,0.0,1.0,0.3499999940395355,0.8679655041704977,0.0,nan,nan,nan,19.37712393496386,0.6681746850904133,390.6540068737745,0.649999976158,348.2616317491244,2.61020588875,45.46534729,-13.0362138748,0.3289072637365827,1.0
33.0,3.3000000000000003,0.0,1.0,0.3499999940395355,0.8420672286639496,0.0,nan,nan,nan,19.3816578625095,0.7995211494140829,390.7422233355599,0.649999976158,350.95701593409194,2.61020588875,45.46534729,-13.0362138748,0.3289072637365827,1.0
34.0,3.4000000000000004,0.0,1.0,0.32499998807907104,0.8162138666347056,0.0,nan,nan,nan,19.386191790055143,0.9308676137377524,390.8304397973453,0.649999976158,353.6524001190596,2.61020588875,45.46534729,-13.0362138748,0.3289072637365827,1.0
35.0,3.5,0.0,1.0,0.375,0.7941531733029703,0.0,nan,nan,nan,19.390725717600784,1.0622140780614215,390.9186562591308,0.649999976158,356.3477843040272,4.24956417084,46.2776222229,-2.22648191452,0.3289072637365827,1.0
36.0,3.6,0.0,1.0,0.949999988079071,0.8019455140417753,0.0,nan,nan,nan,19.37965093882652,1.3212281944307738,391.0387333082852,0.6457986775777341,283.26713959730534,4.24956417084,46.2776222229,-2.22648191452,0.3289072637365827,1.0
37.0,3.7,0.0,1.0,1.0,0.8118482383396866,0.0,nan,nan,nan,19.36359358357337,1.6209960944360369,391.1689808232023,0.6402562498188041,185.99743966197,4.24956417084,46.2776222229,-2.22648191452,0.3289072637365827,1.0
38.0,3.8,0.0,1.0,1.0,0.8212558264227022,0.0,nan,nan,nan,19.347536228320216,1.9207639944413,391.2992283381194,0.634713822059874,88.7277397266347,4.64824914932,46.2603492737,7.29652023315,0.3289072637365827,1.0
39.0,3.9,0.0,1.0,1.0,0.8301930351015672,0.0,nan,nan,nan,19.32789937774507,2.1819578961090342,391.4356953999031,0.6292094735510817,6.434787339140021,4.64824914932,46.2603492737,7.29652023315,0.3289072637365827,1.0
40.0,4.0,0.0,1.0,1.0,0.8386833833464888,0.0,nan,nan,nan,19.28789914059062,2.223708225597726,391.60754483428366,0.6239217540420368,9.343035842565904,4.64824914932,46.2603492737,7.29652023315,0.3289072637365827,1.0
41.0,4.1000000000000005,0.0,1.0,1.0,0.8467492141791644,0.0,nan,nan,nan,19.247898903436177,2.265458555086419,391.77939426866425,0.6186340345329918,12.251284345991817,4.64824914932,46.2603492737,7.29652023315,0.3289072637365827,1.0
42.0,4.2,0.0,1.0,1.0,0.8544117534702061,0.0,nan,nan,nan,19.20789866628173,2.30720888457511,391.9512437030448,0.6133463150239469,15.1595328494177,4.40372943878,46.4998550415,17.1704311371,0.3289072637365827,1.0
43.0,4.3,0.0,1.0,1.0,0.8616911657966958,0.0,nan,nan,nan,19.162541401590328,2.321332710462359,392.1255223921198,0.6075117538464098,17.995303155155195,4.40372943878,46.4998550415,17.1704311371,0.3289072637365827,1.0
44.0,4.4,0.0,1.0,1.0,0.868606607506861,0.0,nan,nan,nan,19.10795056751669,2.287838480248052,392.3039882337929,0.6007346362880657,20.706147377829307,4.40372943878,46.4998550415,17.1704311371,0.3289072637365827,1.0
45.0,4.5,0.0,1.0,1.0,0.875176277131518,0.0,nan,nan,nan,19.053359733443056,2.254344250033745,392.4824540754659,0.5939575187297217,23.416991600503398,4.40372943878,46.4998550415,17.1704311371,0.3289072637365827,1.0
46.0,4.6000000000000005,0.0,1.0,1.0,0.8814174632749421,0.0,nan,nan,nan,18.998768899369423,2.2208500198194376,392.6609199171389,0.5871804011713776,26.127835823177502,4.260720388314297,46.58909947913588,21.14852864052363,0.3289072637365827,1.0
47.0,4.7,0.0,1.0,1.0,0.887346590111195,0.0,nan,nan,nan,18.944178065295787,2.1873557896051303,392.839385758812,0.5804032836130336,28.8386800458516,3.97562861443,46.7573318481,29.0916957855,0.3289072637365827,1.0
48.0,4.800000000000001,0.0,1.0,1.0,0.8929792606056353,0.0,nan,nan,nan,18.892347701093136,2.9034061256396138,392.9688047037697,0.5770299758266028,31.079007221619342,3.97562861443,46.7573318481,29.0916957855,0.3289072637365827,1.0
49.0,4.9,0.0,1.0,1.0,0.8983302975753535,0.0,nan,nan,nan,18.840692004328844,3.66688354309166,393.0951202293064,0.5738720425094852,33.289562651587275,3.7983114436406815,46.86922374157919,30.85284431853801,0.3289072637365827,1.0
50.0,5.0,0.0,1.0,1.0,0.9034137826965859,0.0,nan,nan,nan,18.78903630756455,4.430360960543707,393.2214357548431,0.5707141091923676,35.5001180815552,3.23624992371,47.2212867737,36.4426727295,0.3289072637365827,1.0
51.0,5.1000000000000005,0.0,1.0,1.0,0.9082430935617566,0.0,nan,nan,nan,18.753527059966583,3.3495963072823534,393.34844205235913,0.569999992847,37.78992833124983,3.23624992371,47.2212867737,36.4426727295,0.3289072637365827,1.0
52.0,5.2,0.0,1.0,0.925000011920929,0.9090809394797151,0.0,nan,nan,nan,18.72273602302131,1.7299191975090866,393.4756502027829,0.569999992847,40.10289791033376,2.86938561668504,47.65621469382384,40.15936450877874,0.3289072637365827,1.0
53.0,5.300000000000001,0.0,1.0,0.925000011920929,0.9098768931017758,0.0,nan,nan,nan,18.695247381231795,0.4064718483178911,393.59655628171737,0.5689644106792079,42.414233262171095,2.6713411808,47.8910217285,42.1659164429,0.3289072637365827,1.0
54.0,5.4,0.0,1.0,0.8500000238418579,0.9068830496387797,0.0,nan,nan,nan,18.682823588006624,0.4343638370693335,393.68871360462873,0.5632047153154308,44.71811360489264,2.6713411808,47.8910217285,42.1659164429,0.3289072637365827,1.0
55.0,5.5,0.0,1.0,0.800000011920929,0.9015388977528872,0.0,nan,nan,nan,18.67039979478145,0.4622558258207758,393.78087092754,0.5574450199516536,47.021993947614185,2.6713411808,47.8910217285,42.1659164429,0.3289072637365827,1.0
56.0,5.6000000000000005,0.0,1.0,0.699999988079071,0.8914619522691964,0.0,nan,nan,nan,18.65797600155628,0.4901478145722184,393.87302825045134,0.5516853245878764,49.32587429033575,1.58353853226,46.6065406799,50.4298324585,0.3289072637365827,1.0
57.0,5.7,0.0,1.0,0.875,0.8906388546557366,0.0,nan,nan,nan,18.66052419461923,0.602087026553357,393.9194296347522,0.5470100045164841,51.6445007398208,1.58353853226,46.6065406799,50.4298324585,0.3289072637365827,1.0
58.0,5.800000000000001,0.0,1.0,0.800000011920929,0.8861069125189962,0.0,nan,nan,nan,18.66926534500033,0.7487912226957887,393.9469047009672,0.5427832214510273,53.96922671464858,1.58353853226,46.6065406799,50.4298324585,0.3289072637365827,1.0
59.0,5.9,0.0,1.0,0.5249999761581421,0.8680515657009534,0.0,nan,nan,nan,18.678006495381425,0.8954954188382191,393.9743797671821,0.5385564383855707,56.293952689476335,1.58353853226,46.6065406799,50.4298324585,0.3289072637365827,1.0
60.0,6.0,0.0,1.0,0.800000011920929,0.8646489880119522,0.0,nan,nan,nan,18.686747645762523,1.0421996149806496,394.001854833397,0.5343296553201139,58.61867866430409,0.7507979689007962,46.13170116390268,54.72404241999655,0.3289072637365827,1.0
61.0,6.1000000000000005,0.0,1.0,0.925000011920929,0.867666539207401,0.0,nan,nan,nan,18.695488796143614,1.1889038111230814,394.029329899612,0.5301028722546571,60.94340463913187,-0.6051171422,45.3644332886,61.7406959534,0.3289072637365827,1.0
62.0,6.2,0.0,1.0,1.0,0.874283212247031,0.0,nan,nan,nan,18.73983864039541,0.7586175142736424,394.01405877030425,0.532656760938697,63.39109862207468,-0.6051171422,45.3644332886,61.7406959534,0.3289072637365827,1.0
63.0,6.300000000000001,0.0,1.0,1.0,0.8805690516346795,0.0,nan,nan,nan,18.785077007939133,0.3139339049557853,393.99772101972417,0.5353798438314957,65.84186095511679,-0.6051171422,45.3644332886,61.7406959534,0.3289072637365827,1.0
64.0,6.4,0.0,1.0,0.949999988079071,0.884040598456899,0.0,nan,nan,nan,18.830315375482854,-0.130749704362068,393.9813832691441,0.5381029267242946,68.29262328815886,-1.7037038879724498,45.483415802565325,68.41127096379024,0.3289072637365827,1.0
65.0,6.5,0.0,1.0,0.875,0.883588568534054,0.0,nan,nan,nan,18.87873395224348,-0.438026869873003,393.9488726469252,0.5406815930804544,70.68157227246986,-2.06332063675,45.5217933655,70.5989151001,0.3289072637365827,1.0
66.0,6.6000000000000005,0.0,1.0,0.9750000238418579,0.8881591412994442,0.0,nan,nan,nan,18.934456699277032,-0.4297147160292834,393.8792168558841,0.5429285696319823,72.92855096694146,-2.06332063675,45.5217933655,70.5989151001,0.3289072637365827,1.0
67.0,6.7,0.0,1.0,0.9750000238418579,0.8925011854265649,0.0,nan,nan,nan,18.990179446310588,-0.421402562185564,393.809561064843,0.5451755461835104,75.17552966141302,-2.06332063675,45.5217933655,70.5989151001,0.3289072637365827,1.0
68.0,6.800000000000001,0.0,1.0,0.9750000238418579,0.8966261273473295,0.0,nan,nan,nan,19.045902193344144,-0.4130904083418444,393.73990527380187,0.5474225227350384,77.42250835588462,-2.06332063675,45.5217933655,70.5989151001,0.3289072637365827,1.0
69.0,6.9,0.0,1.0,0.75,0.8892948209799629,0.0,nan,nan,nan,19.101624940377704,-0.404778254498125,393.6702494827608,0.5496694992865664,79.6694870503562,-2.2411403656,46.0820617676,80.5659713745,0.3289072637365827,1.0
70.0,7.0,0.0,1.0,0.5,0.8698300799309647,0.0,nan,nan,nan,19.176413865695256,-0.7449910728316316,393.5724783626797,0.5538899159940914,82.13944928059304,-2.2411403656,46.0820617676,80.5659713745,0.3289072637365827,1.0
71.0,7.1000000000000005,0.0,1.0,0.949999988079071,0.8738385753383701,0.0,nan,nan,nan,19.25449093683023,-1.145310374617666,393.4698584837014,0.5584506714364278,84.64786716615623,-2.2411403656,46.0820617676,80.5659713745,0.3289072637365827,1.0
72.0,7.2,0.0,1.0,0.7250000238418579,0.8663966477635444,0.0,nan,nan,nan,19.332568007965204,-1.5456296764036968,393.3672386047232,0.5630114268787643,87.15628505171938,-2.2411403656,46.0820617676,80.5659713745,0.3289072637365827,1.0
73.0,7.300000000000001,0.0,1.0,0.949999988079071,0.8705768147793207,0.0,nan,nan,nan,19.410645079100178,-1.9459489781897312,393.2646187257449,0.5675721823211006,89.66470293728257,-1.74443888664,45.1492195129,91.2755050659,0.3289072637365827,1.0
74.0,7.4,0.0,1.0,1.0,0.8770479740403546,0.0,nan,nan,nan,19.495647900469194,-1.9594742004242969,393.1599554312088,0.569999992847,92.07220518539172,-1.74443888664,45.1492195129,91.2755050659,0.3289072637365827,1.0
75.0,7.5,0.0,1.0,1.0,0.8831955753383369,0.0,nan,nan,nan,19.588533911501663,-1.532733604984014,393.05296623235046,0.569999992847,94.36484087274222,-1.74443888664,45.1492195129,91.2755050659,0.3289072637365827,1.0
76.0,7.6,0.0,1.0,1.0,0.8890357965714201,0.0,nan,nan,nan,19.681419922534133,-1.1059930095437278,392.9459770334921,0.569999992847,96.65747656009276,-1.6227298975,43.6796264648,97.850112915,0.3289072637365827,1.0
77.0,7.7,0.0,1.0,1.0,0.8945840067428491,0.0,nan,nan,nan,19.77212994042065,-1.3514386191566543,392.8496516996621,0.569999992847,99.41032736635816,-1.6227298975,43.6796264648,97.850112915,0.3289072637365827,1.0
78.0,7.800000000000001,0.0,1.0,0.9750000238418579,0.8986048075977996,0.0,nan,nan,nan,19.86245776048316,-1.7149489871007444,392.7551993983905,0.569999992847,102.24401170712127,-1.6227298975,43.6796264648,97.850112915,0.3289072637365827,1.0
79.0,7.9,0.0,1.0,1.0,0.9036745672179096,0.0,-4.745295318495092,0.8824081539233094,0.9263670039960156,19.952785580545665,-2.078459355044832,392.6607470971189,0.569999992847,105.0776960478844,-1.40063631535,43.1982688904,106.511901855,0.3289072637365827,1.0
80.0,8.0,0.0,1.0,1.0,0.9084908388570141,0.0,-4.275557888068223,0.8846002464655625,0.9241111537962148,20.026978745493555,-2.009961001826508,392.5850338793612,0.5714505376278043,107.59560078044964,-1.40063631535,43.1982688904,106.511901855,0.3289072637365827,1.0
81.0,8.1,0.0,1.0,1.0,0.9130662969141634,0.0,-3.800319893167924,0.8868702343509006,0.9219055961163382,20.09338640826374,-1.7330042207394964,392.5183628862106,0.5736010180111724,109.96113145792457,-1.40063631535,43.1982688904,106.511901855,0.3289072637365827,1.0
82.0,8.200000000000001,0.0,1.0,0.824999988079071,0.9086629814724088,0.0,-3.394296949525475,0.8885892228121695,0.9198103163204553,20.15979407103393,-1.45604743965248,392.45169189306,0.5757514983945404,112.32666213539947,-1.40063631535,43.1982688904,106.511901855,0.3289072637365827,1.0
83.0,8.3,0.0,1.0,1.0,0.9132298323987883,0.0,-3.0068580617377676,0.8902222618503749,0.9178198005143666,20.22620173380412,-1.1790906585654688,392.3850208999094,0.5779019787779085,114.69219281287438,-1.1885706349809588,43.31834020357845,108.4756129506271,0.3289072637365827,1.0
84.0,8.4,0.0,1.0,1.0,0.9175683407788489,0.0,-2.6191540101115143,0.8918986489664724,0.9158871438219817,20.292477761034235,-0.900942868016384,392.3191930711771,0.5800652972244756,117.06531397576558,-0.210449010134,43.8708610535,117.544143677,0.3289072637365827,1.0
85.0,8.5,0.0,1.0,1.0,0.9216899237399064,0.0,-2.203983119382002,0.8938037167267651,0.9139469532975492,20.353490949104582,-0.5751780643609254,392.287075277868,0.5827418863402355,119.74190564419094,-0.210449010134,43.8708610535,117.544143677,0.3289072637365827,1.0
86.0,8.6,0.0,1.0,1.0,0.9256054275529111,0.0,-1.8078109002375684,0.8956760310394384,0.9121662723390749,20.414504137174937,-0.249413260705467,392.254957484559,0.5854184754559955,122.4184973126163,-0.210449010134,43.8708610535,117.544143677,0.3289072637365827,1.0
87.0,8.700000000000001,0.0,1.0,1.0,0.9293251561752656,0.0,-1.4208917190770274,0.8975172295768734,0.9104537921150591,20.475517325245285,0.0763515429499973,392.22283969125,0.5880950645717554,125.0950889810417,0.2549204350855327,43.86733592821714,122.28559421143328,0.3289072637365827,1.0
88.0,8.8,0.0,1.0,1.0,0.9328588983665023,0.0,-1.0428224935935695,0.8993288681278321,0.9088061025887789,20.52894086083369,0.0650129351548663,392.199981689,0.5887275652470929,127.69982535718736,0.804282188416,43.8631782532,127.914649963,0.3289072637365827,1.0
89.0,8.9,0.0,1.0,1.0,0.9362159534481772,0.0,-0.592950026466276,0.9016749247512428,0.9070532975189446,20.563629168769424,-0.778473016809327,392.199981689,0.584314187686952,130.1271853301167,0.804282188416,43.8631782532,127.914649963,0.3289072637365827,1.0
90.0,9.0,0.0,1.0,1.0,0.9394051557757683,0.0,0.006321152447726637,0.9051536785434829,0.9050964660160671,20.598317476705155,-1.6219589687735203,392.199981689,0.579900810126811,132.55454530304607,0.804282188416,43.8631782532,127.914649963,0.3289072637365827,1.0
91.0,9.1,0.0,1.0,0.949999988079071,0.9399348973909334,0.0,0.5826737878474136,0.9084584946461112,0.9031958094117327,20.63300578464089,-2.4654449207377134,392.199981689,0.57548743256667,134.98190527597544,0.804282188416,43.8631782532,127.914649963,0.3289072637365827,1.0
92.0,9.2,0.0,1.0,0.9750000238418579,0.9416881537134796,0.0,1.2064757087368334,0.9122230699436079,0.9013485190106848,20.667694092576625,-3.308930872701921,392.199981689,0.571074055006529,137.40926524890486,1.31132018566,40.695690155,138.765426636,0.3289072637365827,1.0
93.0,9.3,0.0,1.0,1.0,0.9446037460278056,0.0,1.8177136381632828,0.9159244165060322,0.8995727597665537,20.674333612474832,-1.8228618987263847,392.2170619840925,0.5657308351450621,139.49420662070312,1.31132018566,40.695690155,138.765426636,0.3289072637365827,1.0
94.0,9.4,0.0,1.0,0.8999999761581421,0.9423735575343224,0.0,2.35616133536209,0.9191906956807305,0.8980316218278965,20.67195148025649,0.4124884381409934,392.2396360096152,0.56008853948201,141.46901198614324,1.31132018566,40.695690155,138.765426636,0.3289072637365827,1.0
95.0,9.5,0.0,1.0,0.875,0.9390048796576062,0.0,2.829767218844282,0.921981160896694,0.896609207462773,20.669569348038145,2.647838775008372,392.26221003513785,0.5544462438189579,143.44381735158333,1.389316082,37.21900177,145.905059814,0.3289072637365827,1.0
96.0,9.6,0.0,1.0,1.0,0.9420546356747258,0.0,3.2810867776360118,0.9246321028518593,0.8952579138159056,20.65945275946233,4.241347544680086,392.2976778265124,0.5483426374427204,145.44196607093136,1.389316082,37.21900177,145.905059814,0.3289072637365827,1.0
97.0,9.7,0.0,1.0,1.0,0.9449519038909895,0.0,3.7111041258311013,0.9271504977092663,0.8939741848513817,20.6205842033296,3.4488828129508318,392.38107673551497,0.5405241606158486,147.5268910707583,1.389316082,37.21900177,145.905059814,0.3289072637365827,1.0
98.0,9.8,0.0,1.0,1.0,0.9477043086964401,0.0,4.130196859351472,0.9296054727641984,0.8927338090216187,20.58171564719687,2.656418081221576,392.4644756445175,0.5327056837889769,149.61181607058523,1.389316082,37.21900177,145.905059814,0.3289072637365827,1.0
99.0,9.9,0.0,1.0,1.0,0.9503190932616181,0.0,4.529415079365614,0.9319376990663838,0.891555451983344,20.542847091064143,1.8639533494923208,392.54787455352,0.5248872069621052,151.69674107041217,1.8097897565869812,32.32944696414063,151.57054602288264,0.3289072637365827,1.0
100.0,10.0,0.0,1.0,1.0,0.9528031385985373,0.0,4.909651072978831,0.9341533140534599,0.8904360127969829,20.4934325757404,1.4460156554470498,392.6489695274004,0.5154451672258897,153.45548146512445,1.92429351807,31.0213871002,153.399215698,0.3289072637365827,1.0
101.0,10.1,0.0,1.0,1.0,0.9551629816686104,0.0,5.271761867935381,0.9362581482911823,0.8893725455699399,20.426434956825435,1.6525207059671367,392.7795688579988,0.5032961878642884,154.67037965471235,1.92429351807,31.0213871002,153.399215698,0.3289072637365827,1.0
102.0,10.2,0.0,1.0,1.0,0.9574048325851798,0.0,5.683167012267929,0.9386952408468208,0.8882164183609818,20.35943733791047,1.85902575648722,392.9101681885972,0.4911472085026874,155.88527784430022,2.1665343157314343,29.51386048748315,154.76340971562985,0.3289072637365827,1.0
103.0,10.3,0.0,1.0,1.0,0.9595345909559209,0.0,6.074995134618866,0.9410104787746775,0.8871180975124714,20.28938082659961,2.0250643001065085,393.0447606113776,0.4791683269069529,157.08316625375528,2.76062750816,25.9731369019,158.142089844,0.3289072637365827,1.0
104.0,10.4,0.0,1.0,1.0,0.9615578614081248,0.0,6.448131581914766,0.9432099548061412,0.8860746927063865,20.18528608285671,1.740806400002695,393.2237866991008,0.4690822308497075,158.09177606990102,2.76062750816,25.9731369019,158.142089844,0.3289072637365827,1.0
105.0,10.5,0.0,1.0,1.0,0.9634799683377185,0.0,6.8034260884197675,0.9452994570360318,0.885083458140606,20.0811913391138,1.4565484998988818,393.402812786824,0.4589961347924622,159.10038588604678,2.76062750816,25.9731369019,158.142089844,0.3289072637365827,1.0
106.0,10.6,0.0,1.0,1.0,0.9653059699208326,0.0,7.136644780382115,0.9472844841544279,0.8841834519797152,19.97709659537089,1.1722905997950637,393.5818388745471,0.4489100387352167,160.10899570219257,3.3678111058293445,22.63812808178108,160.59414255273288,0.3289072637365827,1.0
107.0,10.7,0.0,1.0,1.0,0.967040671424791,0.0,7.451297239781813,0.9491702599169042,0.883349279440334,19.87119413617944,0.9757295231555422,393.7596241531062,0.439005886089747,161.09941117336243,3.56872868538,21.5426082611,161.407943726,0.3289072637365827,1.0
108.0,10.8,0.0,1.0,1.0,0.9686886378535514,0.0,7.74059486153455,0.9509617468912567,0.8826401488811235,19.75159604215195,1.443578141866898,393.92800879882464,0.4304801752397001,161.95198243621354,3.56872868538,21.5426082611,161.407943726,0.3289072637365827,1.0
109.0,10.9,0.0,1.0,1.0,0.9702542059608739,0.0,7.964852759942931,0.9526636595168915,0.8823831415165402,19.631997948124457,1.9114267605782536,394.0963934445431,0.4219544643896531,162.8045536990646,3.56872868538,21.5426082611,161.407943726,0.3289072637365827,1.0
110.0,11.0,0.0,1.0,1.0,0.9717414956628302,0.0,8.121841886095687,0.9542804765112446,0.8825973178634535,19.51239985409697,2.3792753792896093,394.26477809026153,0.4134287535396062,163.65712496191566,3.56872868538,21.5426082611,161.407943726,0.3289072637365827,1.0
111.0,11.1,0.0,1.0,1.0,0.9731544208796887,0.0,8.21866994824224,0.9559414526856823,0.8833424520398195,19.39280176006947,2.8471239980009737,394.43316273598,0.4049030426895591,164.5096962247667,2.26758098602,17.0571784973,165.035125732,0.3289072637365827,1.0
112.0,11.2,0.0,1.0,0.9750000238418579,0.9732467010277972,0.0,8.2467324561598,0.9575193800513983,0.8845711628655359,19.28522355783218,2.947998311519938,394.5657602335432,0.3991683283754777,165.2495027697393,2.26758098602,17.0571784973,165.035125732,0.3289072637365827,1.0
113.0,11.3,0.0,1.0,0.925000011920929,0.9708343665724537,0.0,8.18599062106153,0.9588309110786306,0.8862801048216001,19.193913440708968,2.5521985005332044,394.64992232234056,0.3972110331923417,165.83669013474494,2.26758098602,17.0571784973,165.035125732,0.3289072637365827,1.0
114.0,11.4,0.0,1.0,0.42500001192092896,0.9435426488398774,0.0,7.936511375390731,0.9588893656439084,0.8883827663365937,19.10260332358576,2.156398689546471,394.734084411138,0.3952537380092056,166.42387749975055,2.26758098602,17.0571784973,165.035125732,0.3289072637365827,1.0
115.0,11.5,0.0,1.0,0.25,0.9088655163978834,0.0,7.474816251123405,0.9573823974809222,0.8907969614425044,19.01129320646255,1.760598878559737,394.81824649993536,0.3932964428260695,167.01106486475618,2.26758098602,17.0571784973,165.035125732,0.3289072637365827,1.0
116.0,11.6,0.0,1.0,0.25,0.8759222405779892,0.0,6.8235889559055005,0.9540757777260854,0.8931321134697202,18.91998308933934,1.3647990675729964,394.9024085887328,0.3913391476429335,167.5982522297618,0.1668493126589858,20.36733487945219,168.42457805867932,0.3289072637365827,1.0
117.0,11.7,0.0,1.0,0.22499999403953552,0.8433761282510664,0.0,5.99167371609631,0.9489969889440892,0.8953505078955752,18.83993425878937,1.0047310341803295,394.9632328265152,0.389999985695,168.2430509418772,-0.141527712345,20.8494701385,168.924606323,0.3289072637365827,1.0
118.0,11.8,0.0,1.0,0.20000000298023224,0.8112073219875247,0.0,4.982312027462158,0.9421721396086434,0.8974579826001375,18.78428257371681,0.7220745265897218,394.9734965051074,0.389999985695,169.01266242804337,-0.141527712345,20.8494701385,168.924606323,0.3289072637365827,1.0
119.0,11.9,0.0,1.0,0.15000000596046448,0.7781469561861716,0.0,3.7915467076716998,0.9335635327548711,0.8994600835694717,18.72863088864425,0.439418018999114,394.9837601836997,0.389999985695,169.78227391420953,-0.141527712345,20.8494701385,168.924606323,0.3289072637365827,1.0
120.0,12.0,0.0,1.0,0.05000000074505806,0.7417396084141159,0.0,2.4017292548574445,0.9230103562456501,0.9013620794903392,18.672979203571696,0.1567615114085062,394.994023862292,0.389999985695,170.5518854003757,-1.4521974583121746,24.877823913570808,170.52796218390765,0.3289072637365827,1.0
121.0,12.1,0.0,1.0,0.05000000074505806,0.707152628030663,0.0,0.82386166370709,0.9106098385637527,0.9031689756151633,18.63515026496236,-0.0632124723802547,394.97002281185775,0.3931009828742372,171.31009970560245,-1.9152661562,26.2942295074,171.094284058,0.3289072637365827,1.0
122.0,12.2,0.0,1.0,0.07500000298023224,0.6755449967781415,0.0,-0.9248330215539139,0.8965168467734008,0.9048855269337462,18.622163348872995,-0.1958171682140276,394.89826227767225,0.400524267974695,172.05242818615304,-1.9152661562,26.2942295074,171.094284058,0.3289072637365827,1.0
123.0,12.3,0.0,1.0,0.07500000298023224,0.645517747088246,0.0,-2.8350563033947886,0.8808160045800171,0.9065162506864,18.609176432783627,-0.3284218640478005,394.82650174348674,0.4079475530751529,172.79475666670362,-1.9152661562,26.2942295074,171.094284058,0.3289072637365827,1.0
124.0,12.4,0.0,1.0,0.05000000074505806,0.6157418597710866,0.0,-4.9049585940659695,0.8635252044981652,0.908065438251421,18.596189516694263,-0.4610265598815734,394.7547412093013,0.4153708381756107,173.53708514725423,-3.275705375359583,31.755206949360907,174.179674606389,0.3289072637365827,1.0
125.0,12.5,0.0,1.0,0.10000000149011612,0.5899547668570382,0.0,-7.1122131564324444,0.8448489444241312,0.909537166438191,18.60093014556839,-0.6141593808994,394.6573048408957,0.4230991402587631,174.41322043314975,-3.32166409492,31.9389076233,174.283813477,0.3289072637365827,1.0
126.0,12.6,0.0,1.0,0.20000000298023224,0.5704570286631978,0.0,-9.422053364305102,0.8251064973612494,0.9109353082156225,18.635040651390863,-0.8013019033100383,394.51733037185977,0.4313327752161147,175.51103838384336,-3.32166409492,31.9389076233,174.283813477,0.3289072637365827,1.0
127.0,12.7,0.0,1.0,0.30000001192092896,0.5569341778260843,0.0,-11.80167409519911,0.804601172681314,0.9122635429041825,18.66915115721334,-0.9884444257206731,394.3773559028238,0.4395664101734662,176.60885633453694,-3.32166409492,31.9389076233,174.283813477,0.3289072637365827,1.0
128.0,12.8,0.0,1.0,0.3499999940395355,0.5465874686367569,0.0,-14.233786657436646,0.7834961142204744,0.9135253658583145,18.70326166303581,-1.1755869481313082,394.2373814337879,0.4478000451308176,177.7066742852305,-4.96316719055,33.2044334412,178.984542847,0.3289072637365827,1.0
129.0,12.9,0.0,1.0,0.4749999940395355,0.5430080949068958,0.0,-16.68156435219343,0.7621338086677755,0.9147240976647397,18.77118126463709,-1.46152706885003,394.04957148867743,0.4590246004569321,179.50410200322568,-4.96316719055,33.2044334412,178.984542847,0.3289072637365827,1.0
130.0,13.0,0.0,1.0,0.42500001192092896,0.5371076907575975,0.0,-19.157973952456874,0.7404021184225138,0.9158628928808439,18.85142799227163,-1.783489757403658,393.8443202624902,0.4713396745174857,181.55661426509812,-4.96316719055,33.2044334412,178.984542847,0.3289072637365827,1.0
131.0,13.1,0.0,1.0,0.4749999940395355,0.5340023059216943,0.0,-21.64800398516056,0.7184445126746141,0.9169447483361427,18.93167471990618,-2.105452445957291,393.6390690363029,0.4836547485780396,183.60912652697064,-4.96316719055,33.2044334412,178.984542847,0.3289072637365827,1.0
132.0,13.2,0.0,1.0,0.925000011920929,0.553552191221656,0.0,-24.025161688099818,0.697459787184307,0.9180141776952774,19.011921447540725,-2.42741513451092,393.4338178101157,0.4959698226385932,185.66163878884308,-4.973914531923011,33.23092653581524,176.11502851956936,0.3289072637365827,1.0
133.0,13.3,0.0,1.0,1.0,0.5758745816605733,0.0,-26.257935219257135,0.677711797938713,0.9190301355864554,19.09216817517527,-2.749377823064547,393.22856658392845,0.5082848966991469,187.71415105071557,-6.2043299675,36.3640518188,-171.759094238,0.3289072637365827,1.0
134.0,13.4,0.0,1.0,1.0,0.5970808525775446,0.0,-28.190607469801726,0.6603887081255964,0.9196411289064736,19.21600907462757,-2.901670220250193,393.0441625523779,0.5158251343105127,189.6019136987194,-6.2043299675,36.3640518188,-171.759094238,0.3289072637365827,1.0
135.0,13.5,0.0,1.0,1.0,0.6172268099486674,0.0,-29.78554205397926,0.6458067728031356,0.9197632392172236,19.34690358079727,-3.0265096929500293,392.8631316302591,0.52259279574832,191.4630195957261,-6.2043299675,36.3640518188,-171.759094238,0.3289072637365827,1.0
136.0,13.6,0.0,1.0,1.0,0.6363654694512341,0.0,-31.068405788524274,0.6338289342467978,0.9195042440223702,19.477798086966967,-3.151349165649868,392.6821007081402,0.5293604571861273,193.3241254927329,-6.2043299675,36.3640518188,-171.759094238,0.3289072637365827,1.0
137.0,13.7,0.0,1.0,1.0,0.6545471959786724,0.0,-32.0369813819219,0.6243874876331781,0.9187165319156256,19.60869259313666,-3.276188638349704,392.5010697860215,0.5361281186239346,195.18523138973964,-6.2043299675,36.3640518188,-171.759094238,0.3289072637365827,1.0
138.0,13.8,0.0,1.0,0.20000000298023224,0.6318198363287504,0.0,-32.92213182718541,0.6154181133502394,0.9174682054067678,19.739587099306355,-3.4010281110495404,392.3200388639026,0.5428957800617419,197.0463372867464,-6.2043299675,36.3640518188,-171.759094238,0.3289072637365827,1.0
139.0,13.9,0.0,1.0,0.42500001192092896,0.6214788451083593,0.0,-33.66760443975998,0.6075847077963488,0.9159697952481881,19.870481605476048,-3.5258675837493767,392.1390079417838,0.5496634414995492,198.90744318375312,-3.85187149048,36.8236541748,-160.416015625,0.3289072637365827,1.0
140.0,14.0,0.0,1.0,0.675000011920929,0.6241549034489877,0.0,-34.162222844688074,0.6017054725480924,0.9139213055882242,19.96510306969857,-3.0512971975427208,392.0299933654924,0.5530305041335905,201.1213465719415,-3.85187149048,36.8236541748,-160.416015625,0.3289072637365827,1.0
141.0,14.1,0.0,1.0,0.4000000059604645,0.6129471585745615,0.0,-34.48584128015488,0.5969951990752873,0.9112460737352786,20.05782618837064,-2.545356764119985,391.92474775652,0.5562195968135979,203.3537135769551,-3.6301686594311287,37.18939879436036,-159.31921463364895,0.3289072637365827,1.0
142.0,14.2,0.0,1.0,0.550000011920929,0.6097998012418798,0.0,-34.608893421353216,0.5937079392984742,0.9079337701441303,20.15054930704271,-2.0394163306972577,391.8195021475476,0.5594086894936052,205.58608058196867,-2.59340691566,38.7212104797,-153.458892822,0.3289072637365827,1.0
143.0,14.3,0.0,1.0,0.949999988079071,0.6268098105837394,0.0,-34.42899466450112,0.5927725424732488,0.9040162484016898,20.211354197401988,-1.858284760491976,391.7436208650161,0.5643357529288135,207.7343018718424,-2.59340691566,38.7212104797,-153.458892822,0.3289072637365827,1.0
144.0,14.4,0.0,1.0,0.574999988079071,0.624219319458506,0.0,-34.05591966873125,0.5931964154576198,0.8995446027569263,20.26489378378308,-1.7510869657756545,391.6744235611697,0.5696584174518389,209.86336971143808,-2.59340691566,38.7212104797,-153.458892822,0.3289072637365827,1.0
145.0,14.5,0.0,1.0,0.5249999761581421,0.6192583522934878,0.0,-33.531422855879775,0.5946615947294424,0.8946507060623093,20.318433370164172,-1.6438891710593329,391.6052262573233,0.5749810819748642,211.99243755103376,-2.3558855573548487,39.00200918156381,-152.33146647221295,0.3289072637365827,1.0
146.0,14.6,0.0,1.0,0.675000011920929,0.6220454352748599,0.0,-32.84565054967623,0.5972410150600254,0.8893556708517052,20.37048099276638,-1.5284185857708532,391.5377796789032,0.5802931089128397,214.1319062535132,-0.825084984303,40.7003746033,-144.976989746,0.3289072637365827,1.0
147.0,14.7,0.0,1.0,0.42500001192092896,0.6121931641071633,0.0,-32.10803792124522,0.6000039643740793,0.8837628873916972,20.397877771136933,-1.2762615241475923,391.4992593119558,0.5854293772595016,216.44322232551352,-0.825084984303,40.7003746033,-144.976989746,0.3289072637365827,1.0
148.0,14.8,0.0,1.0,0.75,0.619083505901805,0.0,-31.244003980730774,0.6036287662373317,0.877928909746521,20.425274549507485,-1.0241044625243312,391.4607389450084,0.5905656456061636,218.75453839751384,-0.825084984303,40.7003746033,-144.976989746,0.3289072637365827,1.0
149.0,14.9,0.0,1.0,0.949999988079071,0.6356293300106683,0.0,-30.258026459434575,0.6082598279925204,0.8721574643119699,20.45267132787804,-0.7719474009010704,391.42221857806095,0.5957019139528256,221.0658544695141,-0.3387063386837305,42.18204670003573,-137.89941160198282,0.3289072637365827,1.0
150.0,15.0,0.0,1.0,1.0,0.6538478635101349,0.0,-29.138210406365076,0.6140968366301472,0.8666120911590804,20.47882038374456,-0.588386319316179,391.3855339079959,0.6007417571510134,223.4079537090228,-0.270649015903,42.3889427185,-136.455123901,0.3289072637365827,1.0
151.0,15.1,0.0,1.0,0.800000011920929,0.6611554709306746,0.0,-27.93358200759904,0.6204544948805963,0.8609481533354691,20.498571069009923,-0.7565881502529928,391.358262764518,0.6052871283546521,225.9079102552327,-0.270649015903,42.3889427185,-136.455123901,0.3289072637365827,1.0
152.0,15.2,0.0,1.0,0.4749999940395355,0.6518476970861177,0.0,-26.92013962317156,0.6253692701738194,0.8557340790597711,20.518321754275284,-0.9247899811898036,391.33099162104,0.6098324995582909,228.4078668014425,-0.270649015903,42.3889427185,-136.455123901,0.3289072637365827,1.0
153.0,15.3,0.0,1.0,0.32499998807907104,0.6355053116357653,0.0,-26.147827677458828,0.6283508066725789,0.8508223751744586,20.538072439540645,-1.0929918121266144,391.3037204775621,0.6143778707619295,230.9078233476524,-0.270649015903,42.3889427185,-136.455123901,0.3289072637365827,1.0
154.0,15.4,0.0,1.0,0.5249999761581421,0.6299800448618841,0.0,-25.54616698043093,0.629995766286796,0.8461562564834118,20.55782312480601,-1.2611936430634252,391.2764493340841,0.6189232419655682,233.40777989386223,0.654794573784,44.3884849548,-125.612014771,0.3289072637365827,1.0
155.0,15.5,0.0,1.0,0.925000011920929,0.6447310432148363,0.0,-24.990686352447376,0.6313709779501044,0.8417234437269172,20.565921155482236,-1.3643581261774982,391.269989014,0.620000004768,235.9356309614517,0.654794573784,44.3884849548,-125.612014771,0.3289072637365827,1.0
156.0,15.6,0.0,1.0,0.9750000238418579,0.6612444922461874,0.0,-24.46499585312795,0.6326149290898521,0.8375122716082475,20.57040184353575,-1.4473330148478842,391.269989014,0.620000004768,238.47214134699777,0.654794573784,44.3884849548,-125.612014771,0.3289072637365827,1.0
157.0,15.7,0.0,1.0,0.9750000238418579,0.6769322688259709,0.0,-23.96816810214333,0.6337341827322169,0.8335116580955112,20.574810798895736,-1.5289006497061537,391.2700614552024,0.620000004768,241.00885428501587,1.18145895004,44.6857032776,-118.792724609,0.3289072637365827,1.0
158.0,15.8,0.0,1.0,1.0,0.6930856553846724,0.0,-23.19090929204427,0.636797473685013,0.8290652419076937,20.55826093368119,-1.1992976077216837,391.2912997287441,0.620000004768,243.6047488975094,1.18145895004,44.6857032776,-118.792724609,0.3289072637365827,1.0
159.0,15.9,0.0,1.0,0.4000000059604645,0.6784313729134619,0.0,-22.407253646732695,0.6396451000752682,0.8243619798725346,20.541711068466647,-0.8696945657372139,391.3125380022858,0.620000004768,246.20064351000292,1.18145895004,44.6857032776,-118.792724609,0.3289072637365827,1.0
160.0,16.0,0.0,1.0,0.4000000059604645,0.664509804565812,0.0,-21.71244488576879,0.6416628451311094,0.8196230476157341,20.525161203252104,-0.540091523752744,391.33377627582746,0.620000004768,248.7965381224965,1.18145895004,44.6857032776,-118.792724609,0.3289072637365827,1.0
161.0,16.1,0.0,1.0,0.32499998807907104,0.647534313741475,0.0,-21.0194490517819,0.6433922028894551,0.8146210619767408,20.50861133803756,-0.2104884817682684,391.3550145493692,0.620000004768,251.39243273499005,1.40910351276,45.1976165771,-107.269042969,0.3289072637365827,1.0
162.0,16.2,0.0,1.0,0.2750000059604645,0.6289075983524244,0.0,-20.415544488420796,0.6443475927449823,0.8096400089728986,20.479624969297618,0.1423127661750849,391.39403247397536,0.620000004768,254.00261370976108,1.40910351276,45.1976165771,-107.269042969,0.3289072637365827,1.0
163.0,16.3,0.0,1.0,0.22499999403953552,0.60871221813678,0.0,-20.05595468564345,0.6434427131226343,0.8048663419426478,20.446838415219595,0.5022026208136302,391.4384832735978,0.620000004768,256.61716012569906,1.40910351276,45.1976165771,-107.269042969,0.3289072637365827,1.0
164.0,16.400000000000002,0.0,1.0,0.20000000298023224,0.5882766073789526,0.0,-19.79201603916877,0.6416455775186567,0.7999771915873087,20.414051861141573,0.8620924754521755,391.4829340732202,0.620000004768,259.23170654163704,1.40910351276,45.1976165771,-107.269042969,0.3289072637365827,1.0
165.0,16.5,0.0,1.0,0.2750000059604645,0.5726127773080282,0.0,-19.576825853103955,0.6393132987693837,0.7949366653965351,20.38126530706355,1.221982330090708,391.5273848728426,0.620000004768,261.8462529575749,2.003272295,45.9543609619,-97.977104187,0.3289072637365827,1.0
166.0,16.6,0.0,1.0,0.2750000059604645,0.55773213874065,0.0,-19.46880762136708,0.6360976339426732,0.7898773321919009,20.32684230390806,1.1720093930780908,391.5880857869758,0.6175796165976961,264.17835143076724,2.003272295,45.9543609619,-97.977104187,0.3289072637365827,1.0
167.0,16.7,0.0,1.0,0.25,0.5423455318036174,0.0,-19.371416685564775,0.6326052523274959,0.7845917989907659,20.27106748796765,1.0964288455082234,391.6498019838143,0.6150080062161425,266.49280298145794,2.003272295,45.9543609619,-97.977104187,0.3289072637365827,1.0
168.0,16.8,0.0,1.0,0.4000000059604645,0.5352282555114597,0.0,-19.368365253368296,0.6284124898079787,0.7793622091163542,20.215292672027235,1.0208482979383535,391.7115181806528,0.6124363958345888,268.8072545321488,2.909054346783569,45.10573637239522,-90.5180974117164,0.3289072637365827,1.0
169.0,16.900000000000002,0.0,1.0,0.2750000059604645,0.5222168430339099,0.0,-19.579013421159864,0.6227418654591408,0.7743524320590625,20.158343682771125,0.936894734694755,391.7740540974884,0.6096748069668753,271.1300826716308,3.19315743446,44.8459701538,-88.1771240234,0.3289072637365827,1.0
170.0,17.0,0.0,1.0,0.15000000596046448,0.5036060011802377,0.0,-20.057789332534163,0.6152297723426459,0.7695931438546352,20.080239931514587,0.7020868201939829,391.85135868707056,0.6034904272673748,273.60382953825933,3.19315743446,44.8459701538,-88.1771240234,0.3289072637365827,1.0
171.0,17.1,0.0,1.0,0.4749999940395355,0.5021757008232026,0.0,-20.61137220316504,0.6072807838372722,0.7649468200802976,20.002136180258045,0.4672789056932024,391.9286632766528,0.5973060475678742,276.07757640488785,3.2710204053321754,44.50508583925336,-86.3287894341025,0.3289072637365827,1.0
172.0,17.2,0.0,1.0,0.824999988079071,0.518316915185996,0.0,-20.985201004033517,0.6006042447422661,0.7601161458031749,19.924032429001507,0.2324709911924303,392.00596786623487,0.5911216678683737,278.5513232715164,3.52556061745,43.402759552,-80.2374572754,0.3289072637365827,1.0
173.0,17.3,0.0,1.0,1.0,0.5424010694266962,0.0,-21.062642216500333,0.5959490326318128,0.7549645052299742,19.81635833721265,0.386178512498613,392.1042077431649,0.585681230912334,280.94343614110755,3.52556061745,43.402759552,-80.2374572754,0.3289072637365827,1.0
174.0,17.400000000000002,0.0,1.0,1.0,0.5652810159553614,0.0,-20.945942112813096,0.5927140811864866,0.7497579466854336,19.702132608816115,0.62596593366592,392.20708606498647,0.5804056227145817,283.31746209408595,3.52556061745,43.402759552,-80.2374572754,0.3289072637365827,1.0
175.0,17.5,0.0,1.0,0.9750000238418579,0.5857669663496863,0.0,-20.82121246868847,0.589765877343229,0.7448533827447207,19.587906880419585,0.8657533548332186,392.309964386808,0.5751300145168297,285.69148804706424,3.5522652104942605,43.35068425245464,-79.1220750629596,0.3289072637365827,1.0
176.0,17.6,0.0,1.0,0.9750000238418579,0.6052286192242948,0.0,-20.698956293237583,0.5869650836921345,0.7401732136875784,19.473761913396768,1.1101956562418882,392.4128308513765,0.56986207226783,288.05516828428193,3.73353815079,42.9978866577,-71.403968811,0.3289072637365827,1.0
177.0,17.7,0.0,1.0,0.925000011920929,0.6212171888591265,0.0,-20.596113775338512,0.5841793296937923,0.7357062197698281,19.36246272890047,1.5186616269377655,392.515279502798,0.5648642544855815,290.0542973037507,3.73353815079,42.9978866577,-71.403968811,0.3289072637365827,1.0
178.0,17.8,0.0,1.0,0.8999999761581421,0.6351563282240772,0.0,-20.531428022779938,0.5812828633357625,0.7314625755479653,19.25116354440417,1.9271275976336577,392.6177281542195,0.5598664367033329,292.0534263232195,3.73353815079,42.9978866577,-71.403968811,0.3289072637365827,1.0
179.0,17.900000000000002,0.0,1.0,0.875,0.6471485118128733,0.0,-20.251216452147524,0.579718720280733,0.7269311135421627,19.13986435990787,2.33559356832955,392.7201768056411,0.5548686189210842,294.0525553426883,3.871710571425513,41.94081807291669,-65.03832771631494,0.3289072637365827,1.0
180.0,18.0,0.0,1.0,1.0,0.6647910862222296,0.0,-19.71863580341948,0.5797327843635539,0.7221262246416172,19.028551222325376,2.728219799010249,392.8230221388508,0.5498003231168698,296.054914391677,3.90220355988,41.7099304199,-63.6323242188,0.3289072637365827,1.0
181.0,18.1,0.0,1.0,0.949999988079071,0.6790515313150717,0.0,-18.92477113089076,0.5813086452422338,0.716999080176165,18.916712338423533,2.524011401607384,392.9408142721553,0.5420764455930168,298.1789795712818,3.90220355988,41.7099304199,-63.6323242188,0.3289072637365827,1.0
182.0,18.2,0.0,1.0,0.949999988079071,0.6925989541532717,0.0,-17.853352901121102,0.5844932130322761,0.7115241262722858,18.80487345452169,2.319803004204525,393.0586064054598,0.5343525680691641,300.3030447508865,3.90220355988,41.7099304199,-63.6323242188,0.3289072637365827,1.0
183.0,18.3,0.0,1.0,0.9750000238418579,0.706719007637701,0.0,-16.478292466259962,0.5893935525073222,0.7056770867253,18.69303457061985,2.11559460680166,393.17639853876426,0.5266286905453111,302.4271099304913,3.90220355988,41.7099304199,-63.6323242188,0.3289072637365827,1.0
184.0,18.4,0.0,1.0,0.8999999761581421,0.716383056063723,0.0,-14.819645151908507,0.5957988749415607,0.6994557324914805,18.58119568671801,1.911386209398794,393.2941906720688,0.5189048130214582,304.5511751100961,3.483293594999851,40.72641655909023,-60.87074555828494,0.3289072637365827,1.0
185.0,18.5,0.0,1.0,0.925000011920929,0.7268139038565833,0.0,-12.906194321114725,0.6035089312689884,0.6929412793076524,18.46935680281617,1.7071778119959355,393.4119828053732,0.5111809354976055,306.67524028970087,2.27057766914,37.963104248,-52.862537384,0.3289072637365827,1.0
186.0,18.6,0.0,1.0,1.0,0.7404732086637541,0.0,-10.712318103692127,0.6126459847651436,0.686148382121316,18.378166148637742,1.891836862683628,393.50829536880366,0.5037357810128886,308.25284308485874,2.27057766914,37.963104248,-52.862537384,0.3289072637365827,1.0
187.0,18.7,0.0,1.0,0.9750000238418579,0.7521995494226593,0.0,-8.236475393954295,0.6231386856460958,0.6790701297942965,18.290702328628143,2.146683261734897,393.6007310480648,0.4963409337244694,309.7318139530371,1.6445359933463526,36.60562751729883,-48.19809416609384,0.3289072637365827,1.0
188.0,18.8,0.0,1.0,1.0,0.7645895719515263,0.0,-5.542795559615725,0.6346067514680991,0.6718457900885949,18.204110886140576,2.3193559260837966,393.6898537064452,0.4896347705844966,311.219142927387,1.63058245182,36.5758972168,-48.0829391479,0.3289072637365827,1.0
189.0,18.9,0.0,1.0,0.949999988079071,0.7738600927579036,0.0,-2.5873183334351153,0.6471889139542988,0.6643785007064789,18.122768099579687,1.9976306391216887,393.75904358774005,0.4870720729122373,312.756758414611,1.63058245182,36.5758972168,-48.0829391479,0.3289072637365827,1.0
190.0,19.0,0.0,1.0,0.8999999761581421,0.7801670869279154,0.0,0.6763457903849482,0.6610169682416827,0.6565762424651023,18.0414253130188,1.675905352159592,393.8282334690349,0.4845093752399781,314.294373901835,1.63058245182,36.5758972168,-48.0829391479,0.3289072637365827,1.0
191.0,19.1,0.0,1.0,0.8500000238418579,0.7836587337736124,0.0,4.0640422136197145,0.6750911198892031,0.6487265971308276,17.96008252645791,1.354180065197484,393.89742335032975,0.4819466775677188,315.83198938905906,1.10849714279,35.6750602722,-41.6808853149,0.3289072637365827,1.0
192.0,19.200000000000003,0.0,1.0,0.8500000238418579,0.7869757982770246,0.0,7.389852815569694,0.6885240640437545,0.6411444340334642,17.878635730085826,1.060343331951732,393.959908063061,0.4792910374102428,317.4962667758196,1.10849714279,35.6750602722,-41.6808853149,0.3289072637365827,1.0
193.0,19.3,0.0,1.0,0.7749999761581421,0.7863770071710804,0.0,10.52343432766461,0.7007228609309738,0.634003879081035,17.796860246050482,0.8546388955308635,394.00120336912295,0.476341684112313,319.5608160533312,1.10849714279,35.6750602722,-41.6808853149,0.3289072637365827,1.0
194.0,19.4,0.0,1.0,0.6499999761581421,0.7795581556204334,0.0,13.340331943694308,0.7114367179142274,0.6276995185329596,17.71508476201513,0.6489344591099874,394.04249867518496,0.473392330814383,321.6253653308428,1.10849714279,35.66631229190799,-41.6808853149,0.3289072637365827,1.0
195.0,19.5,0.0,1.0,0.550000011920929,0.7680802484354581,0.0,15.785881990425608,0.720552382018516,0.622314542698823,17.633309277979787,0.4432300226891186,394.08379398124697,0.4704429775164532,323.6899146083543,0.112511783838,35.2556152344,-35.8146209717,0.3289072637365827,1.0
196.0,19.6,0.0,1.0,0.800000011920929,0.7696762366097316,0.0,17.962325161334675,0.7287747628877879,0.6178029823429281,17.58353008516319,0.2337831777562708,394.089996338,0.469999998808,325.476135959935,0.112511783838,35.2556152344,-35.8146209717,0.3289072637365827,1.0
197.0,19.700000000000003,0.0,1.0,0.550000011920929,0.7586924253752914,0.0,19.792888028063057,0.7356485247135961,0.6141003333530625,17.53940594319928,0.0236748964618759,394.089996338,0.469999998808,327.213165404738,0.112511783838,35.2556152344,-35.8146209717,0.3289072637365827,1.0
198.0,19.8,0.0,1.0,0.4000000059604645,0.74075780440455,0.0,21.231942962268135,0.7409285985226197,0.6111661501236717,17.49528180123537,-0.1864333848325114,394.089996338,0.469999998808,328.950194849541,0.112511783838,35.2556152344,-35.8146209717,0.3289072637365827,1.0
199.0,19.9,0.0,1.0,0.3499999940395355,0.7212199138862992,0.0,22.274736888076553,0.744632168626291,0.60898284271745,17.451157659271463,-0.3965416661269063,394.089996338,0.469999998808,330.687224294344,-1.233382267713374,35.53595858882949,-29.477118711020296,0.3289072637365827,1.0
200.0,20.0,0.0,1.0,0.574999988079071,0.7139089175959378,0.0,22.93691107276653,0.7470880601949764,0.6077003673475853,17.41282155030545,-0.5557471621580531,394.0799604616515,0.4705902972859088,332.413209328614,-1.61564445496,35.6018791199,-27.6747665405,0.3289072637365827,1.0
201.0,20.1,0.0,1.0,0.4749999940395355,0.7019634714181177,0.0,23.220389869207917,0.7482336572001287,0.6072320157356588,17.39239545226461,-0.5574432866084855,394.038870399,0.4730071665854272,334.1050194517561,-1.61564445496,35.6018791199,-27.6747665405,0.3289072637365827,1.0
202.0,20.200000000000003,0.0,1.0,0.574999988079071,0.6956152972511652,0.0,23.187565168347643,0.7483844743550234,0.6075162483585775,17.371969354223765,-0.559139411058918,393.9977803363485,0.4754240358849456,335.79682957489825,-1.61564445496,35.6018791199,-27.6747665405,0.3289072637365827,1.0
203.0,20.3,0.0,1.0,0.5,0.6858345323886069,0.0,22.809483709007186,0.7473402505925687,0.6085362693677351,17.351543256182925,-0.5608355355093503,393.956690273697,0.4778409051844638,337.48863969804034,-1.9165508734516965,36.74510686383634,-22.68800671814421,0.3289072637365827,1.0
204.0,20.4,0.0,1.0,0.30000001192092896,0.666542806365223,0.0,22.06352176899079,0.7448482381076437,0.610213622639279,17.333352311933226,-0.5839495821206527,393.91235567895467,0.4805260453460664,339.18411952750233,-2.05170941353,37.2570457458,-20.4473724365,0.3289072637365827,1.0
205.0,20.5,0.0,1.0,0.42500001192092896,0.6544656666430082,0.0,21.01834306061888,0.7412308262469649,0.6124946082559382,17.33388193324889,-0.7864497710527157,393.8408464548974,0.4854580923123954,340.9103350396892,-2.05170941353,37.2570457458,-20.4473724365,0.3289072637365827,1.0
206.0,20.6,0.0,1.0,0.675000011920929,0.6554923839069042,0.0,19.77051783549267,0.7369817850091225,0.6153282112559474,17.334411554564554,-0.988949959984786,393.76933723084016,0.4903901392787246,342.63655055187604,-2.05170941353,37.2570457458,-20.4473724365,0.3289072637365827,1.0
207.0,20.700000000000003,0.0,1.0,0.824999988079071,0.6639677641155126,0.0,18.427216565947024,0.7325701957437651,0.6185826341158903,17.33494117588022,-1.1914501489168563,393.6978280067829,0.4953221862450537,344.3627660640629,-2.3309100097699487,37.39786488754077,-15.527072951992457,0.3289072637365827,1.0
208.0,20.8,0.0,1.0,0.550000011920929,0.6582693765057833,0.0,16.881305373732097,0.727254185971478,0.6222160025044698,17.33658475035903,-1.38823125914851,393.6255681757766,0.5001386437952944,346.11091514201524,-2.48043107986,37.4733848572,-12.8849506378,0.3289072637365827,1.0
209.0,20.9,0.0,1.0,0.6499999761581421,0.6578559064884012,0.0,15.23654316231997,0.7214539766580028,0.6260635358019866,17.35872472418938,-1.479783060963349,393.5394974052319,0.5028282912503325,348.2626351581411,-2.48043107986,37.4733848572,-12.8849506378,0.3289072637365827,1.0
210.0,21.0,0.0,1.0,0.44999998807907104,0.6474631105679346,0.0,13.442675679094512,0.7148187778400038,0.6301145257381586,17.38086469801973,-1.5713348627781851,393.4534266346872,0.5055179387053705,350.4143551742669,-2.48043107986,37.4733848572,-12.8849506378,0.3289072637365827,1.0
211.0,21.1,0.0,1.0,0.32499998807907104,0.6313399544434913,0.0,11.497744522231617,0.7072028388734978,0.6342754662023572,17.40300467185008,-1.6628866645930245,393.3673558641424,0.5082075861604086,352.5660751903928,-2.67819476128,37.7303237915,-5.70421648026,0.3289072637365827,1.0
212.0,21.200000000000003,0.0,1.0,0.32499998807907104,0.6160229561252702,0.0,9.478623181988196,0.69865519676591,0.63816585965328,17.429886757580004,-1.7094912244714713,393.2831515963964,0.5106883219672688,329.90837437681944,-2.67819476128,37.7303237915,-5.70421648026,0.3289072637365827,1.0
213.0,21.3,0.0,1.0,0.6499999761581421,0.6177218071269138,0.0,7.565864549957355,0.6902224367637017,0.6416742334117885,17.466242063304957,-1.6663055980256072,393.2026760031328,0.5127517192455098,257.68940077037155,-2.67819476128,37.7303237915,-5.70421648026,0.3289072637365827,1.0
214.0,21.4,0.0,1.0,1.0,0.6368357167705682,0.0,5.951585114391379,0.6830863148212084,0.6447155217958367,17.502597369029907,-1.6231199715797413,393.1222004098692,0.5148151165237508,185.47042716392107,-2.67819476128,37.7303237915,-5.70421648026,0.3289072637365827,1.0
215.0,21.5,0.0,1.0,0.925000011920929,0.6512439315280861,0.0,4.637418691176897,0.6772444989758398,0.6472297457706165,17.53895267475486,-1.5799343451338772,393.0417248166056,0.5168785138019918,113.25145355747316,-2.67819476128,37.7303237915,-5.70421648026,0.3289072637365827,1.0
216.0,21.6,0.0,1.0,0.875,0.6624317349516817,0.0,3.4537881318819426,0.6718822738929373,0.6494515918899247,17.575307980479813,-1.5367487186880116,392.961249223342,0.5189419110802328,41.03247995102271,-2.25731730461,37.6412353516,4.22877931595,0.3289072637365827,1.0
217.0,21.700000000000003,0.0,1.0,0.8500000238418579,0.6718101493961904,0.0,2.5109232371327033,0.6675381600939823,0.6511873457132018,17.613642157926968,-1.6453411437612442,392.8853761855152,0.521235939583818,4.988767868442343,-2.25731730461,37.6412353516,4.22877931595,0.3289072637365827,1.0
218.0,21.8,0.0,1.0,0.7749999761581421,0.676969640734288,0.0,1.7374765153161915,0.6643487519104692,0.6530029785144651,17.65405902449046,-1.913674340533078,392.8143471666352,0.5237726989008872,7.0181772575454335,-2.25731730461,37.6412353516,4.22877931595,0.3289072637365827,1.0
219.0,21.9,0.0,1.0,0.824999988079071,0.6843711581015272,0.0,1.1977088300261154,0.6625063141212306,0.6546653296607641,17.69447589105395,-2.182007537304921,392.7433181477552,0.5263094582179565,9.047586646648597,-2.25731730461,37.6412353516,4.22877931595,0.3289072637365827,1.0
220.0,22.0,0.0,1.0,0.800000011920929,0.6901526007924972,0.0,0.7859757860617801,0.6613184982810586,0.6561612298965466,17.73489275761744,-2.450340734076756,392.6722891288752,0.5288462175350257,11.076996035751684,-1.48658299446,38.0066986084,12.3684749603,0.3289072637365827,1.0
221.0,22.1,0.0,1.0,0.9750000238418579,0.7043949719449653,0.0,0.5770954159712601,0.661440073307401,0.6576448351106059,17.77117748823447,-2.2460746950011163,392.60390428455287,0.5315033670215643,13.052371673080568,-1.48658299446,38.0066986084,12.3684749603,0.3289072637365827,1.0
222.0,22.200000000000003,0.0,1.0,0.699999988079071,0.7041752227516705,0.0,0.4237720759081124,0.6618680695824262,0.6590750933774273,17.804015039568284,-1.6475490487428952,392.5377253075772,0.5342609504007616,14.982670373899117,-1.48658299446,38.0066986084,12.3684749603,0.3289072637365827,1.0
223.0,22.3,0.0,1.0,0.824999988079071,0.7102164610180406,0.0,0.4587965640810472,0.6630871660138979,0.6600588387408417,17.836852590902094,-1.0490234024846952,392.4715463306016,0.5370185337799588,16.912969074717598,-1.48658299446,38.0066986084,12.3684749603,0.3289072637365827,1.0
224.0,22.4,0.0,1.0,0.925000011920929,0.720955638563185,0.0,0.7632945616720488,0.665807807623796,0.660764230189287,17.869690142235907,-0.4504977562264738,392.4053673536259,0.5397761171591561,18.843267775536145,-0.743078052998,37.5621910095,19.6419563293,0.3289072637365827,1.0
225.0,22.5,0.0,1.0,0.925000011920929,0.7311578572310722,0.0,1.2537061494127244,0.6696424171531992,0.661351018761779,17.89729394505772,-0.8493729775602985,392.3688306202716,0.5419476797564711,20.947660155954527,-0.743078052998,37.5621910095,19.6419563293,0.3289072637365827,1.0
226.0,22.6,0.0,1.0,0.875,0.7383499643695185,0.0,1.7943309153096523,0.6737852961763299,0.6619084679056464,17.924435235164328,-1.3363897254419272,392.33491340800254,0.5440674549852543,23.06743740636944,-0.743078052998,37.5621910095,19.6419563293,0.3289072637365827,1.0
227.0,22.700000000000003,0.0,1.0,0.75,0.7389324661510425,0.0,2.227337188121491,0.6775335312781063,0.6627713779057856,17.951576525270937,-1.823406473323556,392.30099619573343,0.5461872302140377,25.187214656784352,-0.743078052998,37.5621910095,19.6419563293,0.3289072637365827,1.0
228.0,22.8,0.0,1.0,0.699999988079071,0.7369858422474439,0.0,2.71995976567289,0.6814693545651894,0.6634244757491853,17.97871781537755,-2.310423221205167,392.2670789834644,0.548307005442821,27.30699190719919,-0.1981689636973596,37.37960004867864,27.972642940768328,0.3289072637365827,1.0
229.0,22.9,0.0,1.0,0.675000011920929,0.7338865507311182,0.0,3.235331799347271,0.6852708867773253,0.6637949186904808,18.00543652716917,-2.5224507993703917,392.23937491141214,0.549385290195745,29.43030561806098,-0.137474954128,37.3634185791,29.5227584839,0.3289072637365827,1.0
230.0,23.0,0.0,1.0,0.824999988079071,0.7384422225985158,0.0,3.937289254763904,0.6898198423788543,0.6636885061414441,18.030478856086468,-1.6435867761715677,392.2363185827152,0.5463319460042005,31.56764859052609,-0.137474954128,37.3634185791,29.5227584839,0.3289072637365827,1.0
231.0,23.1,0.0,1.0,0.75,0.7390201114685899,0.0,4.827001772492029,0.6952038502301092,0.6631915808666577,18.05552118500377,-0.7647227529727125,392.2332622540182,0.543278601812656,33.70499156299128,0.091455426512536,37.313843722298536,30.96014458941513,0.3289072637365827,1.0
