step,t_sec,is_boundary,learn,anomaly,mwl,spike,growth_pct,mr,mp,airspeed,climb,altitude,throttle,heading,pitch,roll,yaw,thr,elev
0.0,0.0,0.0,1.0,1.0,1.0,0.0,nan,nan,nan,17.4100246429,1.38296854496,414.199981689,0.449999988079,302.0,-0.93081009388,6.19317579269,-58.9783401489,0.2538594331431262,1.0
1.0,0.1,0.0,1.0,1.0,1.0,0.0,nan,nan,nan,17.37988544482316,1.1530370944830663,414.16493160085207,0.449999988079,302.50077231108907,-1.6244189640245543,18.474545199041657,-57.57661222164061,0.2538594331431262,1.0
2.0,0.2,0.0,1.0,1.0,1.0,0.0,nan,nan,nan,17.349746246746317,0.9231056440061328,414.1298815127041,0.449999988079,303.00154462217813,-1.75219774246,20.7941551208,-57.3160667419,0.2538594331431262,1.0
3.0,0.3,0.0,1.0,1.0,1.0,0.0,nan,nan,nan,17.319607048669475,0.6931741935291992,414.09483142455616,0.449999988079,303.50231693326714,-1.75219774246,20.7941551208,-57.3160667419,0.2538594331431262,1.0
4.0,0.4,0.0,1.0,1.0,1.0,0.0,nan,nan,nan,17.28953862460654,0.4634906512779164,414.05948911913134,0.4498139751843441,304.00744051696887,-1.75219774246,20.7941551208,-57.3160667419,0.2538594331431262,1.0
5.0,0.5,0.0,1.0,0.5,0.975,0.0,nan,nan,nan,17.270872027082813,0.2737455896980828,413.97707006168207,0.4196609356678227,305.2135622893388,-2.144668016665399,27.714344933742428,-55.36027554999386,0.2538594331431262,1.0
6.0,0.6000000000000001,0.0,1.0,0.800000011920929,0.9662500005960464,0.0,nan,nan,nan,17.252205429559087,0.0840005281182489,413.8946510042328,0.3895078961513012,306.41968406170867,-2.18218564987,28.4104099274,-55.1730308533,0.2538594331431262,1.0
7.0,0.7000000000000001,0.0,1.0,0.949999988079071,0.9654374999701976,0.0,nan,nan,nan,17.23353883203536,-0.1057445334615846,413.8122319467835,0.3593548566347798,307.62580583407856,-2.18218564987,28.4104099274,-55.1730308533,0.2538594331431262,1.0
8.0,0.8,0.0,1.0,1.0,0.9671656249716877,0.0,nan,nan,nan,17.214872234511635,-0.2954895950414182,413.7298128893343,0.3292018171182584,308.83192760644846,-2.18218564987,28.4104099274,-55.1730308533,0.2538594331431262,1.0
9.0,0.9,0.0,1.0,1.0,0.9688073437231033,0.0,nan,nan,nan,17.195687461996556,-0.4800586868671869,413.64500526928464,0.2990023196622586,310.02720978533625,-2.18218564987,28.4104099274,-55.1730308533,0.2538594331431262,1.0
10.0,1.0,0.0,1.0,1.0,0.9703669765369481,0.0,nan,nan,nan,17.16059531014375,-0.5057314295975888,413.4868715104036,0.2673766166215339,310.8897288470075,-4.946767725983876,24.61891534001133,-50.2871875833562,0.2538594331431262,1.0
11.0,1.1,0.0,1.0,1.0,0.9718486277101007,0.0,nan,nan,nan,17.125503158290947,-0.5314041723279906,413.3287377515225,0.2357509135808091,311.7522479086788,-5.29284286499,24.125831604,-49.6755905151,0.2538594331431262,1.0
12.0,1.2000000000000002,0.0,1.0,1.0,0.9732561963245957,0.0,nan,nan,nan,17.090411006438142,-0.5570769150583925,413.1706039926414,0.2041252105400844,312.61476697035005,-5.29284286499,24.125831604,-49.6755905151,0.2538594331431262,1.0
13.0,1.3,0.0,1.0,1.0,0.9745933865083659,0.0,nan,nan,nan,17.05155825993205,-0.6746255732670394,412.9540723227426,0.1786676921437072,313.5666152862785,-7.145811328003633,20.67737437709015,-47.54658881752891,0.2538594331431262,1.0
14.0,1.4,0.0,1.0,1.0,0.9758637171829476,0.0,nan,nan,nan,17.009670215566025,-0.866330261396896,412.690405805651,0.1581887155410614,314.590564139296,-8.43677520752,19.0055522919,-46.0239295959,0.2538594331431262,1.0
15.0,1.5,0.0,1.0,1.0,0.9770705313238003,0.0,nan,nan,nan,16.9677821712,-1.0580349495267525,412.42673928855936,0.1377097389384156,315.6145129923136,-8.43677520752,19.0055522919,-46.0239295959,0.2538594331431262,1.0
16.0,1.6,0.0,1.0,1.0,0.9782170047576103,0.0,nan,nan,nan,16.925894126833974,-1.2497396376566088,412.1630727714677,0.1172307623357697,316.6384618453311,-8.43677520752,19.0055522919,-46.0239295959,0.2538594331431262,1.0
17.0,1.7000000000000002,0.0,1.0,1.0,0.9793061545197298,0.0,nan,nan,nan,16.891651582164833,-1.5679361167498818,411.8310042474631,0.1042646577472104,317.19117804762953,-11.486283837393383,15.390665815361343,-43.6643731591811,0.2538594331431262,1.0
18.0,1.8,0.0,1.0,1.0,0.9803408467937433,0.0,nan,nan,nan,16.86158188654361,-1.9551707451358475,411.4616024868174,0.0953990151394243,317.486699456146,-12.7833175659,13.8354644775,-42.6600837708,0.2538594331431262,1.0
19.0,1.9,0.0,1.0,1.0,0.9813238044540562,0.0,nan,nan,nan,16.831512190922385,-2.3424053735218138,411.0922007261718,0.0865333725316382,317.7822208646625,-12.7833175659,13.8354644775,-42.6600837708,0.2538594331431262,1.0
20.0,2.0,0.0,1.0,0.949999988079071,0.9797576136353069,0.0,nan,nan,nan,16.81275382800892,-2.6953170928188435,410.6927982861455,0.07786848863816,318.0,-12.7833175659,13.8354644775,-42.6600837708,0.2538594331431262,1.0
21.0,2.1,0.0,1.0,0.75,0.9682697329535415,0.0,nan,nan,nan,16.825681858557807,-2.952080176914021,410.2093550566247,0.069765989370518,318.0,-15.7257986069,10.6866426468,-41.9435958862,0.2538594331431262,1.0
22.0,2.2,0.0,1.0,1.0,0.9698562463058644,0.0,nan,nan,nan,16.838609889106696,-3.2088432610091986,409.7259118271039,0.0616634901028759,318.0,-15.7257986069,10.6866426468,-41.9435958862,0.2538594331431262,1.0
23.0,2.3000000000000003,0.0,1.0,1.0,0.9713634339905712,0.0,nan,nan,nan,16.851537919655584,-3.465606345104376,409.2424685975831,0.0535609908352339,318.0,-15.7257986069,10.6866426468,-41.9435958862,0.2538594331431262,1.0
24.0,2.4000000000000004,0.0,1.0,0.574999988079071,0.9515452616949961,0.0,nan,nan,nan,16.878766341174234,-3.8081285187478393,408.7385218907068,0.0500000007451,318.1381396664241,-16.36579165247349,9.712935503098144,-41.91243352869998,0.2538594331431262,1.0
25.0,2.5,0.0,1.0,0.75,0.9414679986102462,0.0,nan,nan,nan,16.917207676404598,-4.217894257489173,408.2184984399944,0.0500000007451,318.3845944245861,-18.8968505859,5.88824462891,-41.7871856689,0.2538594331431262,1.0
26.0,2.6,0.0,1.0,0.5249999761581421,0.9206445974876409,0.0,nan,nan,nan,16.955649011634964,-4.627659996230509,407.6984749892819,0.0500000007451,318.63104918274814,-18.8968505859,5.88824462891,-41.7871856689,0.2538594331431262,1.0
27.0,2.7,0.0,1.0,0.9750000238418579,0.9233623688053518,0.0,nan,nan,nan,16.994090346865327,-5.037425734971844,407.1784515385695,0.0500000007451,318.8775039409102,-18.8968505859,5.88824462891,-41.7871856689,0.2538594331431262,1.0
28.0,2.8000000000000003,0.0,1.0,0.9750000238418579,0.9259442515571772,0.0,nan,nan,nan,17.052496997347582,-5.485657662648018,406.57356689607934,0.0524140536758841,319.1207026492375,-20.432085926510663,3.28516946364872,-41.2105048093359,0.2538594331431262,1.0
29.0,2.9000000000000004,0.0,1.0,1.0,0.9296470389793183,0.0,nan,nan,nan,17.130633384065764,-5.97190190077913,405.88482237412745,0.0572136751280278,319.3606837272095,-21.6606121063,1.25185263157,-40.7447624207,0.2538594331431262,1.0
30.0,3.0,0.0,1.0,1.0,0.9331646870303524,0.0,nan,nan,nan,17.20876977078394,-6.45814613891024,405.1960778521755,0.0620132965801715,319.60066480518145,-21.6606121063,1.25185263157,-40.7447624207,0.2538594331431262,1.0
31.0,3.1,0.0,1.0,0.9750000238418579,0.9352564538709277,0.0,nan,nan,nan,17.28690615750212,-6.944390377041352,404.5073333302236,0.0668129180323153,319.8406458831534,-21.6606121063,1.25185263157,-40.7447624207,0.2538594331431262,1.0
32.0,3.2,0.0,1.0,0.925000011920929,0.9347436317734277,0.0,nan,nan,nan,17.37656723547833,-7.274350310413961,403.81570433424,0.0816457271074061,319.862991444738,-21.6606121063,1.25185263157,-40.7447624207,0.2538594331431262,1.0
33.0,3.3000000000000003,0.0,1.0,0.875,0.9317564501847562,0.0,nan,nan,nan,17.489006140768375,-7.295424146454308,403.1183743567797,0.116308500384234,319.4551940984873,-23.3815193176,0.0209875702858,-39.7120704651,0.2538594331431262,1.0
34.0,3.4000000000000004,0.0,1.0,0.8999999761581421,0.9301686264834254,0.0,nan,nan,nan,17.601445046058423,-7.316497982494654,402.4210443793195,0.1509712736610619,319.0473967522367,-23.3815193176,0.0209875702858,-39.7120704651,0.2538594331431262,1.0
35.0,3.5,0.0,1.0,0.675000011920929,0.9174101957553006,0.0,nan,nan,nan,17.713883951348464,-7.337571818535,401.7237144018593,0.1856340469378896,318.6395994059861,-23.3815193176,0.0209875702858,-39.7120704651,0.2538594331431262,1.0
36.0,3.6,0.0,1.0,0.42500001192092896,0.8927896865635819,0.0,nan,nan,nan,17.826322856638512,-7.358645654575347,401.0263844243991,0.2202968202147175,318.23180205973546,-23.3815193176,0.0209875702858,-39.7120704651,0.2538594331431262,1.0
37.0,3.7,0.0,1.0,0.699999988079071,0.8831502016393564,0.0,nan,nan,nan,17.97495155519133,-7.6975539761034355,400.3088478388681,0.2584735515290809,318.0,-23.22127093248601,1.4963369527363517,-40.73952728410677,0.2538594331431262,1.0
38.0,3.8,0.0,1.0,0.30000001192092896,0.853992692153435,0.0,nan,nan,nan,18.171245556524788,-8.455079692732472,399.5646972827937,0.3012784903770281,318.0,-23.1268386841,2.38336920738,-41.3451576233,0.2538594331431262,1.0
39.0,3.9,0.0,1.0,0.2750000059604645,0.8250430578437864,0.0,nan,nan,nan,18.367539557858247,-9.212605409361506,398.8205467267194,0.3440834292249752,318.0,-23.1268386841,2.38336920738,-41.3451576233,0.2538594331431262,1.0
40.0,4.0,0.0,1.0,0.22499999403953552,0.7950409046535739,0.0,nan,nan,nan,18.59844302775844,-9.624725038103826,398.0858161891443,0.3834339172284634,318.20667558389505,-22.195995029165125,1.7882857688876554,-41.25699397900746,0.2538594331431262,1.0
41.0,4.1000000000000005,0.0,1.0,0.42500001192092896,0.7765388600169416,0.0,nan,nan,nan,18.882457559424587,-9.506790758832008,397.3655414408392,0.4174832677176971,318.7305117644806,-20.4826316833,0.650043964386,-41.093952179,0.2538594331431262,1.0
42.0,4.2,0.0,1.0,0.3499999940395355,0.7552119167180713,0.0,nan,nan,nan,19.166472091090736,-9.388856479560188,396.6452666925341,0.4515326182069307,319.2543479450661,-20.4826316833,0.650043964386,-41.093952179,0.2538594331431262,1.0
43.0,4.3,0.0,1.0,0.42500001192092896,0.7387013214782141,0.0,nan,nan,nan,19.45048662275688,-9.27092220028837,395.924991944229,0.4855819686961642,319.7781841256516,-20.4826316833,0.650043964386,-41.093952179,0.2538594331431262,1.0
44.0,4.4,0.0,1.0,0.6000000238418579,0.7317662565963963,0.0,nan,nan,nan,19.703240861285945,-9.048824948453197,395.3846233840375,0.5114814430053058,319.712963864988,-15.89965851101202,0.5946270255516213,-40.12944665066431,0.2538594331431262,1.0
45.0,4.5,0.0,1.0,0.925000011920929,0.7414279443626228,0.0,nan,nan,nan,19.933036281777305,-8.750226215238408,394.9763851726768,0.5313953200768274,319.2151168343429,-14.7101993561,0.58476549387,-39.878238678,0.2538594331431262,1.0
46.0,4.6000000000000005,0.0,1.0,0.925000011920929,0.7506065477405381,0.0,nan,nan,nan,20.162831702268665,-8.451627482023618,394.5681469613162,0.5513091971483491,318.7172698036977,-14.7101993561,0.58476549387,-39.878238678,0.2538594331431262,1.0
47.0,4.7,0.0,1.0,0.925000011920929,0.7593262209495576,0.0,nan,nan,nan,20.392627122760025,-8.153028748808829,394.1599087499555,0.5712230742198707,318.21942277305254,-14.7101993561,0.58476549387,-39.878238678,0.2538594331431262,1.0
48.0,4.800000000000001,0.0,1.0,0.800000011920929,0.7613599104981261,0.0,nan,nan,nan,20.5277780272936,-7.538219975945279,393.9269053217354,0.5830620788939448,318.0,-11.628567969628826,0.8000995510707737,-40.43901912525135,0.2538594331431262,1.0
49.0,4.9,0.0,1.0,0.6000000238418579,0.7532919161653127,0.0,nan,nan,nan,20.58834073924208,-6.674209914491721,393.8320022960608,0.5885373747848344,318.0,-7.75809764862,1.07991874218,-41.143951416,0.2538594331431262,1.0
50.0,5.0,0.0,1.0,0.675000011920929,0.7493773209530935,0.0,nan,nan,nan,20.648903451190566,-5.810199853038162,393.73709927038624,0.5940126706757238,318.0,-7.75809764862,1.07991874218,-41.143951416,0.2538594331431262,1.0
51.0,5.1000000000000005,0.0,1.0,0.5249999761581421,0.7381584537133459,0.0,nan,nan,nan,20.70946616313905,-4.946189791584596,393.64219624471167,0.5994879665666134,318.0,-7.75809764862,1.07991874218,-41.143951416,0.2538594331431262,1.0
52.0,5.2,0.0,1.0,0.44999998807907104,0.7237505304316321,0.0,nan,nan,nan,20.770028875087537,-4.082179730131037,393.5472932190371,0.604963262457503,318.0,-7.75809764862,1.07991874218,-41.143951416,0.2538594331431262,1.0
53.0,5.300000000000001,0.0,1.0,0.25,0.7000630039100504,0.0,nan,nan,nan,20.81863620401967,-3.207865691568668,393.4737815445782,0.6097185785646589,318.0,-7.75809764862,1.07991874218,-41.143951416,0.2538594331431262,1.0
54.0,5.4,0.0,1.0,0.42500001192092896,0.6863098543105942,0.0,nan,nan,nan,20.729933955037342,-2.215208748750128,393.64595312446846,0.6062048061719986,318.0,1.33245134354,-1.15020108223,-41.6554260254,0.2538594331431262,1.0
55.0,5.5,0.0,1.0,0.6000000238418579,0.6819943627871574,0.0,nan,nan,nan,20.64123170605502,-1.2225518059315883,393.8181247043588,0.6026910337793383,318.0,1.33245134354,-1.15020108223,-41.6554260254,0.2538594331431262,1.0
56.0,5.6000000000000005,0.0,1.0,0.6499999761581421,0.6803946434557067,0.0,nan,nan,nan,20.529746469682355,-0.2860421245751236,394.0195563377078,0.5978756019893614,317.94688948217515,1.33245134354,-1.15020108223,-41.6554260254,0.2538594331431262,1.0
57.0,5.7,0.0,1.0,0.574999988079071,0.6751249106868749,0.0,nan,nan,nan,20.34374489499956,0.4668266558488051,394.3166888554557,0.5888028315829335,317.7200703436916,4.73835086823,-0.00932619627565,-41.8254241943,0.2538594331431262,1.0
58.0,5.800000000000001,0.0,1.0,0.42500001192092896,0.6626186657485775,0.0,nan,nan,nan,20.15774332031676,1.2196954362727408,394.6138213732037,0.5797300611765055,317.493251205208,4.73835086823,-0.00932619627565,-41.8254241943,0.2538594331431262,1.0
59.0,5.9,0.0,1.0,0.4749999940395355,0.6532377321631254,0.0,nan,nan,nan,19.971741745633967,1.9725642166966697,394.9109538909517,0.5706572907700775,317.26643206672446,4.73835086823,-0.00932619627565,-41.8254241943,0.2538594331431262,1.0
60.0,6.0,0.0,1.0,0.5,0.6455758455549692,0.0,nan,nan,nan,19.78574017095117,2.725432997120598,395.2080864086996,0.5615845203636497,317.0396129282409,4.73835086823,-0.00932619627565,-41.8254241943,0.2538594331431262,1.0
61.0,6.1000000000000005,0.0,1.0,0.550000011920929,0.6407970538732671,0.0,nan,nan,nan,19.594116431252484,3.3595430309414978,395.5298119040948,0.5538206106817609,317.2059795106037,7.02028512524657,2.5550777434895737,-42.40424412815002,0.2538594331431262,1.0
62.0,6.2,0.0,1.0,0.824999988079071,0.6500072005835573,0.0,nan,nan,nan,19.40130303860883,3.96852365425264,395.856741285929,0.5463336565874634,317.4555443892465,8.04250431061,3.61424970627,-42.6637229919,0.2538594331431262,1.0
63.0,6.300000000000001,0.0,1.0,0.949999988079071,0.665006839958333,0.0,nan,nan,nan,19.20848964596517,4.577504277563788,396.1836706677632,0.5388467024931658,317.70510926788927,8.04250431061,3.61424970627,-42.6637229919,0.2538594331431262,1.0
64.0,6.4,0.0,1.0,0.925000011920929,0.6780064985564628,0.0,nan,nan,nan,19.015676253321512,5.18648490087493,396.5106000495974,0.5313597483988683,317.95467414653206,8.04250431061,3.61424970627,-42.6637229919,0.2538594331431262,1.0
65.0,6.5,0.0,1.0,0.9750000238418579,0.6928561748207326,0.0,nan,nan,nan,18.81954807842196,5.446032396517379,396.8563688999809,0.5218754018566228,318.0,8.93620204926,6.41076660156,-41.8905715942,0.2538594331431262,1.0
66.0,6.6000000000000005,0.0,1.0,0.8999999761581421,0.703213364887603,0.0,nan,nan,nan,18.62268426872057,5.628031760856298,397.2063187093664,0.5119477829410577,318.0,8.93620204926,6.41076660156,-41.8905715942,0.2538594331431262,1.0
67.0,6.7,0.0,1.0,0.625,0.6993026966432229,0.0,nan,nan,nan,18.42582045901919,5.810031125195216,397.556268518752,0.5020201640254927,318.0,8.93620204926,6.41076660156,-41.8905715942,0.2538594331431262,1.0
68.0,6.800000000000001,0.0,1.0,0.574999988079071,0.6930875612150152,0.0,nan,nan,nan,18.228956649317805,5.992030489534136,397.9062183281376,0.4920925451099275,318.0,8.93620204926,6.41076660156,-41.8905715942,0.2538594331431262,1.0
69.0,6.9,0.0,1.0,0.625,0.6896831831542645,0.0,nan,nan,nan,18.06918469688212,5.719057590022012,398.1904935406003,0.4846480872727557,318.35679480343964,8.436174429811643,7.638068655371317,-41.41063418414353,0.2538594331431262,1.0
70.0,7.0,0.0,1.0,0.7250000238418579,0.691449025188644,0.0,nan,nan,nan,17.919318960806898,5.324574094493277,398.4572288719554,0.4778668135604508,318.80887969963044,8.18675136566,8.24866390228,-41.1502685547,0.2538594331431262,1.0
71.0,7.1000000000000005,0.0,1.0,0.8999999761581421,0.7018765727371189,0.0,nan,nan,nan,17.769453224731674,4.93009059896454,398.7239642033105,0.4710855398481459,319.2609645958213,8.18675136566,8.24866390228,-41.1502685547,0.2538594331431262,1.0
72.0,7.2,0.0,1.0,0.7250000238418579,0.7030327452923558,0.0,nan,nan,nan,17.61958748865645,4.535607103435806,398.9906995346656,0.4643042661358411,319.7130494920121,8.18675136566,8.24866390228,-41.1502685547,0.2538594331431262,1.0
73.0,7.300000000000001,0.0,1.0,0.5249999761581421,0.6941311068356452,0.0,nan,nan,nan,17.482424097960124,4.2246026112921085,399.2372411551257,0.4583739236452039,320.0,7.47809555918524,7.888256678755751,-40.69020748709023,0.2538594331431262,1.0
74.0,7.4,0.0,1.0,0.550000011920929,0.6869245520899093,0.0,nan,nan,nan,17.36733330218954,4.058657804707218,399.4486925944157,0.4539222262083172,320.0,6.42157888412,7.33670473099,-40.0038871765,0.2538594331431262,1.0
75.0,7.5,0.0,1.0,0.44999998807907104,0.6750783238893674,0.0,nan,nan,nan,17.25224250641896,3.892712998122329,399.6601440337057,0.4494705287714305,320.0,6.42157888412,7.33670473099,-40.0038871765,0.2538594331431262,1.0
76.0,7.6,0.0,1.0,0.32499998807907104,0.6575744070988525,0.0,nan,nan,nan,17.137151710648375,3.726768191537438,399.8715954729957,0.4450188313345438,320.0,6.42157888412,7.33670473099,-40.0038871765,0.2538594331431262,1.0
77.0,7.7,0.0,1.0,0.30000001192092896,0.6396956873399563,0.0,nan,nan,nan,17.02206091487779,3.560823384952549,400.0830469122857,0.4405671338976571,320.0,6.42157888412,7.33670473099,-40.0038871765,0.2538594331431262,1.0
78.0,7.800000000000001,0.0,1.0,0.4000000059604645,0.6277109032709817,0.0,nan,nan,nan,16.93646289776449,3.4498744999854667,400.2301729153894,0.4376434260949333,320.2356573768531,3.80008625984,6.81762981415,-39.1350975037,0.2538594331431262,1.0
79.0,7.9,0.0,1.0,0.375,0.6150753581074326,0.0,-23.344570673460495,0.6725042550548845,0.8773080536671801,16.855170753092125,3.34695488299648,400.3679075645571,0.4349428009841536,320.50572014549,3.80008625984,6.81762981415,-39.1350975037,0.2538594331431262,1.0
80.0,8.0,0.0,1.0,0.30000001192092896,0.5993215907981074,0.0,-23.09033908675551,0.6701915423170415,0.8714009844264297,16.773878608419757,3.2440352660074923,400.5056422137248,0.4322421758733739,320.7757829141268,3.80008625984,6.81762981415,-39.1350975037,0.2538594331431262,1.0
81.0,8.1,0.0,1.0,0.22499999403953552,0.5806055109601789,0.0,-22.906059059292268,0.6671819651713871,0.8654142686576508,16.699262979824702,3.0731848745711656,400.6288214316083,0.430000007153,321.0490370764216,3.80008625984,6.81762981415,-39.1350975037,0.2538594331431262,1.0
82.0,8.200000000000001,0.0,1.0,0.20000000298023224,0.5615752355611815,0.0,-22.89728085471686,0.6627603669202683,0.8595810553340434,16.657300130911416,2.570106029558807,400.68081452706025,0.430000007153,321.3378993601955,1.26164901257,6.76021099091,-38.289932251,0.2538594331431262,1.0
83.0,8.3,0.0,1.0,0.22499999403953552,0.5447464734850992,0.0,-23.097305296146605,0.6567473485966066,0.8539978360000156,16.61533728199813,2.0670271845464576,400.7328076225122,0.430000007153,321.62676164396936,1.26164901257,6.76021099091,-38.289932251,0.2538594331431262,1.0
84.0,8.4,0.0,1.0,0.30000001192092896,0.5325091504068906,0.0,-23.468236641799272,0.6494724811891279,0.8486312776426234,16.573374433084844,1.5639483395341085,400.7848007179641,0.430000007153,321.9156239277432,1.26164901257,6.76021099091,-38.289932251,0.2538594331431262,1.0
85.0,8.5,0.0,1.0,0.20000000298023224,0.5158836930355577,0.0,-24.090302884576964,0.6406238570998692,0.8439288805563022,16.554085689861775,1.30413841765995,400.7965216624179,0.430000007153,322.17340177870165,-0.0977815929591612,6.630156740014867,-37.89650426718866,0.2538594331431262,1.0
86.0,8.6,0.0,1.0,0.20000000298023224,0.5000895085327914,0.0,-24.903642821728297,0.6304676642821286,0.8395449366278281,16.544152843869536,1.1447072747961662,400.79162532056495,0.430000007153,322.41835342328744,-0.978819489479,6.54660272598,-37.635509491,0.2538594331431262,1.0
87.0,8.700000000000001,0.0,1.0,0.20000000298023224,0.48508503325516344,0.0,-25.787350334996322,0.6197567811127257,0.8351093565723786,16.534219997877297,0.9852761319323796,400.786728978712,0.430000007153,322.6633050678732,-0.978819489479,6.54660272598,-37.635509491,0.2538594331431262,1.0
88.0,8.8,0.0,1.0,0.125,0.46708078159240524,0.0,-26.739780785742393,0.6084564421315952,0.8305413888431007,16.52428715188506,0.8258449890685962,400.7818326368591,0.430000007153,322.9082567124589,-0.978819489479,6.54660272598,-37.635509491,0.2538594331431262,1.0
89.0,8.9,0.0,1.0,0.125,0.4499767425127849,0.0,-27.778322589227507,0.5964711200995212,0.8258893195002867,16.52424778186233,0.6632792692718733,400.7617304684888,0.4320299000902747,323.0,-2.164459849013012,6.607413553347735,-36.88370216158948,0.2538594331431262,1.0
90.0,9.0,0.0,1.0,0.22499999403953552,0.4387279050891224,0.0,-28.90816622309936,0.5838350640945451,0.8212406869778149,16.53013276236564,0.4988365213650291,400.7325228404597,0.4352753210510485,323.0,-2.82741999626,6.64234113693,-36.4619865417,0.2538594331431262,1.0
91.0,9.1,0.0,1.0,0.17499999701976776,0.4255415096856547,0.0,-30.208205006216897,0.5700183109419719,0.8167411527282653,16.536017742868946,0.334393773458185,400.7033152124306,0.4385207420118222,323.0,-2.82741999626,6.64234113693,-36.4619865417,0.2538594331431262,1.0
92.0,9.2,0.0,1.0,0.375,0.4230144342013719,0.0,-31.544967536911244,0.5560173953874227,0.8122374285443946,16.551232900642866,0.1240662310561958,400.6570548950016,0.4426358027098498,323.13179018399364,-3.2816622867393264,8.827081610093254,-36.31941558149092,0.2538594331431262,1.0
93.0,9.3,0.0,1.0,0.375,0.4206137124913033,0.0,-32.84220707921779,0.5423415256702057,0.8075630572165159,16.574262568515728,-0.1246922199523866,400.5965120607817,0.447479232045697,323.3739615208732,-3.43552112579,9.60558986664,-36.2698173523,0.2538594331431262,1.0
94.0,9.4,0.0,1.0,0.3499999940395355,0.41708302656871493,0.0,-34.12006735211727,0.5288494493941459,0.8027474044649653,16.597292236388586,-0.373450670960969,400.5359692265618,0.4523226613815442,323.61613285775275,-3.43552112579,9.60558986664,-36.2698173523,0.2538594331431262,1.0
95.0,9.5,0.0,1.0,0.2750000059604645,0.40997887553830237,0.0,-35.366015005717585,0.5155944769765927,0.7977142010077247,16.62032190426145,-0.6222091219695516,400.47542639234194,0.4571660907173915,323.8583041946323,-3.43552112579,9.60558986664,-36.2698173523,0.2538594331431262,1.0
96.0,9.6,0.0,1.0,0.42500001192092896,0.41072993235743366,0.0,-36.487732615803516,0.5032522532395217,0.7923701577134121,16.64603282751687,-0.9090208009612027,400.3970348634387,0.4622033890028005,324.330507413875,-3.770501256591298,11.01553611295626,-35.7225762432697,0.2538594331431262,1.0
97.0,9.7,0.0,1.0,0.625,0.42144343573956194,0.0,-37.41789844599846,0.492339640659502,0.7867099832604159,16.675524996167177,-1.2494971155588406,400.2934721796298,0.4675140913352504,325.1271135234657,-4.02650737762,12.0772457123,-35.3034248352,0.2538594331431262,1.0
98.0,9.8,0.0,1.0,0.44999998807907104,0.42287126335653735,0.0,-38.25853014404742,0.4820976586637798,0.7808328175350365,16.705017164817484,-1.5899734301564783,400.1899094958209,0.4728247936677003,325.92371963305646,-4.02650737762,12.0772457123,-35.3034248352,0.2538594331431262,1.0
99.0,9.9,0.0,1.0,0.44999998807907104,0.424227699592664,0.0,-39.003771267027616,0.47255527573804135,0.7747286767625928,16.73450933346779,-1.9304497447541165,400.086346812012,0.4781354960001502,326.7203257426472,-4.02650737762,12.0772457123,-35.3034248352,0.2538594331431262,1.0
100.0,10.0,0.0,1.0,0.44999998807907104,0.4255163140169843,0.0,-39.631414625388636,0.4638650118989852,0.7683880763819728,16.768182423350623,-2.016990293479018,399.9618625474076,0.4849882224095865,327.49882329403874,-4.297350911110721,14.58466232225257,-34.05673948985845,0.2538594331431262,1.0
101.0,10.1,0.0,1.0,0.4000000059604645,0.4242404986141583,0.0,-40.14561005434994,0.45604676128168414,0.7619270060154167,16.804117505864966,-1.9661446540084897,399.82605913590527,0.4926752259808659,328.26752362062365,-4.54152107239,16.7752323151,-32.9308128357,0.2538594331431262,1.0
102.0,10.2,0.0,1.0,0.5,0.4280284736834504,0.0,-40.49051262340227,0.4493694231877976,0.7551223225030054,16.840052588379308,-1.9152990145379625,399.69025572440296,0.500362229552145,329.0362239472085,-4.54152107239,16.7752323151,-32.9308128357,0.2538594331431262,1.0
103.0,10.3,0.0,1.0,0.5249999761581421,0.43287704880718497,0.0,-40.6726191123881,0.4437759519539019,0.7480120398279142,16.875987670893654,-1.864453375067435,399.5544523129007,0.5080492331234243,329.80492427379346,-4.54152107239,16.7752323151,-32.9308128357,0.2538594331431262,1.0
104.0,10.4,0.0,1.0,0.550000011920929,0.43873319696287216,0.0,-40.746221157813515,0.439087154281701,0.7410281046397791,16.92134452895057,-1.7365660458076926,399.4136396824657,0.5196680582525879,331.1279411973017,-4.43182806910122,24.181227338727364,-30.646546440244723,0.2538594331431262,1.0
105.0,10.5,0.0,1.0,0.8500000238418579,0.45929653830682143,0.0,-40.55907171602833,0.43625779654526414,0.7339350328802009,16.969905502913445,-1.5824787181972868,399.2711235389312,0.5326239999301231,332.63946766628953,-4.37801742554,27.8852901459,-29.5256347656,0.2538594331431262,1.0
106.0,10.6,0.0,1.0,0.675000011920929,0.4700817119875268,0.0,-40.19232529046956,0.43475740671800095,0.7269257813976201,17.018466476876323,-1.4283913905868786,399.1286073953966,0.5455799416076585,334.1509941352773,-4.37801742554,27.8852901459,-29.5256347656,0.2538594331431262,1.0
107.0,10.7,0.0,1.0,0.6499999761581421,0.47907762519605757,0.0,-39.62697861258149,0.4344570363150456,0.7196211591384504,17.0670274508392,-1.2743040629764728,398.9860912518621,0.5585358832851938,335.6625206042651,-4.37801742554,27.8852901459,-29.5256347656,0.2538594331431262,1.0
108.0,10.8,0.0,1.0,0.75,0.49262374393625463,0.0,-38.79909513012232,0.4357341844322381,0.7119734346390375,17.120618183809903,-1.1715341712216605,398.8404087370448,0.5711687764165897,337.2337565885192,-4.37801742554,27.8852901459,-29.5256347656,0.2538594331431262,1.0
109.0,10.9,0.0,1.0,0.574999988079071,0.49674255614339546,0.0,-37.77193369952964,0.4380724751137686,0.7039789296979285,17.212860523571518,-1.4631174381612664,398.6703939753777,0.5813191757823158,339.2638353726287,-3.72697472572,37.6920814514,-22.7436752319,0.2538594331431262,1.0
110.0,11.0,0.0,1.0,0.6000000238418579,0.5019054295283185,0.0,-36.580846452385614,0.44123135133572844,0.6957383166655747,17.305102863333136,-1.7547007051008725,398.5003792137106,0.5914695751480421,341.2939141567382,-3.72697472572,37.6920814514,-22.7436752319,0.2538594331431262,1.0
111.0,11.1,0.0,1.0,0.550000011920929,0.504310158647949,0.0,-35.223823305896865,0.44516978378384314,0.6872430675958202,17.39734520309476,-2.0462839720404835,398.3303644520434,0.6016199745137685,343.3239929408477,-3.72697472572,37.6920814514,-22.7436752319,0.2538594331431262,1.0
112.0,11.2,0.0,1.0,0.75,0.5165946507155516,0.0,-33.72044329757165,0.4498487946095521,0.678714247636286,17.495875096829366,-2.290577641829098,398.1631305712495,0.6119194005591652,345.46065259117086,-3.72697472572,37.6920814514,-22.7436752319,0.2538594331431262,1.0
113.0,11.3,0.0,1.0,0.7749999761581421,0.529514916987681,0.0,-32.06548577635232,0.455293854834371,0.6701952020080617,17.624167279108228,-2.311024861695403,398.0090600572134,0.6229242479910341,348.1018153451134,-3.66406130791,41.3159866333,-13.5335817337,0.2538594331431262,1.0
114.0,11.4,0.0,1.0,0.800000011920929,0.5430391717343435,0.0,-30.23562235532426,0.46159166209265245,0.6616437753428165,17.75245946138709,-2.3314720815617083,397.8549895431773,0.633929095422903,350.7429780990559,-3.66406130791,41.3159866333,-13.5335817337,0.2538594331431262,1.0
115.0,11.5,0.0,1.0,0.75,0.5533872131476263,0.0,-28.234582807174736,0.46876207897311867,0.6531865866725333,17.880751643665953,-2.3519193014280133,397.7009190291411,0.6449339428547718,353.3841408529984,-3.66406130791,41.3159866333,-13.5335817337,0.2538594331431262,1.0
116.0,11.6,0.0,1.0,0.75,0.5632178524902449,0.0,-26.159062533049944,0.4763864749797592,0.6451522574357641,18.009043825944815,-2.3723665212943184,397.546848515105,0.6559387902866409,356.0253036069409,-3.66406130791,41.3159866333,-13.5335817337,0.2538594331431262,1.0
117.0,11.7,0.0,1.0,0.7749999761581421,0.5738069586736397,0.0,-24.072597636906128,0.48400465112646307,0.6374571446707675,18.145648651115906,-2.476217799275669,397.4192675423656,0.6618135006406184,293.3469873410163,-2.85830770676479,42.63970071127224,-5.709554412683137,0.2538594331431262,1.0
118.0,11.8,0.0,1.0,0.9750000238418579,0.5938666119320507,0.0,-21.85047335053632,0.49255441855523874,0.6302717875241526,18.28711544244127,-2.628851120819018,397.3071799878922,0.6646876547138987,192.46408315685176,-2.48009085655,43.2748146057,-2.03104543686,0.2538594331431262,1.0
119.0,11.9,0.0,1.0,1.0,0.6141732813354482,0.0,-19.49029577232706,0.502051697642378,0.6235915315533005,18.42858223376663,-2.7814844423623675,397.1950924334189,0.667561808787179,91.58117897268716,-2.48009085655,43.2748146057,-2.03104543686,0.2538594331431262,1.0
120.0,12.0,0.0,1.0,1.0,0.6334646172686759,0.0,-17.003255665639376,0.5124491128049625,0.617432788376024,18.570928521029906,-2.823736053900744,397.0928002792401,0.6706550874068168,6.425796372641615,-2.48009085655,43.2748146057,-2.03104543686,0.2538594331431262,1.0
121.0,12.1,0.0,1.0,1.0,0.651791386405242,0.0,-14.345988453564088,0.5238266571945167,0.6115611490193109,18.718193750322808,-2.248632645094005,397.0452929218165,0.6749739099935532,9.23303373114221,-0.684796869755,44.2570037842,6.94649028778,0.2538594331431262,1.0
122.0,12.2,0.0,1.0,1.0,0.6692018170849799,0.0,-11.585848834542416,0.5358853243645932,0.6061080916354006,18.86545897961571,-1.6735292362872762,396.99778556439287,0.6792927325802895,12.040271089642758,-0.684796869755,44.2570037842,6.94649028778,0.2538594331431262,1.0
123.0,12.3,0.0,1.0,1.0,0.6857417262307309,0.0,-8.732362703000382,0.5485285582357705,0.6010110204242168,19.01272420890861,-1.0984258274805474,396.9502782069693,0.6836115551670259,14.847508448143303,-0.684796869755,44.2570037842,6.94649028778,0.2538594331431262,1.0
124.0,12.4,0.0,1.0,1.0,0.7014546399191944,0.0,-5.781066424695968,0.5616646303835866,0.5961271360969914,19.159989438201517,-0.5233224186738186,396.9027708495457,0.6879303777537623,17.65474580664385,-0.684796869755,44.2570037842,6.94649028778,0.2538594331431262,1.0
125.0,12.5,0.0,1.0,0.32499998807907104,0.6826319073271883,0.0,-3.1438557482795395,0.572831398834605,0.5914249459960613,19.28742050349748,-0.4271457369938608,396.9166493760318,0.6876358204062066,20.41850767863582,0.3699678942913063,44.45539814410471,12.584250784565333,0.2538594331431262,1.0
126.0,12.6,0.0,1.0,0.2750000059604645,0.662250312258852,0.0,-0.7345047559718076,0.5824398288481712,0.5867495320668445,19.396601021916617,-0.7716568849264974,396.9870125595996,0.6830962287449088,23.14226527292599,1.76949596405,44.7303504944,20.071975708,0.2538594331431262,1.0
127.0,12.7,0.0,1.0,0.2750000059604645,0.6428877969439326,0.0,1.4691509881242029,0.590630337435565,0.5820787221376195,19.505781540335757,-1.116168032859128,397.0573757431674,0.6785566370836109,25.866022867216117,1.76949596405,44.7303504944,20.071975708,0.2538594331431262,1.0
128.0,12.8,0.0,1.0,0.25,0.6232434070967359,0.0,3.3866935269912197,0.5971613205935891,0.577599786028255,19.61496205875489,-1.4606791807917583,397.1277389267353,0.6740170454223131,28.58978046150624,1.76949596405,44.7303504944,20.071975708,0.2538594331431262,1.0
129.0,12.9,0.0,1.0,0.32499998807907104,0.6083312361458526,0.0,5.130919534572951,0.6027407545937119,0.573323963361223,19.72070350734189,-1.536803233188845,397.2084031221271,0.6696085142256823,31.31320226935517,1.8174791521805311,44.730256610514665,20.336445481278187,0.2538594331431262,1.0
130.0,13.0,0.0,1.0,0.30000001192092896,0.5929146749346064,0.0,6.692168490678651,0.6072912168640263,0.5691994318374768,19.80000825023906,0.4502092606185164,397.3682529203686,0.6662074667677065,34.03404283060144,3.75529980659,44.725112915,31.3681793213,0.2538594331431262,1.0
131.0,13.1,0.0,1.0,0.30000001192092896,0.5782689417839225,0.0,8.081910019791884,0.6109891560208249,0.5653019602530535,19.879312993136224,2.437221754425914,397.5281027186101,0.6628064193097306,36.75488339184777,3.75529980659,44.725112915,31.3681793213,0.2538594331431262,1.0
132.0,13.2,0.0,1.0,0.25,0.5618554946947263,0.0,9.148864342470107,0.6132521982197837,0.5618493622577855,19.95542607557931,4.024705614687685,397.69037570531,0.6593864422972436,39.42950787971024,3.75529980659,44.725112915,31.3681793213,0.2538594331431262,1.0
133.0,13.3,0.0,1.0,0.30000001192092896,0.5487627205560364,0.0,9.876031017557366,0.6142145883982014,0.5590068941424127,20.016476536419194,3.726666652792454,397.8640846111327,0.6558771297427021,41.88602168964132,4.18788957596,45.9622383118,39.0767860413,0.2538594331431262,1.0
134.0,13.4,0.0,1.0,0.375,0.5400745845282345,0.0,10.320758814062518,0.6140663590378961,0.5566190494328085,20.07752699725908,3.4286276908972235,398.0377935169554,0.6523678171881604,44.34253549957239,4.18788957596,45.9622383118,39.0767860413,0.2538594331431262,1.0
135.0,13.5,0.0,1.0,0.375,0.5318208553018229,0.0,10.55275372438909,0.6129880411456059,0.5544755969388163,20.138577458098965,3.130588729001993,398.2115024227781,0.6488585046336188,46.79904930950345,4.18788957596,45.9622383118,39.0767860413,0.2538594331431262,1.0
136.0,13.6,0.0,1.0,0.574999988079071,0.5339798119406852,0.0,10.67892667391284,0.6115261391181279,0.5525226504227253,20.19962791893885,2.832549767106757,398.3852113286008,0.6453491920790771,49.25556311943456,4.18788957596,45.9622383118,39.0767860413,0.2538594331431262,1.0
137.0,13.7,0.0,1.0,0.625,0.5385308213436509,0.0,10.698016543762826,0.6097623322516285,0.5508340178891714,20.26067837977873,2.534510805211527,398.5589202344235,0.6418398795245356,51.71207692936564,4.18788957596,45.9622383118,39.0767860413,0.2538594331431262,1.0
138.0,13.8,0.0,1.0,0.375,0.5303542802764684,0.0,10.351062745228827,0.6065867156688494,0.5496881503255626,20.314476992578392,2.399068341374985,398.7118378384571,0.6385274523643156,54.17802778803265,4.049825664445837,46.22028740023488,41.39668073052605,0.2538594331431262,1.0
139.0,13.9,0.0,1.0,0.4000000059604645,0.5238365665606681,0.0,9.659239073135614,0.6020698799301103,0.5490370761451013,20.360283224400117,2.442826151862175,398.841841006887,0.6354320158348535,56.65437937329882,3.36350607872,47.5640640259,53.1653175354,0.2538594331431262,1.0
140.0,14.0,0.0,1.0,0.375,0.5163947382326347,0.0,8.633039883252554,0.5962163859783083,0.5488352223403298,20.40608945622184,2.486583962349365,398.97184417531696,0.6323365793053914,59.130730958565,3.36350607872,47.5640640259,53.1653175354,0.2538594331431262,1.0
141.0,14.1,0.0,1.0,0.30000001192092896,0.5055750019170494,0.0,7.265166539154538,0.5889055667538986,0.5490184612158626,20.450910979651216,2.482691673071322,399.0986575379532,0.6287795429275657,61.61022673415991,3.36350607872,47.5640640259,53.1653175354,0.2538594331431262,1.0
142.0,14.2,0.0,1.0,0.4000000059604645,0.5002962521192201,0.0,5.665345555647306,0.5804602885056106,0.5493383714908864,20.492700485554547,2.332079868930726,399.21564916336587,0.6238011935588708,64.09940379231107,3.15761446953,47.8554077148,61.1083831787,0.2538594331431262,1.0
143.0,14.3,0.0,1.0,0.5249999761581421,0.5015314383211662,0.0,3.9233128539532975,0.5712497741101323,0.5496839529287597,20.53448999145788,2.181468064790129,399.3326407887786,0.6188228441901759,66.58858085046221,3.15761446953,47.8554077148,61.1083831787,0.2538594331431262,1.0
144.0,14.4,0.0,1.0,0.30000001192092896,0.4914548670011543,0.0,1.9406508073431032,0.5607497854642304,0.5500747552848052,20.576279497361213,2.030856260649533,399.4496324141913,0.6138444948214808,69.07775790861336,3.15761446953,47.8554077148,61.1083831787,0.2538594331431262,1.0
145.0,14.5,0.0,1.0,0.3499999940395355,0.4843821233530734,0.0,0.16965594790129343,0.5508372962655247,0.5499043508265794,20.613420443277164,1.95003446837864,399.56601234570047,0.608437953569158,71.57275501140975,3.15761446953,47.8554077148,61.1083831787,0.2538594331431262,1.0
146.0,14.6,0.0,1.0,0.44999998807907104,0.4826630165893732,0.0,-1.340752321918283,0.5418579314820507,0.549221633282767,20.63480004407257,2.105841753936419,399.6803182760677,0.6015795906615274,74.0874854794891,2.97441768646,47.2648200989,71.2376022339,0.2538594331431262,1.0
147.0,14.7,0.0,1.0,0.4749999940395355,0.4822798654618813,0.0,-2.6362102458937695,0.5338275349079481,0.5482813849544454,20.65617964486798,2.261649039494195,399.79462420643495,0.594721227753897,76.6022159475684,2.97441768646,47.2648200989,71.2376022339,0.2538594331431262,1.0
148.0,14.8,0.0,1.0,0.2750000059604645,0.4719158724868104,0.0,-3.812008310187587,0.5262611581774519,0.5471173157191408,20.67755924566339,2.417456325051971,399.9089301368022,0.5878628648462665,79.1169464156477,2.97441768646,47.2648200989,71.2376022339,0.2538594331431262,1.0
149.0,14.9,0.0,1.0,0.44999998807907104,0.47082007826642336,0.0,-4.832853191682186,0.5193856002834804,0.5457614499356672,20.6989388464588,2.573263610609747,400.0232360671694,0.5810045019386361,81.63167688372701,2.612812539370667,46.25204664528169,74.82458506424496,0.2538594331431262,1.0
150.0,15.0,0.0,1.0,0.9750000238418579,0.49602907554519504,0.0,-5.435921001426279,0.5145413203140098,0.5441192107647667,20.700557213452203,2.5125454141857224,400.1351049346705,0.5684700571547099,84.017739001618,1.8464344350551096,44.09052811818709,82.43148947395663,0.2538594331431262,1.0
151.0,15.1,0.0,1.0,1.0,0.5212276217679352,0.0,-5.602678783335386,0.5116892543132104,0.5420590835822133,20.69878455627248,2.4146714839216425,400.2465556026213,0.5549615977397124,86.38172165371371,1.83224773407,44.0842552185,82.5802001953,0.2538594331431262,1.0
152.0,15.2,0.0,1.0,1.0,0.5451662406795384,0.0,-5.34574951463141,0.5108547916124511,0.5397061294055862,20.69701189909276,2.316797553657564,400.35800627057193,0.5414531383247153,88.74570430580937,1.83224773407,44.0842552185,82.5802001953,0.2538594331431262,1.0
153.0,15.3,0.0,1.0,1.0,0.5679079286455615,0.0,-4.740752199412993,0.5118120520169274,0.5372833229675927,20.662239298278937,1.597116392759562,400.502459598385,0.5231792625499945,90.68207561508731,1.93743526936,40.6117286682,89.2690734863,0.2538594331431262,1.0
154.0,15.4,0.0,1.0,1.0,0.5895125322132835,0.0,-3.8426509975047156,0.5142839494011798,0.5348358235082314,20.62348897766965,0.8024843483789115,400.6508909734,0.50433097697634,92.56690386350589,1.93743526936,40.6117286682,89.2690734863,0.2538594331431262,1.0
155.0,15.5,0.0,1.0,1.0,0.6100369056026194,0.0,-2.676964095563095,0.5181947519162196,0.5324481990317724,20.58473865706037,0.0078523039982609,400.7993223484151,0.4854826914026854,94.4517321119244,1.93743526936,40.6117286682,89.2690734863,0.2538594331431262,1.0
156.0,15.6,0.0,1.0,1.0,0.6295350603224884,0.0,-1.3981784532929793,0.5229725143353098,0.5303882891124696,20.545988336451085,-0.786779740382404,400.94775372343,0.4666344058290306,96.336560360343,1.93743526936,40.6117286682,89.2690734863,0.2538594331431262,1.0
157.0,15.7,0.0,1.0,1.0,0.648058307306364,0.0,-0.04791343316648079,0.5284488886334454,0.5287022080125312,20.48876616269238,-0.0798954353571184,401.096231154054,0.4529587670003593,97.9388321419825,1.577424433224914,32.56080742207123,96.17292341428016,0.2538594331431262,1.0
158.0,15.8,0.0,1.0,0.949999988079071,0.6631553913449993,0.0,1.5195705911606707,0.5350889441868719,0.5270795976292892,20.421510360398628,1.4425896200297468,401.2447336013815,0.4420928308886999,99.38762356597178,1.52203392982,31.2452049255,97.2432937622,0.2538594331431262,1.0
159.0,15.9,0.0,1.0,0.925000011920929,0.6762476223737958,0.0,3.263296313003067,0.5427094969775283,0.5255589511035099,20.35425455810488,2.965074675416612,401.39323604870896,0.4312268947770404,100.83641498996106,1.52203392982,31.2452049255,97.2432937622,0.2538594331431262,1.0
160.0,16.0,0.0,1.0,0.9750000238418579,0.6911852424471989,0.0,5.202859679143316,0.5514490221882565,0.5241768368940853,20.271225519217253,2.8487593726084457,401.5521720678592,0.417743823422336,101.73537084851272,1.06625306606,22.4845790863,101.232681274,0.2538594331431262,1.0
161.0,16.1,0.0,1.0,1.0,0.706625980324839,0.0,7.376802544232495,0.5615015711086461,0.5229263284100332,20.18618881444923,2.5238525391813424,401.712436103998,0.4039276350754037,102.56434195168536,1.06625306606,22.4845790863,101.232681274,0.2538594331431262,1.0
162.0,16.2,0.0,1.0,1.0,0.7212946813085971,0.0,9.704156768455194,0.5725514925681149,0.5219050120193338,20.10115210968121,2.1989457057542507,401.8727001401367,0.3901114467284718,103.39331305485798,1.06625306606,22.4845790863,101.232681274,0.2538594331431262,1.0
163.0,16.3,0.0,1.0,1.0,0.7352299472431673,0.0,12.097755200584414,0.584236418014215,0.5211847614332683,20.01399062674277,1.9221399458460515,402.0182095729452,0.3781987654390401,104.12008198142608,1.06625306606,22.4845790863,101.232681274,0.2538594331431262,1.0
164.0,16.400000000000002,0.0,1.0,1.0,0.7484684498810089,0.0,14.714024355803089,0.5970870971582076,0.520500523376506,19.921029921814178,1.776617915780682,402.1234488160088,0.37148138412961,104.56790738426116,0.425827622414,11.1351985931,104.84526062,0.2538594331431262,1.0
165.0,16.5,0.0,1.0,1.0,0.7610450273869585,0.0,17.490198217387118,0.6109202423599019,0.5199754972151313,19.828069216885584,1.631095885715318,402.2286880590725,0.3647640028201801,105.0157327870962,0.425827622414,11.1351985931,104.84526062,0.2538594331431262,1.0
166.0,16.6,0.0,1.0,1.0,0.7729927760176105,0.0,20.3491852405955,0.6254367303313138,0.5196850556827409,19.73510851195699,1.4855738556499485,402.33392730213615,0.35804662151075,105.46355818993128,0.425827622414,11.1351985931,104.84526062,0.2538594331431262,1.0
167.0,16.7,0.0,1.0,1.0,0.78434313721673,0.0,23.266489471879897,0.6405398939190562,0.5196383028861863,19.6421478070284,1.340051825584584,402.4391665451998,0.3513292402013201,105.91138359276634,0.425827622414,11.1351985931,104.84526062,0.2538594331431262,1.0
168.0,16.8,0.0,1.0,0.8500000238418579,0.7876259815479864,0.0,26.28469252545116,0.656325399372115,0.5197188877344263,19.55599721768181,1.3286984254831518,402.499194588702,0.3482955930024841,106.0,-0.3374237779797698,2.699537841755456,106.34015876720484,0.2538594331431262,1.0
169.0,16.900000000000002,0.0,1.0,0.4000000059604645,0.7682446827686101,0.0,29.059825586674666,0.6711966295972244,0.5200662766636537,19.471526675280355,1.350444257573716,402.5480690861601,0.3461707183736066,106.0,-0.571057677269,0.037926170975,106.889518738,0.2538594331431262,1.0
170.0,17.0,0.0,1.0,0.625,0.7610824486301796,0.0,31.36685645695786,0.6844492982514736,0.5210212961712548,19.3870561328789,1.3721900896642796,402.5969435836183,0.3440458437447291,106.0,-0.571057677269,0.037926170975,106.889518738,0.2538594331431262,1.0
171.0,17.1,0.0,1.0,0.3499999940395355,0.7405283259006474,0.0,33.064094355647384,0.6954143334581092,0.5226160647059596,19.302585590477445,1.3939359217548437,402.64581808107647,0.3419209691158514,106.0,-0.571057677269,0.037926170975,106.889518738,0.2538594331431262,1.0
172.0,17.2,0.0,1.0,0.2750000059604645,0.7172519099036382,0.0,34.18774984883048,0.7040186169193142,0.5246519281472624,19.22107063481614,1.3836107266443516,402.6895647295069,0.340000003576,105.95627155370398,-0.571057677269,0.037926170975,106.889518738,0.2538594331431262,1.0
173.0,17.3,0.0,1.0,0.17499999701976776,0.6901393142594446,0.0,34.72225048622374,0.7101301862000083,0.5271068317498333,19.16739936334264,1.0711541337862989,402.6850034711005,0.340000003576,105.50059070819364,-2.17039203644,-7.89346504211,106.183937073,0.2538594331431262,1.0
174.0,17.400000000000002,0.0,1.0,0.32499998807907104,0.6718823479504259,0.0,34.76881991133253,0.7142486769868654,0.5299806568439094,19.11372809186913,0.7586975409282459,402.68044221269406,0.340000003576,105.0449098626833,-2.17039203644,-7.89346504211,106.183937073,0.2538594331431262,1.0
175.0,17.5,0.0,1.0,0.3499999940395355,0.6557882302548814,0.0,34.355174808265936,0.7165362432194786,0.5333149573449814,19.060056820395623,0.4462409480702043,402.67588095428766,0.340000003576,104.58922901717295,-2.17039203644,-7.89346504211,106.183937073,0.2538594331431262,1.0
176.0,17.6,0.0,1.0,0.3499999940395355,0.6404988184441142,0.0,33.544798161310474,0.7170844311255599,0.5369617094777323,19.006385548922125,0.1337843552121516,402.67131969588127,0.340000003576,104.13354817166262,-2.17039203644,-7.89346504211,106.183937073,0.2538594331431262,1.0
177.0,17.7,0.0,1.0,0.32499998807907104,0.624723876925862,0.0,32.39625908458193,0.7159177096065348,0.5407386240038456,18.969862954484785,-0.0056143205499131,402.6232382576509,0.3419477748246168,103.61044537879737,-3.889022734126097,-10.925918663922491,104.51897094135973,0.2538594331431262,1.0
178.0,17.8,0.0,1.0,0.30000001192092896,0.6084876836756152,0.0,30.921159813040894,0.7131843242230655,0.54474335947032,18.94044977380935,-0.0732675004457731,402.5571144383838,0.3447030434498979,103.0593911282558,-4.10079240799,-11.3176088333,104.313148499,0.2538594331431262,1.0
179.0,17.900000000000002,0.0,1.0,0.30000001192092896,0.5930633000878809,0.0,29.161718964254774,0.7090251081087698,0.5489436915166722,18.91103659313391,-0.1409206803416331,402.4909906191167,0.3474583120751788,102.50833687771429,-4.10079240799,-11.3176088333,104.313148499,0.2538594331431262,1.0
180.0,18.0,0.0,1.0,0.30000001192092896,0.5784101356795333,0.0,27.109246479951192,0.7033863527703865,0.5533715069905091,18.883427653328585,-0.2225190598089716,402.4215072225506,0.350282854571101,101.94342800842294,-4.10079240799,-11.3176088333,104.313148499,0.2538594331431262,1.0
181.0,18.1,0.0,1.0,0.375,0.5682396288955566,0.0,24.797451333584874,0.6964670351989224,0.5580779316856871,18.87728918583592,-0.4700653602296183,402.3120448450308,0.3539317563564233,101.21364913025536,-5.61113023758,-13.1061553955,102.590553284,0.2538594331431262,1.0
182.0,18.2,0.0,1.0,0.44999998807907104,0.5623276468547322,0.0,22.302065873492893,0.6885186834762291,0.562965701812773,18.871150718343245,-0.7176116606502563,402.2025824675111,0.3575806581417455,100.4838702520878,-5.61113023758,-13.1061553955,102.590553284,0.2538594331431262,1.0
183.0,18.3,0.0,1.0,0.44999998807907104,0.5567112639159492,0.0,19.64557510424952,0.6795927493098682,0.568004916786706,18.86956809245884,-0.9319295307818384,402.08347826985846,0.3616325045138973,99.75512623514152,-5.812772414723908,-13.223804223999435,102.03300265055118,0.2538594331431262,1.0
184.0,18.4,0.0,1.0,0.4749999940395355,0.5526257004221284,0.0,16.859556116234266,0.6698006118369242,0.5731671710020082,18.87694991919493,-1.0808643795986763,401.94540202550417,0.3664772181470101,99.0284184971498,-6.26344013214,-13.4746875763,100.782531738,0.2538594331431262,1.0
185.0,18.5,0.0,1.0,0.625,0.556244415401022,0.0,14.072083649413635,0.6595605812376274,0.5781963124866771,18.884331745931025,-1.229799228415509,401.8073257811499,0.3713219317801227,98.30171075915806,-6.26344013214,-13.4746875763,100.782531738,0.2538594331431262,1.0
186.0,18.6,0.0,1.0,0.20000000298023224,0.5384321947799825,0.0,11.073861028620678,0.647832552175746,0.5832448302205119,18.89171357266712,-1.3787340772323473,401.6692495367956,0.3761666454132355,97.5750030211663,-6.26344013214,-13.4746875763,100.782531738,0.2538594331431262,1.0
187.0,18.7,0.0,1.0,0.2750000059604645,0.5252605853390065,0.0,7.911483524350078,0.6348784245818598,0.5883325887541898,18.899480324657173,-1.5171994221921017,401.5326176210187,0.3808555991689009,96.82887930440896,-6.26344013214,-13.4746875763,100.782531738,0.2538594331431262,1.0
188.0,18.8,0.0,1.0,0.2750000059604645,0.5127475563700794,0.0,4.700420371508858,0.6211345033229645,0.5932492927143853,18.908706050294075,-1.615982439048245,401.401460111792,0.3849541797180973,96.00916363426516,-6.39983272552,-12.910607338,97.3466796875,0.2538594331431262,1.0
189.0,18.9,0.0,1.0,0.22499999403953552,0.49836017825355217,0.0,1.6504472464502755,0.6076402780972116,0.5977743281581389,18.917931775930978,-1.7147654559043877,401.2703026025652,0.3890527602672938,95.18944796412136,-6.39983272552,-12.910607338,97.3466796875,0.2538594331431262,1.0
190.0,19.0,0.0,1.0,0.22499999403953552,0.4846921690428513,0.0,-1.3740681320682544,0.5938207641178451,0.6020939451431699,18.92715750156788,-1.8135484727605276,401.1391450933385,0.3931513408164901,94.36973229397758,-6.39983272552,-12.910607338,97.3466796875,0.2538594331431262,1.0
191.0,19.1,0.0,1.0,0.25,0.4729575605907087,0.0,-4.222340499252122,0.5804422258523483,0.6060309145973816,18.936383227204782,-1.9123314896166703,401.0079875841118,0.3972499213656866,93.55001662383376,-6.39983272552,-12.910607338,97.3466796875,0.2538594331431262,1.0
192.0,19.200000000000003,0.0,1.0,0.125,0.45555968256117324,0.0,-6.895191601186573,0.567357614485225,0.6093752022505163,18.9427443190499,-1.9938455683323213,400.8838173363341,0.4016074286645536,92.83925757625262,-6.39983272552,-12.910607338,97.3466796875,0.2538594331431262,1.0
193.0,19.3,0.0,1.0,0.20000000298023224,0.4427816985821261,0.0,-9.32314838415168,0.5549897337013591,0.612052275538379,18.94326335758325,-2.0401418619531397,400.7738967123672,0.4064929838694942,92.35070158984716,-5.84272432327,-10.7542676926,93.7147521973,0.2538594331431262,1.0
194.0,19.4,0.0,1.0,0.22499999403953552,0.43189261335499657,0.0,-11.593854452372629,0.5429902469715876,0.614199661808647,18.9437823961166,-2.086438155573959,400.6639760884003,0.4113785390744349,91.86214560344166,-5.84272432327,-10.7542676926,93.7147521973,0.2538594331431262,1.0
195.0,19.5,0.0,1.0,0.20000000298023224,0.4202979828362583,0.0,-13.750566373482652,0.5312157346006564,0.6159063454271013,18.94430143464995,-2.132734449194777,400.5540554644334,0.4162640942793754,91.3735896170362,-5.84272432327,-10.7542676926,93.7147521973,0.2538594331431262,1.0
196.0,19.6,0.0,1.0,0.25,0.4117830836944454,0.0,-15.783425730308334,0.519779947863173,0.6171943615263324,18.940049286930865,-2.128987831923209,400.449738429221,0.4204824198639662,90.8070272002922,-5.84272432327,-10.7542676926,93.7147521973,0.2538594331431262,1.0
197.0,19.700000000000003,0.0,1.0,0.375,0.4099439295097231,0.0,-17.636641855742315,0.5090409504923661,0.6180429768305362,18.92029290388945,-1.9626239899951792,400.3636305675983,0.4225325456549195,89.98697854582147,-4.8633928299,-7.41396617889,91.5333862305,0.2538594331431262,1.0
198.0,19.8,0.0,1.0,0.5249999761581421,0.41569673184214406,0.0,-19.22817778366392,0.4994014029006925,0.6182866613595956,18.90053652084804,-1.7962601480671552,400.2775227059755,0.4245826714458728,89.16692989135076,-4.8633928299,-7.41396617889,91.5333862305,0.2538594331431262,1.0
199.0,19.9,0.0,1.0,0.375,0.4136618952500368,0.0,-20.633809559297838,0.4904313326588003,0.6179348283388029,18.880780137806624,-1.6298963061391254,400.1914148443527,0.4266327972368262,88.34688123688002,-4.8633928299,-7.41396617889,91.5333862305,0.2538594331431262,1.0
200.0,20.0,0.0,1.0,0.25,0.405478800487535,0.0,-21.91713229207579,0.4817847658992004,0.6170172536456504,18.86102375476521,-1.4635324642111014,400.10530698273,0.4286829230277794,87.52683258240931,-4.8633928299,-7.41396617889,91.5333862305,0.2538594331431262,1.0
201.0,20.1,0.0,1.0,0.25,0.3977048604631582,0.0,-23.125565177011712,0.47325802747758045,0.6156247243538223,18.83757575827131,-1.365511724093343,400.0328331349512,0.430000007153,86.91421885606307,-4.540472532495759,-6.120514876569979,90.47021887722752,0.2538594331431262,1.0
202.0,20.200000000000003,0.0,1.0,0.3499999940395355,0.3953196171419771,0.0,-24.262839805005367,0.4649076259919427,0.6138434881833182,18.807494898050816,-1.3902856608274916,399.984856043682,0.430000007153,86.67431143499337,-3.73070573807,-2.76259565353,87.7983551025,0.2538594331431262,1.0
203.0,20.3,0.0,1.0,0.42500001192092896,0.3968036368809247,0.0,-25.303663893103806,0.4569122446401915,0.6116929804780719,18.77741403783032,-1.4150595975616391,399.9368789524128,0.430000007153,86.43440401392368,-3.73070573807,-2.76259565353,87.7983551025,0.2538594331431262,1.0
204.0,20.4,0.0,1.0,0.3499999940395355,0.39446345473885525,0.0,-26.297616395392104,0.4490041323560278,0.6092124981531207,18.74733317760983,-1.439833534295788,399.88890186114367,0.430000007153,86.194496592854,-3.73070573807,-2.76259565353,87.7983551025,0.2538594331431262,1.0
205.0,20.5,0.0,1.0,0.22499999403953552,0.3859902817038892,0.0,-27.4440712689513,0.44049142567117117,0.6071060399543513,18.71661658826384,-1.356581242895213,399.8428286149847,0.430000007153,86.0,-3.73070573807,-2.76259565353,87.7983551025,0.2538594331431262,1.0
206.0,20.6,0.0,1.0,0.17499999701976776,0.37544076746968313,0.0,-28.543544886504588,0.4323418543056562,0.6050424046630368,18.683177142855836,-0.8106478215386628,399.8049096219367,0.430000007153,86.0,-2.99240851402,0.17642621696,86.6453781128,0.2538594331431262,1.0
207.0,20.700000000000003,0.0,1.0,0.20000000298023224,0.36666872924521055,0.0,-29.626104594687966,0.4244122615009664,0.603081951136288,18.64973769744783,-0.2647144001821122,399.7669906288888,0.430000007153,86.0,-2.99240851402,0.17642621696,86.6453781128,0.2538594331431262,1.0
208.0,20.8,0.0,1.0,0.22499999403953552,0.35958529248492677,0.0,-30.684268646543124,0.41675414830670876,0.6012403536241772,18.616298252039822,0.2812190211744187,399.7290716358408,0.430000007153,86.0,-2.99240851402,0.17642621696,86.6453781128,0.2538594331431262,1.0
209.0,20.9,0.0,1.0,0.25,0.3541060278606804,0.0,-31.67562318287454,0.40954144078706517,0.5994075026593054,18.58380758364496,0.5337303394065169,399.6911146650922,0.4309852711922785,86.09852649789258,-2.99240851402,0.17642621696,86.6453781128,0.2538594331431262,1.0
210.0,21.0,0.0,1.0,0.30000001192092896,0.3514007270636928,0.0,-32.5846200142178,0.4028768686881073,0.5976037942277762,18.554442946332998,-0.1805256671060793,399.6530325653927,0.4352167837904683,86.52167816127128,-2.9607436657,2.62198781967,86.8748321533,0.2538594331431262,1.0
211.0,21.1,0.0,1.0,0.17499999701976776,0.34258069056149654,0.0,-33.480078300791696,0.39635802518664665,0.5958486045412227,18.525078309021023,-0.8947816736187011,399.6149504656932,0.4394482963886582,86.94482982465001,-2.9607436657,2.62198781967,86.8748321533,0.2538594331431262,1.0
212.0,21.200000000000003,0.0,1.0,0.20000000298023224,0.3354516561824333,0.0,-34.29258853205558,0.39035262386770964,0.5940770076723301,18.51245405172809,-0.7873735671786366,399.5714579454082,0.439999997616,86.78595014281726,-3.067211781216797,2.5279714976915835,87.11275194221781,0.2538594331431262,1.0
213.0,21.3,0.0,1.0,0.15000000596046448,0.3261790736713348,0.0,-35.08094310323138,0.3845224926221701,0.5923106573060982,18.502339620964808,-0.5567762388208597,399.52715425971934,0.439999997616,86.53980854042834,-3.09991765022,2.50262880325,87.1900787354,0.2538594331431262,1.0
214.0,21.4,0.0,1.0,0.07500000298023224,0.31362012013677965,0.0,-35.88416943611226,0.37860886796125925,0.5905076244532109,18.492225190201527,-0.3261789104630747,399.4828505740304,0.439999997616,86.29366693803942,-3.09991765022,2.50262880325,87.1900787354,0.2538594331431262,1.0
215.0,21.5,0.0,1.0,0.15000000596046448,0.3054391144279639,0.0,-36.65733202555131,0.37286592454084455,0.5886489099121182,18.48211075943825,-0.0955815821052977,399.43854688834153,0.439999997616,86.0475253356505,-3.09991765022,2.50262880325,87.1900787354,0.2538594331431262,1.0
216.0,21.6,0.0,1.0,0.10000000149011612,0.29516715878107147,0.0,-37.431395542247074,0.3670351282951758,0.5866122977746808,18.479269482284558,-0.2783583414539576,399.3892471460188,0.4425465325273164,86.0,-3.116585369728502,2.1363375716551456,87.00674013840062,0.2538594331431262,1.0
217.0,21.700000000000003,0.0,1.0,0.17499999701976776,0.28915880069300626,0.0,-38.23525988889559,0.36099587185434,0.5844691829107821,18.478168541268527,-0.5600481585802144,399.338751936314,0.4457024078939411,86.0,-3.130007267,1.8374209404,86.8377990723,0.2538594331431262,1.0
218.0,21.8,0.0,1.0,0.17499999701976776,0.2834508605093443,0.0,-39.16769795228459,0.3543835782877,0.58255822377021,18.477067600252497,-0.8417379757064611,399.2882567266091,0.4488582832605658,86.0,-3.130007267,1.8374209404,86.8377990723,0.2538594331431262,1.0
219.0,21.9,0.0,1.0,0.125,0.27552831748387707,0.0,-40.16467228446655,0.347476899399392,0.5807219792483661,18.47552589728524,-0.9448570346202468,399.2431285456335,0.449999988079,86.0,-2.926322534061452,0.7203681167913092,86.70909816973544,0.2538594331431262,1.0
220.0,22.0,0.0,1.0,0.02500000037252903,0.26300190162830966,0.0,-41.20423117602928,0.34035305445643077,0.5788733802859478,18.47373435447996,-0.9467557200826492,399.2010425909313,0.449999988079,86.0,-2.82009553909,0.127743080258,86.6416473389,0.2538594331431262,1.0
221.0,22.1,0.0,1.0,0.02500000037252903,0.2511018065655206,0.0,-42.29128146554182,0.33302290176154886,0.5770755445950496,18.471942811674687,-0.9486544055450516,399.15895663622905,0.449999988079,86.0,-2.82009553909,0.127743080258,86.6416473389,0.2538594331431262,0.0
222.0,22.200000000000003,0.0,1.0,0.02500000037252903,0.23979671625587104,0.0,-43.46739170106564,0.32524675671724357,0.5753259340120955,18.47015126886941,-0.9505530910074542,399.1168706815269,0.449999988079,86.0,-2.82009553909,0.127743080258,86.6416473389,0.2538594331431262,0.0
223.0,22.3,0.0,1.0,0.05000000074505806,0.23030688048033038,0.0,-44.7467382326601,0.31692191889721383,0.5735804706547583,18.467222233500348,-0.7503331802204427,399.08558872426704,0.449999988079,86.0,-2.5808426555890653,1.3796751844096995,86.35395126028162,0.2538594331431262,0.0
224.0,22.4,0.0,1.0,0.05000000074505806,0.22129153649356675,0.0,-46.10441365426432,0.3082633229849494,0.5719639471170532,18.464070701766605,-0.5105783710690143,399.056420055684,0.449999988079,86.0,-2.49452257156,1.84248733521,86.2501525879,0.2538594331431262,0.0
225.0,22.5,0.0,1.0,0.0,0.2102269596688884,0.0,-47.490354035046394,0.29947515688319937,0.5703240830895668,18.46091917003286,-0.2708235619175944,399.0272513871009,0.449999988079,86.0,-2.49452257156,1.84248733521,86.2501525879,0.2538594331431262,0.0
226.0,22.6,0.0,1.0,0.125,0.20596561168544397,0.0,-48.81575416344024,0.2910013990939874,0.5685370456042387,18.45674364924929,-0.2249406555603649,399.0080556744742,0.452387243645554,86.0,-2.367133300097692,2.1284545808966056,86.11569663101214,0.2538594331431262,0.0
227.0,22.700000000000003,0.0,1.0,0.07500000298023224,0.19941733125018338,0.0,-50.117588331551886,0.28263882919423605,0.5666101933339608,18.452228655708357,-0.2433301449181718,398.992166195306,0.4555659219620531,86.0,-2.2578420639,2.32166194916,86.0001602173,0.2538594331431262,0.0
228.0,22.8,0.0,1.0,0.07500000298023224,0.19319646483668582,0.0,-51.425372552608856,0.274319387811824,0.5647380170005961,18.447713662167416,-0.2617196342759779,398.9762767161377,0.4587446002785521,86.0,-2.2578420639,2.32166194916,86.0001602173,0.2538594331431262,0.0
229.0,22.9,0.0,1.0,0.10000000149011612,0.18853664166935732,0.0,-52.728441689352884,0.26604091850225786,0.562792782827167,18.446890474227487,-0.23231343684366,398.9684832804588,0.4584835457049142,85.84835404331712,-2.0617849016014165,2.6267356701230407,86.02761673695152,0.2538594331431262,0.0
230.0,23.0,0.0,1.0,0.07500000298023224,0.18285980973490107,0.0,-54.02890707349746,0.2576138726358183,0.5603823103524753,18.4484770997452,-0.1717087686108218,398.9659745094298,0.4559772172720313,85.59772170796032,-1.88288104534,2.90752267838,86.0526885986,0.2538594331431262,0.0
231.0,23.1,0.0,1.0,0.05000000074505806,0.17621681928540892,0.0,-55.2756539651304,0.24929567907201391,0.5574048614990347,18.45006372526292,-0.1111041003779814,398.9634657384009,0.4534708888391482,85.3470893726035,-1.88288104534,2.90752267838,86.0526885986,0.2538594331431262,0.0
