step,t_sec,is_boundary,learn,anomaly,mwl,spike,growth_pct,mr,mp,airspeed,climb,altitude,throttle,heading,pitch,roll,yaw,thr,elev
0.0,0.0,0.0,1.0,1.0,1.0,0.0,nan,nan,nan,17.5415992737,-0.502018928528,392.649993896,0.460000008345,289.0,-2.08845806122,9.60470294952,-70.8663330078,0.39066892071997816,1.0
1.0,0.1,0.0,1.0,1.0,1.0,0.0,nan,nan,nan,17.53673314695445,-0.4788283515892507,392.58196728851067,0.4648590682919988,289.2429532290544,-2.08845806122,9.60470294952,-70.8663330078,0.39066892071997816,1.0
2.0,0.2,0.0,1.0,1.0,1.0,0.0,nan,nan,nan,17.5318670202089,-0.4556377746505014,392.51394068102127,0.4697181282389978,289.4859064581089,-2.08845806122,9.60470294952,-70.8663330078,0.39066892071997816,1.0
3.0,0.3,0.0,1.0,1.0,1.0,0.0,nan,nan,nan,17.52700089346335,-0.4324471977117521,392.4459140735319,0.4745771881859966,289.7288596871633,-2.08845806122,9.60470294952,-70.8663330078,0.39066892071997816,1.0
4.0,0.4,0.0,1.0,1.0,1.0,0.0,nan,nan,nan,17.522134766717798,-0.4092566207730028,392.3778874660426,0.4794362481329955,289.97181291621774,-2.12212872505,20.9942474365,-69.9898223877,0.39066892071997816,1.0
5.0,0.5,0.0,1.0,1.0,1.0,0.0,nan,nan,nan,17.541572568388546,-0.6207090336014,392.2775923891247,0.4879200852997286,290.5280063809358,-2.12212872505,20.9942474365,-69.9898223877,0.39066892071997816,1.0
6.0,0.6000000000000001,0.0,1.0,1.0,1.0,0.0,nan,nan,nan,17.564200150579126,-0.8629572760197024,392.17306222175466,0.4968796580580986,291.1253112077609,-2.12212872505,20.9942474365,-69.9898223877,0.39066892071997816,1.0
7.0,0.7000000000000001,0.0,1.0,1.0,1.0,0.0,nan,nan,nan,17.586827732769702,-1.1052055184380047,392.0685320543846,0.5058392308164685,291.72261603458594,-2.08435511589,29.6260986328,-67.1983413696,0.39066892071997816,1.0
8.0,0.8,0.0,1.0,1.0,1.0,0.0,nan,nan,nan,17.624902858566323,-1.31279768351378,391.9629767306488,0.515701220157406,292.7981719669167,-2.08435511589,29.6260986328,-67.1983413696,0.39066892071997816,1.0
9.0,0.9,0.0,1.0,1.0,1.0,0.0,nan,nan,nan,17.676371612032142,-1.490341666934359,391.856532556037,0.5263456401564254,294.2883904114815,-2.08435511589,29.6260986328,-67.1983413696,0.39066892071997816,1.0
10.0,1.0,0.0,1.0,1.0,1.0,0.0,nan,nan,nan,17.727840365497965,-1.667885650354938,391.75008838142526,0.5369900601554447,295.77860885604633,-2.08435511589,29.6260986328,-67.1983413696,0.39066892071997816,1.0
11.0,1.1,0.0,1.0,1.0,1.0,0.0,nan,nan,nan,17.779309118963788,-1.8454296337755167,391.6436442068135,0.547634480154464,297.2688273006112,-2.1262492414000693,30.765890615721453,-66.26130735578487,0.39066892071997816,1.0
12.0,1.2000000000000002,0.0,1.0,0.7250000238418579,0.9862500011920928,0.0,nan,nan,nan,17.830777872429607,-2.0229736171960964,391.53720003220167,0.5582789001534835,298.759045745176,-2.38279891014,37.7430381775,-60.0749816895,0.39066892071997816,1.0
13.0,1.3,0.0,1.0,1.0,0.9869375011324882,0.0,nan,nan,nan,17.91070448461728,-2.1742092188429667,391.411131877096,0.5704672584150796,300.88410563638587,-2.38279891014,37.7430381775,-60.0749816895,0.39066892071997816,1.0
14.0,1.4,0.0,1.0,1.0,0.9875906260758638,0.0,nan,nan,nan,17.9961199615291,-2.3203705403031747,391.28127870867166,0.5829534067651204,303.1316118035428,-2.38279891014,37.7430381775,-60.0749816895,0.39066892071997816,1.0
15.0,1.5,0.0,1.0,1.0,0.9882110947720706,0.0,nan,nan,nan,18.08153543844092,-2.4665318617633822,391.1514255402474,0.5954395551151612,305.3791179706997,-1.9319932999393967,40.4712186285747,-55.29623954185424,0.39066892071997816,1.0
16.0,1.6,0.0,1.0,1.0,0.9888005400334671,0.0,nan,nan,nan,18.166950915352736,-2.6126931832235902,391.021572371823,0.607925703465202,307.62662413785665,-1.53769803047,42.7318611145,-51.1142807007,0.39066892071997816,1.0
17.0,1.7000000000000002,0.0,1.0,1.0,0.9893605130317937,0.0,nan,nan,nan,18.274677576315646,-2.374582047798472,390.9212496046644,0.6158329494222241,310.0415292379328,-1.53769803047,42.7318611145,-51.1142807007,0.39066892071997816,1.0
18.0,1.8,0.0,1.0,1.0,0.9898924873802041,0.0,nan,nan,nan,18.386849209732297,-2.059913770373312,390.8268100671843,0.6228279580475676,312.4897845915818,-0.6982105289084133,43.22586413397168,-47.81450989913918,0.39066892071997816,1.0
19.0,1.9,0.0,1.0,1.0,0.9903978630111939,0.0,nan,nan,nan,18.49902084314895,-1.7452454929481511,390.7323705297042,0.6298229666729112,314.9380399452307,0.00270518171601,43.6358757019,-44.7411575317,0.39066892071997816,1.0
20.0,2.0,0.0,1.0,1.0,0.9908779698606343,0.0,nan,nan,nan,18.600532355179187,-1.529458619704466,390.6765828083771,0.6341078315388097,317.4647041346741,0.00270518171601,43.6358757019,-44.7411575317,0.39066892071997816,1.0
21.0,2.1,0.0,1.0,1.0,0.9913340713676025,0.0,nan,nan,nan,18.701767077616253,-1.3162391978661552,390.6217986797934,0.6383223276385932,319.9934042061655,0.00270518171601,43.6358757019,-44.7411575317,0.39066892071997816,1.0
22.0,2.2,0.0,1.0,1.0,0.9917673677992224,0.0,nan,nan,nan,18.803001800053323,-1.1030197760278444,390.56701455120975,0.6425368237383768,322.5221042776569,0.00270518171601,43.6358757019,-44.7411575317,0.39066892071997816,1.0
23.0,2.3000000000000003,0.0,1.0,1.0,0.9921789994092612,0.0,nan,nan,nan,18.90423652249039,-0.8898003541895334,390.51223042262615,0.6467513198381604,325.05080434914834,0.970805381579499,44.3523075473855,-32.851695574000885,0.39066892071997816,1.0
24.0,2.4000000000000004,0.0,1.0,1.0,0.9925700494387982,0.0,nan,nan,nan,18.99813871474377,-0.7224761842785218,390.4677846640437,0.649999976158,327.5911058933111,0.977282762527,44.3569602966,-32.7706069946,0.39066892071997816,1.0
25.0,2.5,0.0,1.0,1.0,0.9929415469668583,0.0,nan,nan,nan,19.06737753009313,-0.7095232706776393,390.4581125933327,0.649999976158,330.1704296420838,0.977282762527,44.3569602966,-32.7706069946,0.39066892071997816,1.0
26.0,2.6,0.0,1.0,1.0,0.9932944696185154,0.0,nan,nan,nan,19.13661634544249,-0.6965703570767569,390.4484405226217,0.649999976158,332.7497533908564,1.3958772878987855,44.54630242486011,-26.754647389329328,0.39066892071997816,1.0
27.0,2.7,0.0,1.0,1.0,0.9936297461375897,0.0,nan,nan,nan,19.20226633932338,-0.6482838729099202,390.4441669571567,0.649999976158,335.3272490774225,1.52687120438,44.6056365967,-24.872625351,0.39066892071997816,1.0
28.0,2.8000000000000003,0.0,1.0,1.0,0.9939482588307103,0.0,nan,nan,nan,19.24337578520586,-0.3583845941119807,390.4768086515545,0.649999976158,337.8922443794704,1.52687120438,44.6056365967,-24.872625351,0.39066892071997816,1.0
29.0,2.9000000000000004,0.0,1.0,0.8999999761581421,0.9892508446970818,0.0,nan,nan,nan,19.284485231088336,-0.0684853153140412,390.5094503459524,0.649999976158,340.4572396815183,1.52687120438,44.6056365967,-24.872625351,0.39066892071997816,1.0
30.0,3.0,0.0,1.0,0.550000011920929,0.9672883030582741,0.0,nan,nan,nan,19.325594676970816,0.2214139634838969,390.5420920403502,0.649999976158,343.02223498356614,1.52687120438,44.6056365967,-24.872625351,0.39066892071997816,1.0
31.0,3.1,0.0,1.0,0.574999988079071,0.9476738873093138,0.0,nan,nan,nan,19.366704122853296,0.5113132422818364,390.57473373474807,0.649999976158,345.587230285614,2.61020588875,45.46534729,-13.0362138748,0.39066892071997816,1.0
32.0,3.2,0.0,1.0,0.6000000238418579,0.9302901941359409,0.0,nan,nan,nan,19.37712393496386,0.6681746850904133,390.6540068737745,0.649999976158,348.2616317491244,2.61020588875,45.46534729,-13.0362138748,0.39066892071997816,1.0
33.0,3.3000000000000003,0.0,1.0,0.5,0.9087756844291439,0.0,nan,nan,nan,19.3816578625095,0.7995211494140829,390.7422233355599,0.649999976158,350.95701593409194,2.61020588875,45.46534729,-13.0362138748,0.39066892071997816,1.0
34.0,3.4000000000000004,0.0,1.0,0.5,0.8883369002076867,0.0,nan,nan,nan,19.386191790055143,0.9308676137377524,390.8304397973453,0.649999976158,353.6524001190596,2.61020588875,45.46534729,-13.0362138748,0.39066892071997816,1.0
35.0,3.5,0.0,1.0,0.4000000059604645,0.8639200554953256,0.0,nan,nan,nan,19.390725717600784,1.0622140780614215,390.9186562591308,0.649999976158,356.3477843040272,4.24956417084,46.2776222229,-2.22648191452,0.39066892071997816,1.0
36.0,3.6,0.0,1.0,0.8500000238418579,0.8632240539126521,0.0,nan,nan,nan,19.37965093882652,1.3212281944307738,391.0387333082852,0.6457986775777341,283.26713959730534,4.24956417084,46.2776222229,-2.22648191452,0.39066892071997816,1.0
37.0,3.7,0.0,1.0,1.0,0.8700628512170195,0.0,nan,nan,nan,19.36359358357337,1.6209960944360369,391.1689808232023,0.6402562498188041,185.99743966197,4.24956417084,46.2776222229,-2.22648191452,0.39066892071997816,1.0
38.0,3.8,0.0,1.0,0.9750000238418579,0.8753097098482615,0.0,nan,nan,nan,19.347536228320216,1.9207639944413,391.2992283381194,0.634713822059874,88.7277397266347,4.64824914932,46.2603492737,7.29652023315,0.39066892071997816,1.0
39.0,3.9,0.0,1.0,1.0,0.8815442243558484,0.0,nan,nan,nan,19.32789937774507,2.1819578961090342,391.4356953999031,0.6292094735510817,6.434787339140021,4.64824914932,46.2603492737,7.29652023315,0.39066892071997816,1.0
40.0,4.0,0.0,1.0,1.0,0.887467013138056,0.0,nan,nan,nan,19.28789914059062,2.223708225597726,391.60754483428366,0.6239217540420368,9.343035842565904,4.64824914932,46.2603492737,7.29652023315,0.39066892071997816,1.0
41.0,4.1000000000000005,0.0,1.0,1.0,0.8930936624811532,0.0,nan,nan,nan,19.247898903436177,2.265458555086419,391.77939426866425,0.6186340345329918,12.251284345991817,4.64824914932,46.2603492737,7.29652023315,0.39066892071997816,1.0
42.0,4.2,0.0,1.0,1.0,0.8984389793570955,0.0,nan,nan,nan,19.20789866628173,2.30720888457511,391.9512437030448,0.6133463150239469,15.1595328494177,4.40372943878,46.4998550415,17.1704311371,0.39066892071997816,1.0
43.0,4.3,0.0,1.0,1.0,0.9035170303892407,0.0,nan,nan,nan,19.162541401590328,2.321332710462359,392.1255223921198,0.6075117538464098,17.995303155155195,4.40372943878,46.4998550415,17.1704311371,0.39066892071997816,1.0
44.0,4.4,0.0,1.0,0.949999988079071,0.9058411782737321,0.0,nan,nan,nan,19.10795056751669,2.287838480248052,392.3039882337929,0.6007346362880657,20.706147377829307,4.40372943878,46.4998550415,17.1704311371,0.39066892071997816,1.0
45.0,4.5,0.0,1.0,0.925000011920929,0.906799119956092,0.0,nan,nan,nan,19.053359733443056,2.254344250033745,392.4824540754659,0.5939575187297217,23.416991600503398,4.40372943878,46.4998550415,17.1704311371,0.39066892071997816,1.0
46.0,4.6000000000000005,0.0,1.0,1.0,0.9114591639582874,0.0,nan,nan,nan,18.998768899369423,2.2208500198194376,392.6609199171389,0.5871804011713776,26.127835823177502,4.260720388314297,46.58909947913588,21.14852864052363,0.39066892071997816,1.0
47.0,4.7,0.0,1.0,0.925000011920929,0.9121362063564195,0.0,nan,nan,nan,18.944178065295787,2.1873557896051303,392.839385758812,0.5804032836130336,28.8386800458516,3.97562861443,46.7573318481,29.0916957855,0.39066892071997816,1.0
48.0,4.800000000000001,0.0,1.0,0.9750000238418579,0.9152793972306914,0.0,nan,nan,nan,18.892347701093136,2.9034061256396138,392.9688047037697,0.5770299758266028,31.079007221619342,3.97562861443,46.7573318481,29.0916957855,0.39066892071997816,1.0
49.0,4.9,0.0,1.0,1.0,0.9195154273691568,0.0,nan,nan,nan,18.840692004328844,3.66688354309166,393.0951202293064,0.5738720425094852,33.289562651587275,3.7983114436406815,46.86922374157919,30.85284431853801,0.39066892071997816,1.0
50.0,5.0,0.0,1.0,1.0,0.923539656000699,0.0,nan,nan,nan,18.78903630756455,4.430360960543707,393.2214357548431,0.5707141091923676,35.5001180815552,3.23624992371,47.2212867737,36.4426727295,0.39066892071997816,1.0
51.0,5.1000000000000005,0.0,1.0,1.0,0.927362673200664,0.0,nan,nan,nan,18.753527059966583,3.3495963072823534,393.34844205235913,0.569999992847,37.78992833124983,3.23624992371,47.2212867737,36.4426727295,0.39066892071997816,1.0
52.0,5.2,0.0,1.0,1.0,0.9309945395406308,0.0,nan,nan,nan,18.72273602302131,1.7299191975090866,393.4756502027829,0.569999992847,40.10289791033376,2.86938561668504,47.65621469382384,40.15936450877874,0.39066892071997816,1.0
53.0,5.300000000000001,0.0,1.0,0.9750000238418579,0.9331948137556921,0.0,nan,nan,nan,18.695247381231795,0.4064718483178911,393.59655628171737,0.5689644106792079,42.414233262171095,2.6713411808,47.8910217285,42.1659164429,0.39066892071997816,1.0
54.0,5.4,0.0,1.0,0.9750000238418579,0.9352850742600004,0.0,nan,nan,nan,18.682823588006624,0.4343638370693335,393.68871360462873,0.5632047153154308,44.71811360489264,2.6713411808,47.8910217285,42.1659164429,0.39066892071997816,1.0
55.0,5.5,0.0,1.0,0.8500000238418579,0.9310208217390932,0.0,nan,nan,nan,18.67039979478145,0.4622558258207758,393.78087092754,0.5574450199516536,47.021993947614185,2.6713411808,47.8910217285,42.1659164429,0.39066892071997816,1.0
56.0,5.6000000000000005,0.0,1.0,0.875,0.9282197806521384,0.0,nan,nan,nan,18.65797600155628,0.4901478145722184,393.87302825045134,0.5516853245878764,49.32587429033575,1.58353853226,46.6065406799,50.4298324585,0.39066892071997816,1.0
57.0,5.7,0.0,1.0,0.925000011920929,0.9280587922155779,0.0,nan,nan,nan,18.66052419461923,0.602087026553357,393.9194296347522,0.5470100045164841,51.6445007398208,1.58353853226,46.6065406799,50.4298324585,0.39066892071997816,1.0
58.0,5.800000000000001,0.0,1.0,0.875,0.9254058526047989,0.0,nan,nan,nan,18.66926534500033,0.7487912226957887,393.9469047009672,0.5427832214510273,53.96922671464858,1.58353853226,46.6065406799,50.4298324585,0.39066892071997816,1.0
59.0,5.9,0.0,1.0,0.8999999761581421,0.924135558782466,0.0,nan,nan,nan,18.678006495381425,0.8954954188382191,393.9743797671821,0.5385564383855707,56.293952689476335,1.58353853226,46.6065406799,50.4298324585,0.39066892071997816,1.0
60.0,6.0,0.0,1.0,0.925000011920929,0.9241787814393891,0.0,nan,nan,nan,18.686747645762523,1.0421996149806496,394.001854833397,0.5343296553201139,58.61867866430409,0.7507979689007962,46.13170116390268,54.72404241999655,0.39066892071997816,1.0
61.0,6.1000000000000005,0.0,1.0,0.8999999761581421,0.9229698411753267,0.0,nan,nan,nan,18.695488796143614,1.1889038111230814,394.029329899612,0.5301028722546571,60.94340463913187,-0.6051171422,45.3644332886,61.7406959534,0.39066892071997816,1.0
62.0,6.2,0.0,1.0,0.925000011920929,0.9230713497126067,0.0,nan,nan,nan,18.73983864039541,0.7586175142736424,394.01405877030425,0.532656760938697,63.39109862207468,-0.6051171422,45.3644332886,61.7406959534,0.39066892071997816,1.0
63.0,6.300000000000001,0.0,1.0,0.925000011920929,0.9231677828230228,0.0,nan,nan,nan,18.785077007939133,0.3139339049557853,393.99772101972417,0.5353798438314957,65.84186095511679,-0.6051171422,45.3644332886,61.7406959534,0.39066892071997816,1.0
64.0,6.4,0.0,1.0,0.949999988079071,0.9245093930858251,0.0,nan,nan,nan,18.830315375482854,-0.130749704362068,393.9813832691441,0.5381029267242946,68.29262328815886,-1.7037038879724498,45.483415802565325,68.41127096379024,0.39066892071997816,1.0
65.0,6.5,0.0,1.0,0.9750000238418579,0.9270339246236268,0.0,nan,nan,nan,18.87873395224348,-0.438026869873003,393.9488726469252,0.5406815930804544,70.68157227246986,-2.06332063675,45.5217933655,70.5989151001,0.39066892071997816,1.0
66.0,6.6000000000000005,0.0,1.0,0.949999988079071,0.9281822277963989,0.0,nan,nan,nan,18.934456699277032,-0.4297147160292834,393.8792168558841,0.5429285696319823,72.92855096694146,-2.06332063675,45.5217933655,70.5989151001,0.39066892071997816,1.0
67.0,6.7,0.0,1.0,0.8500000238418579,0.9242731175986718,0.0,nan,nan,nan,18.990179446310588,-0.421402562185564,393.809561064843,0.5451755461835104,75.17552966141302,-2.06332063675,45.5217933655,70.5989151001,0.39066892071997816,1.0
68.0,6.800000000000001,0.0,1.0,0.8999999761581421,0.9230594605266452,0.0,nan,nan,nan,19.045902193344144,-0.4130904083418444,393.73990527380187,0.5474225227350384,77.42250835588462,-2.06332063675,45.5217933655,70.5989151001,0.39066892071997816,1.0
69.0,6.9,0.0,1.0,0.824999988079071,0.9181564869042665,0.0,nan,nan,nan,19.101624940377704,-0.404778254498125,393.6702494827608,0.5496694992865664,79.6694870503562,-2.2411403656,46.0820617676,80.5659713745,0.39066892071997816,1.0
70.0,7.0,0.0,1.0,0.925000011920929,0.9184986631550996,0.0,nan,nan,nan,19.176413865695256,-0.7449910728316316,393.5724783626797,0.5538899159940914,82.13944928059304,-2.2411403656,46.0820617676,80.5659713745,0.39066892071997816,1.0
71.0,7.1000000000000005,0.0,1.0,0.8999999761581421,0.9175737288052517,0.0,nan,nan,nan,19.25449093683023,-1.145310374617666,393.4698584837014,0.5584506714364278,84.64786716615623,-2.2411403656,46.0820617676,80.5659713745,0.39066892071997816,1.0
72.0,7.2,0.0,1.0,0.8999999761581421,0.9166950411728961,0.0,nan,nan,nan,19.332568007965204,-1.5456296764036968,393.3672386047232,0.5630114268787643,87.15628505171938,-2.2411403656,46.0820617676,80.5659713745,0.39066892071997816,1.0
73.0,7.300000000000001,0.0,1.0,0.8999999761581421,0.9158602879221583,0.0,nan,nan,nan,19.410645079100178,-1.9459489781897312,393.2646187257449,0.5675721823211006,89.66470293728257,-1.74443888664,45.1492195129,91.2755050659,0.39066892071997816,1.0
74.0,7.4,0.0,1.0,0.8999999761581421,0.9150672723339575,0.0,nan,nan,nan,19.495647900469194,-1.9594742004242969,393.1599554312088,0.569999992847,92.07220518539172,-1.74443888664,45.1492195129,91.2755050659,0.39066892071997816,1.0
75.0,7.5,0.0,1.0,0.8999999761581421,0.9143139075251666,0.0,nan,nan,nan,19.588533911501663,-1.532733604984014,393.05296623235046,0.569999992847,94.36484087274222,-1.74443888664,45.1492195129,91.2755050659,0.39066892071997816,1.0
76.0,7.6,0.0,1.0,0.925000011920929,0.9148482127449546,0.0,nan,nan,nan,19.681419922534133,-1.1059930095437278,392.9459770334921,0.569999992847,96.65747656009276,-1.6227298975,43.6796264648,97.850112915,0.39066892071997816,1.0
77.0,7.7,0.0,1.0,0.824999988079071,0.9103558015116604,0.0,nan,nan,nan,19.77212994042065,-1.3514386191566543,392.8496516996621,0.569999992847,99.41032736635816,-1.6227298975,43.6796264648,97.850112915,0.39066892071997816,1.0
78.0,7.800000000000001,0.0,1.0,0.6499999761581421,0.8973380102439844,0.0,nan,nan,nan,19.86245776048316,-1.7149489871007444,392.7551993983905,0.569999992847,102.24401170712127,-1.6227298975,43.6796264648,97.850112915,0.39066892071997816,1.0
79.0,7.9,0.0,1.0,0.6499999761581421,0.8849711085396923,0.0,-3.7330502539559465,0.9172062199820301,0.9527737425997767,19.952785580545665,-2.078459355044832,392.6607470971189,0.569999992847,105.0776960478844,-1.40063631535,43.1982688904,106.511901855,0.39066892071997816,1.0
80.0,8.0,0.0,1.0,0.8500000238418579,0.8832225543048005,0.0,-3.82041648258098,0.9151584086253006,0.9515100556237664,20.026978745493555,-2.009961001826508,392.5850338793612,0.5714505376278043,107.59560078044964,-1.40063631535,43.1982688904,106.511901855,0.39066892071997816,1.0
81.0,8.1,0.0,1.0,0.5249999761581421,0.8653114253974675,0.0,-3.9938628320729284,0.9122754878364077,0.9502262196433553,20.09338640826374,-1.7330042207394964,392.5183628862106,0.5736010180111724,109.96113145792457,-1.40063631535,43.1982688904,106.511901855,0.39066892071997816,1.0
82.0,8.200000000000001,0.0,1.0,0.5,0.8470458541275941,0.0,-4.264725757902701,0.908474213057157,0.9489440754718987,20.15979407103393,-1.45604743965248,392.45169189306,0.5757514983945404,112.32666213539947,-1.40063631535,43.1982688904,106.511901855,0.39066892071997816,1.0
83.0,8.3,0.0,1.0,0.574999988079071,0.8334435608251679,0.0,-4.6087598379001635,0.9039880019572643,0.9476635385189491,20.22620173380412,-1.1790906585654688,392.3850208999094,0.5779019787779085,114.69219281287438,-1.1885706349809588,43.31834020357845,108.4756129506271,0.39066892071997816,1.0
84.0,8.4,0.0,1.0,0.7250000238418579,0.8280213839760023,0.0,-4.991704627345382,0.8991636015017732,0.9464053617370461,20.292477761034235,-0.900942868016384,392.3191930711771,0.5800652972244756,117.06531397576558,-0.210449010134,43.8708610535,117.544143677,0.39066892071997816,1.0
85.0,8.5,0.0,1.0,1.0,0.8366203147772022,0.0,-5.3477479680218565,0.894642921009452,0.9451892604807733,20.353490949104582,-0.5751780643609254,392.287075277868,0.5827418863402355,119.74190564419094,-0.210449010134,43.8708610535,117.544143677,0.39066892071997816,1.0
86.0,8.6,0.0,1.0,0.875,0.838539299038342,0.0,-5.70253837615139,0.8901607745715491,0.9439922976107132,20.414504137174937,-0.249413260705467,392.254957484559,0.5854184754559955,122.4184973126163,-0.210449010134,43.8708610535,117.544143677,0.39066892071997816,1.0
87.0,8.700000000000001,0.0,1.0,0.925000011920929,0.8428623346824713,0.0,-6.008076171255,0.8860902354257391,0.9427301829040244,20.475517325245285,0.0763515429499973,392.22283969125,0.5880950645717554,125.0950889810417,0.2549204350855327,43.86733592821714,122.28559421143328,0.39066892071997816,1.0
88.0,8.8,0.0,1.0,0.875,0.8444692179483476,0.0,-6.297440466394046,0.8821607232968242,0.9414478405794685,20.52894086083369,0.0650129351548663,392.199981689,0.5887275652470929,127.69982535718736,0.804282188416,43.8631782532,127.914649963,0.39066892071997816,1.0
89.0,8.9,0.0,1.0,0.8500000238418579,0.844745758243023,0.0,-6.551926151863429,0.878490186863762,0.940083782027873,20.563629168769424,-0.778473016809327,392.199981689,0.584314187686952,130.1271853301167,0.804282188416,43.8631782532,127.914649963,0.39066892071997816,1.0
90.0,9.0,0.0,1.0,0.800000011920929,0.8425084709269183,0.0,-6.821456771025159,0.8746906772523529,0.9387254264137913,20.598317476705155,-1.6219589687735203,392.199981689,0.579900810126811,132.55454530304607,0.804282188416,43.8631782532,127.914649963,0.39066892071997816,1.0
91.0,9.1,0.0,1.0,0.5249999761581421,0.8266330461884794,0.0,-7.169989163715375,0.8701436431215144,0.9373516552272122,20.63300578464089,-2.4654449207377134,392.199981689,0.57548743256667,134.98190527597544,0.804282188416,43.8631782532,127.914649963,0.39066892071997816,1.0
92.0,9.2,0.0,1.0,0.7250000238418579,0.8215513950711483,0.0,-7.5631830200065036,0.8653864608164269,0.9361924058935589,20.667694092576625,-3.308930872701921,392.199981689,0.571074055006529,137.40926524890486,1.31132018566,40.695690155,138.765426636,0.39066892071997816,1.0
93.0,9.3,0.0,1.0,0.824999988079071,0.8217238247215444,0.0,-7.949468352657603,0.8606796376563962,0.9350077856733867,20.674333612474832,-1.8228618987263847,392.2170619840925,0.5657308351450621,139.49420662070312,1.31132018566,40.695690155,138.765426636,0.39066892071997816,1.0
94.0,9.4,0.0,1.0,0.75,0.8181376334854671,0.0,-8.34932379748816,0.8558331557139717,0.9337990631110217,20.67195148025649,0.4124884381409934,392.2396360096152,0.56008853948201,141.46901198614324,1.31132018566,40.695690155,138.765426636,0.39066892071997816,1.0
95.0,9.5,0.0,1.0,0.949999988079071,0.8247307512151473,0.0,-8.708586816591644,0.8513539978984708,0.9325674433235732,20.669569348038145,2.647838775008372,392.26221003513785,0.5544462438189579,143.44381735158333,1.389316082,37.21900177,145.905059814,0.39066892071997816,1.0
96.0,9.6,0.0,1.0,1.0,0.8334942136543899,0.0,-9.024530937494925,0.8472862979439425,0.9313349045354313,20.65945275946233,4.241347544680086,392.2976778265124,0.5483426374427204,145.44196607093136,1.389316082,37.21900177,145.905059814,0.39066892071997816,1.0
97.0,9.7,0.0,1.0,1.0,0.8418195029716704,0.0,-9.264192904288246,0.843859483016943,0.9300181593434291,20.6205842033296,3.4488828129508318,392.38107673551497,0.5405241606158486,147.5268910707583,1.389316082,37.21900177,145.905059814,0.39066892071997816,1.0
98.0,9.8,0.0,1.0,1.0,0.8497285278230869,0.0,-9.369829132815441,0.8414790088958981,0.9284755847244921,20.58171564719687,2.656418081221576,392.4644756445175,0.5327056837889769,149.61181607058523,1.389316082,37.21900177,145.905059814,0.39066892071997816,1.0
99.0,9.9,0.0,1.0,0.9750000238418579,0.8559921026240255,0.0,-9.354341815237271,0.8400300586001148,0.9267184721499672,20.542847091064143,1.8639533494923208,392.54787455352,0.5248872069621052,151.69674107041217,1.8097897565869812,32.32944696414063,151.57054602288264,0.39066892071997816,1.0
100.0,10.0,0.0,1.0,0.9750000238418579,0.8619424986849171,0.0,-9.293535404313637,0.8389660558191206,0.9249242152240366,20.4934325757404,1.4460156554470498,392.6489695274004,0.5154451672258897,153.45548146512445,1.92429351807,31.0213871002,153.399215698,0.39066892071997816,1.0
101.0,10.1,0.0,1.0,1.0,0.8688453737506713,0.0,-9.067937034950544,0.8391427532367808,0.922823837791201,20.426434956825435,1.6525207059671367,392.7795688579988,0.5032961878642884,154.67037965471235,1.92429351807,31.0213871002,153.399215698,0.39066892071997816,1.0
102.0,10.2,0.0,1.0,1.0,0.8754031050631377,0.0,-8.67559452082622,0.840560615783558,0.9204118125633405,20.35943733791047,1.85902575648722,392.9101681885972,0.4911472085026874,155.88527784430022,2.1665343157314343,29.51386048748315,154.76340971562985,0.39066892071997816,1.0
103.0,10.3,0.0,1.0,1.0,0.8816329498099807,0.0,-8.149802738542201,0.8429700852327986,0.9177662219202722,20.28938082659961,2.0250643001065085,393.0447606113776,0.4791683269069529,157.08316625375528,2.76062750816,25.9731369019,158.142089844,0.39066892071997816,1.0
104.0,10.4,0.0,1.0,1.0,0.8875513023194818,0.0,-7.549220821128173,0.8459465811499726,0.915023744162559,20.18528608285671,1.740806400002695,393.2237866991008,0.4690822308497075,158.09177606990102,2.76062750816,25.9731369019,158.142089844,0.39066892071997816,1.0
105.0,10.5,0.0,1.0,1.0,0.8931737372035077,0.0,-6.975323897299415,0.8487742522712879,0.9124183902927314,20.0811913391138,1.4565484998988818,393.402812786824,0.4589961347924622,159.10038588604678,2.76062750816,25.9731369019,158.142089844,0.39066892071997816,1.0
106.0,10.6,0.0,1.0,1.0,0.8985150503433323,0.0,-6.382018009903369,0.8517730398365374,0.9098391374497286,19.97709659537089,1.1722905997950637,393.5818388745471,0.4489100387352167,160.10899570219257,3.3678111058293445,22.63812808178108,160.59414255273288,0.39066892071997816,1.0
107.0,10.7,0.0,1.0,1.0,0.9035892978261657,0.0,-5.788100326167167,0.8548093879937221,0.9073263472588099,19.87119413617944,0.9757295231555422,393.7596241531062,0.439005886089747,161.09941117336243,3.56872868538,21.5426082611,161.407943726,0.39066892071997816,1.0
108.0,10.8,0.0,1.0,1.0,0.9084098329348574,0.0,-5.1753755789429166,0.8580064187430476,0.9048350299107705,19.75159604215195,1.443578141866898,393.92800879882464,0.4304801752397001,161.95198243621354,3.56872868538,21.5426082611,161.407943726,0.39066892071997816,1.0
109.0,10.9,0.0,1.0,1.0,0.9129893412881146,0.0,-4.54419377393577,0.8614185978953022,0.9024266118032028,19.631997948124457,1.9114267605782536,394.0963934445431,0.4219544643896531,162.8045536990646,3.56872868538,21.5426082611,161.407943726,0.39066892071997816,1.0
110.0,11.0,0.0,1.0,1.0,0.9173398742237089,0.0,-3.90813563092913,0.8651601680601417,0.9003469479343469,19.51239985409697,2.3792753792896093,394.26477809026153,0.4134287535396062,163.65712496191566,3.56872868538,21.5426082611,161.407943726,0.39066892071997816,1.0
111.0,11.1,0.0,1.0,1.0,0.9214728805125234,0.0,-3.1644778027531695,0.8699021597763439,0.898329600582333,19.39280176006947,2.8471239980009737,394.43316273598,0.4049030426895591,164.5096962247667,2.26758098602,17.0571784973,165.035125732,0.39066892071997816,1.0
112.0,11.2,0.0,1.0,1.0,0.9253992364868973,0.0,-2.3895507339093474,0.8750945518471314,0.8965172872645865,19.28522355783218,2.947998311519938,394.5657602335432,0.3991683283754777,165.2495027697393,2.26758098602,17.0571784973,165.035125732,0.39066892071997816,1.0
113.0,11.3,0.0,1.0,1.0,0.9291292746625524,0.0,-1.6313424588140046,0.8804648243441817,0.8950664229361265,19.193913440708968,2.5521985005332044,394.64992232234056,0.3972110331923417,165.83669013474494,2.26758098602,17.0571784973,165.035125732,0.39066892071997816,1.0
114.0,11.4,0.0,1.0,0.875,0.9264228109294247,0.0,-0.8968994198563074,0.8858790832163796,0.8938964351574228,19.10260332358576,2.156398689546471,394.734084411138,0.3952537380092056,166.42387749975055,2.26758098602,17.0571784973,165.035125732,0.39066892071997816,1.0
115.0,11.5,0.0,1.0,0.6000000238418579,0.9101016715750463,0.0,-0.3465630160031637,0.8901476292343746,0.8932432800860866,19.01129320646255,1.760598878559737,394.81824649993536,0.3932964428260695,167.01106486475618,2.26758098602,17.0571784973,165.035125732,0.39066892071997816,1.0
116.0,11.6,0.0,1.0,0.20000000298023224,0.8745965881453055,0.0,-0.06105137420228826,0.8922027479589204,0.8927477827484488,18.91998308933934,1.3647990675729964,394.9024085887328,0.3913391476429335,167.5982522297618,0.1668493126589858,20.36733487945219,168.42457805867932,0.39066892071997816,1.0
117.0,11.7,0.0,1.0,0.15000000596046448,0.8383667590360634,0.0,-0.027676326843613548,0.89203011076214,0.892277060277693,18.83993425878937,1.0047310341803295,394.9632328265152,0.389999985695,168.2430509418772,-0.141527712345,20.8494701385,168.924606323,0.39066892071997816,1.0
118.0,11.8,0.0,1.0,0.10000000149011612,0.801448421158766,0.0,-0.25055783404844034,0.889616105428924,0.8918507072439401,18.78428257371681,0.7220745265897218,394.9734965051074,0.389999985695,169.01266242804337,-0.141527712345,20.8494701385,168.924606323,0.39066892071997816,1.0
119.0,11.9,0.0,1.0,0.10000000149011612,0.7663760001753336,0.0,-0.7055601291256589,0.8851353003064893,0.8914248385484097,18.72863088864425,0.439418018999114,394.9837601836997,0.389999985695,169.78227391420953,-0.141527712345,20.8494701385,168.924606323,0.39066892071997816,1.0
120.0,12.0,0.0,1.0,0.10000000149011612,0.7330572002410727,0.0,-1.381414417992395,0.8786910353842972,0.8909994299741907,18.672979203571696,0.1567615114085062,394.994023862292,0.389999985695,170.5518854003757,-1.4521974583121746,24.877823913570808,170.52796218390765,0.39066892071997816,1.0
121.0,12.1,0.0,1.0,0.10000000149011612,0.7014043403035248,0.0,-2.276714047646601,0.8703189837119398,0.8905952918286827,18.63515026496236,-0.0632124723802547,394.97002281185775,0.3931009828742372,171.31009970560245,-1.9152661562,26.2942295074,171.094284058,0.39066892071997816,1.0
122.0,12.2,0.0,1.0,0.10000000149011612,0.6713341233628544,0.0,-3.38075060551493,0.8601155346269257,0.89021136059045,18.622163348872995,-0.1958171682140276,394.89826227767225,0.400524267974695,172.05242818615304,-1.9152661562,26.2942295074,171.094284058,0.39066892071997816,1.0
123.0,12.3,0.0,1.0,0.02500000037252903,0.639017417213338,0.0,-4.704391374640703,0.8479847579970935,0.8898466259141291,18.609176432783627,-0.3284218640478005,394.82650174348674,0.4079475530751529,172.79475666670362,-1.9152661562,26.2942295074,171.094284058,0.39066892071997816,1.0
124.0,12.4,0.0,1.0,0.02500000037252903,0.6083165463712975,0.0,-6.241277788470394,0.8340230201996843,0.8895417946482249,18.596189516694263,-0.4610265598815734,394.7547412093013,0.4153708381756107,173.53708514725423,-3.275705375359583,31.755206949360907,174.179674606389,0.39066892071997816,1.0
125.0,12.5,0.0,1.0,0.125,0.5841507190527326,0.0,-7.954758338180485,0.8185718692921455,0.8893147049356819,18.60093014556839,-0.6141593808994,394.6573048408957,0.4230991402587631,174.41322043314975,-3.32166409492,31.9389076233,174.283813477,0.39066892071997816,1.0
126.0,12.6,0.0,1.0,0.22499999403953552,0.5661931828020728,0.0,-9.801292855195639,0.8019557759150826,0.8890989697087659,18.635040651390863,-0.8013019033100383,394.51733037185977,0.4313327752161147,175.51103838384336,-3.32166409492,31.9389076233,174.283813477,0.39066892071997816,1.0
127.0,12.7,0.0,1.0,0.30000001192092896,0.5528835242580156,0.0,-11.759409093659858,0.7844204872366751,0.8889565212332616,18.66915115721334,-0.9884444257206731,394.3773559028238,0.4395664101734662,176.60885633453694,-3.32166409492,31.9389076233,174.283813477,0.39066892071997816,1.0
128.0,12.8,0.0,1.0,0.44999998807907104,0.5477393474490683,0.0,-13.776921163365234,0.7663869629623856,0.8888420284949978,18.70326166303581,-1.1755869481313082,394.2373814337879,0.4478000451308176,177.7066742852305,-4.96316719055,33.2044334412,178.984542847,0.39066892071997816,1.0
129.0,12.9,0.0,1.0,0.75,0.5578523800766149,0.0,-15.76436392509722,0.7486301149018106,0.8887332603936471,18.77118126463709,-1.46152706885003,394.04957148867743,0.4590246004569321,179.50410200322568,-4.96316719055,33.2044334412,178.984542847,0.39066892071997816,1.0
130.0,13.0,0.0,1.0,0.8500000238418579,0.5724597622648769,0.0,-17.695084979874103,0.731386109303869,0.888629930697364,18.85142799227163,-1.783489757403658,393.8443202624902,0.4713396745174857,181.55661426509812,-4.96316719055,33.2044334412,178.984542847,0.39066892071997816,1.0
131.0,13.1,0.0,1.0,0.824999988079071,0.5850867735555867,0.0,-19.578924456703152,0.7145668039560222,0.8885317674858949,18.93167471990618,-2.105452445957291,393.6390690363029,0.4836547485780396,183.60912652697064,-4.96316719055,33.2044334412,178.984542847,0.39066892071997816,1.0
132.0,13.2,0.0,1.0,0.75,0.5933324348778073,0.0,-21.439305691216006,0.6979634638755677,0.8884385124349994,19.011921447540725,-2.42741513451092,393.4338178101157,0.4959698226385932,185.66163878884308,-4.973914531923011,33.23092653581524,176.11502851956936,0.39066892071997816,1.0
133.0,13.3,0.0,1.0,1.0,0.613665813133917,0.0,-23.20883053052418,0.682190290799136,0.8883707534501136,19.09216817517527,-2.749377823064547,393.22856658392845,0.5082848966991469,187.71415105071557,-6.2043299675,36.3640518188,-171.759094238,0.39066892071997816,1.0
134.0,13.4,0.0,1.0,1.0,0.6329825224772212,0.0,-24.847899738472165,0.6675182763765257,0.8882230490612707,19.21600907462757,-2.901670220250193,393.0441625523779,0.5158251343105127,189.6019136987194,-6.2043299675,36.3640518188,-171.759094238,0.39066892071997816,1.0
135.0,13.5,0.0,1.0,1.0,0.6513333963533602,0.0,-26.27562353947373,0.6545798626154414,0.8878743965585366,19.34690358079727,-3.0265096929500293,392.8631316302591,0.52259279574832,191.4630195957261,-6.2043299675,36.3640518188,-171.759094238,0.39066892071997816,1.0
136.0,13.6,0.0,1.0,1.0,0.6687667265356921,0.0,-27.36162280963451,0.6442883695349608,0.8869806766834227,19.477798086966967,-3.151349165649868,392.6821007081402,0.5293604571861273,193.3241254927329,-6.2043299675,36.3640518188,-171.759094238,0.39066892071997816,1.0
137.0,13.7,0.0,1.0,1.0,0.6853283902089076,0.0,-28.103144704358424,0.636636451093603,0.8854858094637642,19.60869259313666,-3.276188638349704,392.5010697860215,0.5361281186239346,195.18523138973964,-6.2043299675,36.3640518188,-171.759094238,0.39066892071997816,1.0
138.0,13.8,0.0,1.0,0.550000011920929,0.6785619712945086,0.0,-28.63052296389263,0.6304921286003902,0.8834198522729969,19.739587099306355,-3.4010281110495404,392.3200388639026,0.5428957800617419,197.0463372867464,-6.2043299675,36.3640518188,-171.759094238,0.39066892071997816,1.0
139.0,13.9,0.0,1.0,0.4749999940395355,0.6683838724317599,0.0,-28.973745341713226,0.6255925222132115,0.8807905262962115,19.870481605476048,-3.5258675837493767,392.1390079417838,0.5496634414995492,198.90744318375312,-3.85187149048,36.8236541748,-160.416015625,0.39066892071997816,1.0
140.0,14.0,0.0,1.0,0.925000011920929,0.6812146794062183,0.0,-29.01131170657432,0.6230003961714687,0.8776051666095728,19.96510306969857,-3.0512971975427208,392.0299933654924,0.5530305041335905,201.1213465719415,-3.85187149048,36.8236541748,-160.416015625,0.39066892071997816,1.0
141.0,14.1,0.0,1.0,0.5249999761581421,0.6734039442438144,0.0,-28.871547023242027,0.6216003763684832,0.8739124082617095,20.05782618837064,-2.545356764119985,391.92474775652,0.5562195968135979,203.3537135769551,-3.6301686594311287,37.18939879436036,-159.31921463364895,0.39066892071997816,1.0
142.0,14.2,0.0,1.0,0.6499999761581421,0.6722337458395308,0.0,-28.523242715747738,0.6216453574923171,0.8697167878225469,20.15054930704271,-2.0394163306972577,391.8195021475476,0.5594086894936052,205.58608058196867,-2.59340691566,38.7212104797,-153.458892822,0.39066892071997816,1.0
143.0,14.3,0.0,1.0,1.0,0.6886220585475542,0.0,-27.845163443588632,0.6241255895590279,0.8649809483957188,20.211354197401988,-1.858284760491976,391.7436208650161,0.5643357529288135,207.7343018718424,-2.59340691566,38.7212104797,-153.458892822,0.39066892071997816,1.0
144.0,14.4,0.0,1.0,0.800000011920929,0.694190956216223,0.0,-26.903429102865843,0.6284193100512742,0.8597110676171433,20.26489378378308,-1.7510869657756545,391.6744235611697,0.5696584174518389,209.86336971143808,-2.59340691566,38.7212104797,-153.458892822,0.39066892071997816,1.0
145.0,14.5,0.0,1.0,0.875,0.7032314084054118,0.0,-25.71708926414806,0.634373344518908,0.8539963475242951,20.318433370164172,-1.6438891710593329,391.6052262573233,0.5749810819748642,211.99243755103376,-2.3558855573548487,39.00200918156381,-152.33146647221295,0.39066892071997816,1.0
146.0,14.6,0.0,1.0,0.7749999761581421,0.7068198367930483,0.0,-24.35937318290125,0.6414046772184568,0.8479631967743897,20.37048099276638,-1.5284185857708532,391.5377796789032,0.5802931089128397,214.1319062535132,-0.825084984303,40.7003746033,-144.976989746,0.39066892071997816,1.0
147.0,14.7,0.0,1.0,0.675000011920929,0.7052288455494423,0.0,-22.898256675143173,0.6490219432830282,0.8417733702187121,20.397877771136933,-1.2762615241475923,391.4992593119558,0.5854293772595016,216.44322232551352,-0.825084984303,40.7003746033,-144.976989746,0.39066892071997816,1.0
148.0,14.8,0.0,1.0,0.4749999940395355,0.6937174029739469,0.0,-21.447435176108318,0.6563208460592721,0.8355180350007525,20.425274549507485,-1.0241044625243312,391.4607389450084,0.5905656456061636,218.75453839751384,-0.825084984303,40.7003746033,-144.976989746,0.39066892071997816,1.0
149.0,14.9,0.0,1.0,0.6499999761581421,0.6915315316331566,0.0,-20.073003030720145,0.6630048036370992,0.8295129665536249,20.45267132787804,-0.7719474009010704,391.42221857806095,0.5957019139528256,221.0658544695141,-0.3387063386837305,42.18204670003573,-137.89941160198282,0.39066892071997816,1.0
150.0,15.0,0.0,1.0,1.0,0.7069549550514987,0.0,-18.69704416340769,0.6697295632764303,0.8237456515387879,20.47882038374456,-0.588386319316179,391.3855339079959,0.6007417571510134,223.4079537090228,-0.270649015903,42.3889427185,-136.455123901,0.39066892071997816,1.0
151.0,15.1,0.0,1.0,0.949999988079071,0.7191072067028773,0.0,-17.327412515722276,0.6764305849337948,0.8182042022846269,20.498571069009923,-0.7565881502529928,391.358262764518,0.6052871283546521,225.9079102552327,-0.270649015903,42.3889427185,-136.455123901,0.39066892071997816,1.0
152.0,15.2,0.0,1.0,0.925000011920929,0.7294018469637799,0.0,-15.942225204019648,0.6832340555380935,0.812814825513042,20.518321754275284,-0.9247899811898036,391.33099162104,0.6098324995582909,228.4078668014425,-0.270649015903,42.3889427185,-136.455123901,0.39066892071997816,1.0
153.0,15.3,0.0,1.0,0.8999999761581421,0.7379317534234979,0.0,-14.6489334472618,0.6894473525525725,0.807778250933238,20.538072439540645,-1.0929918121266144,391.3037204775621,0.6143778707619295,230.9078233476524,-0.270649015903,42.3889427185,-136.455123901,0.39066892071997816,1.0
154.0,15.4,0.0,1.0,0.42500001192092896,0.7222851663483695,0.0,-13.593263865279113,0.6939124847461299,0.8030768384356257,20.55782312480601,-1.2611936430634252,391.2764493340841,0.6189232419655682,233.40777989386223,0.654794573784,44.3884849548,-125.612014771,0.39066892071997816,1.0
155.0,15.5,0.0,1.0,0.925000011920929,0.7324209086269974,0.0,-12.611462087651958,0.6979668603598118,0.7986938299160956,20.565921155482236,-1.3643581261774982,391.269989014,0.620000004768,235.9356309614517,0.654794573784,44.3884849548,-125.612014771,0.39066892071997816,1.0
156.0,15.6,0.0,1.0,0.8500000238418579,0.7382998643877403,0.0,-11.722858932668254,0.7014435172524142,0.794592471812608,20.57040184353575,-1.4473330148478842,391.269989014,0.620000004768,238.47214134699777,0.654794573784,44.3884849548,-125.612014771,0.39066892071997816,1.0
157.0,15.7,0.0,1.0,0.8500000238418579,0.7438848723604461,0.0,-10.934000971383778,0.7043713413599911,0.790842014957562,20.574810798895736,-1.5289006497061537,391.2700614552024,0.620000004768,241.00885428501587,1.18145895004,44.6857032776,-118.792724609,0.39066892071997816,1.0
158.0,15.8,0.0,1.0,0.9750000238418579,0.7554406299345167,0.0,-10.033142783907783,0.7082152742919915,0.7871957476417374,20.55826093368119,-1.1992976077216837,391.2912997287441,0.620000004768,243.6047488975094,1.18145895004,44.6857032776,-118.792724609,0.39066892071997816,1.0
159.0,15.9,0.0,1.0,0.3499999940395355,0.7351685981397675,0.0,-9.192539611297628,0.7115545105773919,0.7835859603732719,20.541711068466647,-0.8696945657372139,391.3125380022858,0.620000004768,246.20064351000292,1.18145895004,44.6857032776,-118.792724609,0.39066892071997816,1.0
160.0,16.0,0.0,1.0,0.25,0.7109101682327791,0.0,-8.610385475269132,0.7130392850187199,0.7802191624582955,20.525161203252104,-0.540091523752744,391.33377627582746,0.620000004768,248.7965381224965,1.18145895004,44.6857032776,-118.792724609,0.39066892071997816,1.0
161.0,16.1,0.0,1.0,0.20000000298023224,0.6853646599701517,0.0,-8.15723226832002,0.7136373208050368,0.777020704439068,20.50861133803756,-0.2104884817682684,391.3550145493692,0.620000004768,251.39243273499005,1.40910351276,45.1976165771,-107.269042969,0.39066892071997816,1.0
162.0,16.2,0.0,1.0,0.25,0.6635964269716441,0.0,-7.86734923205648,0.7132054548616424,0.7741071693009336,20.479624969297618,0.1423127661750849,391.39403247397536,0.620000004768,254.00261370976108,1.40910351276,45.1976165771,-107.269042969,0.39066892071997816,1.0
163.0,16.3,0.0,1.0,0.20000000298023224,0.6404166057720735,0.0,-7.891513553169589,0.7107951822228684,0.7716934775963067,20.446838415219595,0.5022026208136302,391.4384832735978,0.620000004768,256.61716012569906,1.40910351276,45.1976165771,-107.269042969,0.39066892071997816,1.0
164.0,16.400000000000002,0.0,1.0,0.17499999701976776,0.6171457753344581,0.0,-8.125153475579758,0.7069429231787802,0.769462970466977,20.414051861141573,0.8620924754521755,391.4829340732202,0.620000004768,259.23170654163704,1.40910351276,45.1976165771,-107.269042969,0.39066892071997816,1.0
165.0,16.5,0.0,1.0,0.25,0.5987884865677352,0.0,-8.539578246527324,0.7017207770868964,0.7672398220274472,20.38126530706355,1.221982330090708,391.5273848728426,0.620000004768,261.8462529575749,2.003272295,45.9543609619,-97.977104187,0.39066892071997816,1.0
166.0,16.6,0.0,1.0,0.32499998807907104,0.5850990616433019,0.0,-9.072643426608932,0.695634738329409,0.7650444976566922,20.32684230390806,1.1720093930780908,391.5880857869758,0.6175796165976961,264.17835143076724,2.003272295,45.9543609619,-97.977104187,0.39066892071997816,1.0
167.0,16.7,0.0,1.0,0.375,0.5745941085611369,0.0,-9.655528831480641,0.6891030014799938,0.7627506061711418,20.27106748796765,1.0964288455082234,391.6498019838143,0.6150080062161425,266.49280298145794,2.003272295,45.9543609619,-97.977104187,0.39066892071997816,1.0
168.0,16.8,0.0,1.0,0.42500001192092896,0.5671144037291265,0.0,-10.189600712896615,0.6827728515177528,0.7602380759215684,20.215292672027235,1.0208482979383535,391.7115181806528,0.6124363958345888,268.8072545321488,2.909054346783569,45.10573637239522,-90.5180974117164,0.39066892071997816,1.0
169.0,16.900000000000002,0.0,1.0,0.550000011920929,0.5662586841387165,0.0,-10.713601208437193,0.6765092091430307,0.7576845054780706,20.158343682771125,0.936894734694755,391.7740540974884,0.6096748069668753,271.1300826716308,3.19315743446,44.8459701538,-88.1771240234,0.39066892071997816,1.0
170.0,17.0,0.0,1.0,0.3499999940395355,0.5554457496337575,0.0,-11.44938269962246,0.6689337488721436,0.7554252802134803,20.080239931514587,0.7020868201939829,391.85135868707056,0.6034904272673748,273.60382953825933,3.19315743446,44.8459701538,-88.1771240234,0.39066892071997816,1.0
171.0,17.1,0.0,1.0,0.5,0.5526734621520696,0.0,-12.343023549939982,0.6606120616446033,0.7536331828887203,20.002136180258045,0.4672789056932024,391.9286632766528,0.5973060475678742,276.07757640488785,3.2710204053321754,44.50508583925336,-86.3287894341025,0.39066892071997816,1.0
172.0,17.2,0.0,1.0,0.875,0.5687897890444661,0.0,-13.231784076963686,0.6525814587486376,0.7520973570869308,19.924032429001507,0.2324709911924303,392.00596786623487,0.5911216678683737,278.5513232715164,3.52556061745,43.402759552,-80.2374572754,0.39066892071997816,1.0
173.0,17.3,0.0,1.0,0.9750000238418579,0.5891003007843357,0.0,-14.061651895876988,0.6451398861166795,0.7507008225652967,19.81635833721265,0.386178512498613,392.1042077431649,0.585681230912334,280.94343614110755,3.52556061745,43.402759552,-80.2374572754,0.39066892071997816,1.0
174.0,17.400000000000002,0.0,1.0,0.824999988079071,0.6008952851490725,0.0,-14.688613988872449,0.6390703920567147,0.7491032814463451,19.702132608816115,0.62596593366592,392.20708606498647,0.5804056227145817,283.31746209408595,3.52556061745,43.402759552,-80.2374572754,0.39066892071997816,1.0
175.0,17.5,0.0,1.0,0.925000011920929,0.6171005214876654,0.0,-15.284349103240771,0.633304372699748,0.7475647840698759,19.587906880419585,0.8657533548332186,392.309964386808,0.5751300145168297,285.69148804706424,3.5522652104942605,43.35068425245464,-79.1220750629596,0.39066892071997816,1.0
176.0,17.6,0.0,1.0,0.800000011920929,0.6262454960093286,0.0,-15.855229477872498,0.6277016542808275,0.7459782115820984,19.473761913396768,1.1101956562418882,392.4128308513765,0.56986207226783,288.05516828428193,3.73353815079,42.9978866577,-71.403968811,0.39066892071997816,1.0
177.0,17.7,0.0,1.0,0.625,0.626183221208862,0.0,-16.461350141734556,0.6218165717232482,0.7443459677385781,19.36246272890047,1.5186616269377655,392.515279502798,0.5648642544855815,290.0542973037507,3.73353815079,42.9978866577,-71.403968811,0.39066892071997816,1.0
178.0,17.8,0.0,1.0,0.7749999761581421,0.633624058956326,0.0,-17.104620463544087,0.6157257431743387,0.7427745027737686,19.25116354440417,1.9271275976336577,392.6177281542195,0.5598664367033329,292.0534263232195,3.73353815079,42.9978866577,-71.403968811,0.39066892071997816,1.0
179.0,17.900000000000002,0.0,1.0,0.8999999761581421,0.6469428548164168,0.0,-17.47478073730484,0.6113144560081711,0.7407607776990309,19.13986435990787,2.33559356832955,392.7201768056411,0.5548686189210842,294.0525553426883,3.871710571425513,41.94081807291669,-65.03832771631494,0.39066892071997816,1.0
180.0,18.0,0.0,1.0,0.9750000238418579,0.6633457132676889,0.0,-17.515538746612645,0.6089362332599166,0.7382435721914953,19.028551222325376,2.728219799010249,392.8230221388508,0.5498003231168698,296.054914391677,3.90220355988,41.7099304199,-63.6323242188,0.39066892071997816,1.0
181.0,18.1,0.0,1.0,0.9750000238418579,0.6789284287963974,0.0,-17.216216616538293,0.6086144217012289,0.7351855602951533,18.916712338423533,2.524011401607384,392.9408142721553,0.5420764455930168,298.1789795712818,3.90220355988,41.7099304199,-63.6323242188,0.39066892071997816,1.0
182.0,18.2,0.0,1.0,0.9750000238418579,0.6937320085486705,0.0,-16.61085807270555,0.6101212007800803,0.7316554489936284,18.80487345452169,2.319803004204525,393.0586064054598,0.5343525680691641,300.3030447508865,3.90220355988,41.7099304199,-63.6323242188,0.39066892071997816,1.0
183.0,18.3,0.0,1.0,0.949999988079071,0.7065454075251905,0.0,-15.695713923564545,0.6134276408677362,0.7276351765929966,18.69303457061985,2.11559460680166,393.17639853876426,0.5266286905453111,302.4271099304913,3.90220355988,41.7099304199,-63.6323242188,0.39066892071997816,1.0
184.0,18.4,0.0,1.0,0.925000011920929,0.7174681377449773,0.0,-14.476634611968604,0.6184437589882621,0.7231284178099129,18.58119568671801,1.911386209398794,393.2941906720688,0.5189048130214582,304.5511751100961,3.483293594999851,40.72641655909023,-60.87074555828494,0.39066892071997816,1.0
185.0,18.5,0.0,1.0,0.9750000238418579,0.7303447320498213,0.0,-12.976548490206039,0.6250215712623663,0.7182219969659833,18.46935680281617,1.7071778119959355,393.4119828053732,0.5111809354976055,306.67524028970087,2.27057766914,37.963104248,-52.862537384,0.39066892071997816,1.0
186.0,18.6,0.0,1.0,0.949999988079071,0.7413274948512838,0.0,-11.243419978432321,0.6328329929227655,0.7129983971543161,18.378166148637742,1.891836862683628,393.50829536880366,0.5037357810128886,308.25284308485874,2.27057766914,37.963104248,-52.862537384,0.39066892071997816,1.0
187.0,18.7,0.0,1.0,1.0,0.7542611201087196,0.0,-9.285850777458945,0.6418163435001446,0.707515143999899,18.290702328628143,2.146683261734897,393.6007310480648,0.4963409337244694,309.7318139530371,1.6445359933463526,36.60562751729883,-48.19809416609384,0.39066892071997816,1.0
188.0,18.8,0.0,1.0,1.0,0.7665480641032836,0.0,-7.1298009901641315,0.6517880265188525,0.7018268868464702,18.204110886140576,2.3193559260837966,393.6898537064452,0.4896347705844966,311.219142927387,1.63058245182,36.5758972168,-48.0829391479,0.39066892071997816,1.0
189.0,18.9,0.0,1.0,1.0,0.7782206608981194,0.0,-4.836148533654026,0.6623861253568226,0.6960480425606469,18.122768099579687,1.9976306391216887,393.75904358774005,0.4870720729122373,312.756758414611,1.63058245182,36.5758972168,-48.0829391479,0.39066892071997816,1.0
190.0,19.0,0.0,1.0,0.824999988079071,0.780559627257167,0.0,-2.3730816872959575,0.673641819237993,0.690016473817481,18.0414253130188,1.675905352159592,393.8282334690349,0.4845093752399781,314.294373901835,1.63058245182,36.5758972168,-48.0829391479,0.39066892071997816,1.0
191.0,19.1,0.0,1.0,0.824999988079071,0.7827816452982622,0.0,0.18679162598367405,0.6851472283953027,0.6838698168448067,17.96008252645791,1.354180065197484,393.89742335032975,0.4819466775677188,315.83198938905906,1.10849714279,35.6750602722,-41.6808853149,0.39066892071997816,1.0
192.0,19.200000000000003,0.0,1.0,0.675000011920929,0.7773925636293956,0.0,2.6036813134530767,0.6955773671245492,0.6779263260540996,17.878635730085826,1.060343331951732,393.959908063061,0.4792910374102428,317.4962667758196,1.10849714279,35.6750602722,-41.6808853149,0.39066892071997816,1.0
193.0,19.3,0.0,1.0,0.7250000238418579,0.7747729366400187,0.0,4.849591283843442,0.7048609989173333,0.6722591764894627,17.796860246050482,0.8546388955308635,394.00120336912295,0.476341684112313,319.5608160533312,1.10849714279,35.6750602722,-41.6808853149,0.39066892071997816,1.0
194.0,19.4,0.0,1.0,0.75,0.7735342898080176,0.0,6.997131396250732,0.7134929491502806,0.6668337177264567,17.71508476201513,0.6489344591099874,394.04249867518496,0.473392330814383,321.6253653308428,1.10849714279,35.66631229190799,-41.6808853149,0.39066892071997816,1.0
195.0,19.5,0.0,1.0,0.625,0.7661075753176168,0.0,8.91198792476317,0.7209433018417781,0.6619503652250004,17.633309277979787,0.4432300226891186,394.08379398124697,0.4704429775164532,323.6899146083543,0.112511783838,35.2556152344,-35.8146209717,0.39066892071997816,1.0
196.0,19.6,0.0,1.0,0.9750000238418579,0.7765521977438288,0.0,10.739777413663738,0.7284586369285032,0.6578111803560674,17.58353008516319,0.2337831777562708,394.089996338,0.469999998808,325.476135959935,0.112511783838,35.2556152344,-35.8146209717,0.39066892071997816,1.0
197.0,19.700000000000003,0.0,1.0,0.699999988079071,0.7727245872605909,0.0,12.458208486676154,0.7357857052310897,0.6542747880589475,17.53940594319928,0.0236748964618759,394.089996338,0.469999998808,327.213165404738,0.112511783838,35.2556152344,-35.8146209717,0.39066892071997816,1.0
198.0,19.8,0.0,1.0,0.625,0.7653383578975613,0.0,13.95192846665041,0.7423714201781514,0.6514777153555734,17.49528180123537,-0.1864333848325114,394.089996338,0.469999998808,328.950194849541,0.112511783838,35.2556152344,-35.8146209717,0.39066892071997816,1.0
199.0,19.9,0.0,1.0,0.675000011920929,0.7608214405987297,0.0,15.177849872996289,0.748065349467267,0.6494871629329249,17.451157659271463,-0.3965416661269063,394.089996338,0.469999998808,330.687224294344,-1.233382267713374,35.53595858882949,-29.477118711020296,0.39066892071997816,1.0
200.0,20.0,0.0,1.0,0.3499999940395355,0.7402803682707699,0.0,15.97759282741647,0.7519120822174211,0.6483253048167018,17.41282155030545,-0.5557471621580531,394.0799604616515,0.4705902972859088,332.413209328614,-1.61564445496,35.6018791199,-27.6747665405,0.39066892071997816,1.0
201.0,20.1,0.0,1.0,0.2750000059604645,0.7170163501552546,0.0,16.33855337540761,0.7538164782853639,0.647950706291583,17.39239545226461,-0.5574432866084855,394.038870399,0.4730071665854272,334.1050194517561,-1.61564445496,35.6018791199,-27.6747665405,0.39066892071997816,1.0
202.0,20.200000000000003,0.0,1.0,0.25,0.6936655326474918,0.0,16.271054195115845,0.7538131544903051,0.6483240043780133,17.371969354223765,-0.559139411058918,393.9977803363485,0.4754240358849456,335.79682957489825,-1.61564445496,35.6018791199,-27.6747665405,0.39066892071997816,1.0
203.0,20.3,0.0,1.0,0.2750000059604645,0.6727322563131404,0.0,15.80924007942646,0.7521224969297025,0.6494494708832108,17.351543256182925,-0.5608355355093503,393.956690273697,0.4778409051844638,337.48863969804034,-1.9165508734516965,36.74510686383634,-22.68800671814421,0.39066892071997816,1.0
204.0,20.4,0.0,1.0,0.2750000059604645,0.6528456437955066,0.0,14.989621571681907,0.748891372232229,0.6512686640727722,17.333352311933226,-0.5839495821206527,393.91235567895467,0.4805260453460664,339.18411952750233,-2.05170941353,37.2570457458,-20.4473724365,0.39066892071997816,1.0
205.0,20.5,0.0,1.0,0.3499999940395355,0.637703361307708,0.0,13.852432021483018,0.7442593036951233,0.6537052309560569,17.33388193324889,-0.7864497710527157,393.8408464548974,0.4854580923123954,340.9103350396892,-2.05170941353,37.2570457458,-20.4473724365,0.39066892071997816,1.0
206.0,20.6,0.0,1.0,0.5,0.6308181932423226,0.0,12.504825506167647,0.7387338386146752,0.6566241361568771,17.334411554564554,-0.988949959984786,393.76933723084016,0.4903901392787246,342.63655055187604,-2.05170941353,37.2570457458,-20.4473724365,0.39066892071997816,1.0
207.0,20.700000000000003,0.0,1.0,0.675000011920929,0.6330272841762529,0.0,11.014223173369347,0.7326721468180519,0.6599804294210555,17.33494117588022,-1.1914501489168563,393.6978280067829,0.4953221862450537,344.3627660640629,-2.3309100097699487,37.39786488754077,-15.527072951992457,0.39066892071997816,1.0
208.0,20.8,0.0,1.0,0.8500000238418579,0.6438759211595331,0.0,9.479914986030906,0.7265385396708643,0.6636272413652925,17.33658475035903,-1.38823125914851,393.6255681757766,0.5001386437952944,346.11091514201524,-2.48043107986,37.4733848572,-12.8849506378,0.39066892071997816,1.0
209.0,20.9,0.0,1.0,0.8999999761581421,0.6566821239094635,0.0,7.966666133294994,0.7204616128214316,0.6673000460456509,17.35872472418938,-1.479783060963349,393.5394974052319,0.5028282912503325,348.2626351581411,-2.48043107986,37.4733848572,-12.8849506378,0.39066892071997816,1.0
210.0,21.0,0.0,1.0,0.625,0.6550980177139902,0.0,6.473196515505365,0.7141885323442727,0.6707683771288557,17.38086469801973,-1.5713348627781851,393.4534266346872,0.5055179387053705,350.4143551742669,-2.48043107986,37.4733848572,-12.8849506378,0.39066892071997816,1.0
211.0,21.1,0.0,1.0,0.2750000059604645,0.6360931171263139,0.0,4.864649163303946,0.7068541059356753,0.6740632916579002,17.40300467185008,-1.6628866645930245,393.3673558641424,0.5082075861604086,352.5660751903928,-2.67819476128,37.7303237915,-5.70421648026,0.39066892071997816,1.0
212.0,21.200000000000003,0.0,1.0,0.3499999940395355,0.6217884609719749,0.0,3.24057554791661,0.6990739008028043,0.6771309604704268,17.429886757580004,-1.7094912244714713,393.2831515963964,0.5106883219672688,329.90837437681944,-2.67819476128,37.7303237915,-5.70421648026,0.39066892071997816,1.0
213.0,21.3,0.0,1.0,0.675000011920929,0.6244490385194227,0.0,1.7271769616188923,0.6915577058967745,0.6798160791955284,17.466242063304957,-1.6663055980256072,393.2026760031328,0.5127517192455098,257.68940077037155,-2.67819476128,37.7303237915,-5.70421648026,0.39066892071997816,1.0
214.0,21.4,0.0,1.0,0.9750000238418579,0.6419765877855445,0.0,0.41357128808913934,0.6849798207956508,0.6821586086510417,17.502597369029907,-1.6231199715797413,393.1222004098692,0.5148151165237508,185.47042716392107,-2.67819476128,37.7303237915,-5.70421648026,0.39066892071997816,1.0
215.0,21.5,0.0,1.0,0.8999999761581421,0.6548777572041743,0.0,-0.6802186123329872,0.6794183298899787,0.6840715116337793,17.53895267475486,-1.5799343451338772,393.0417248166056,0.5168785138019918,113.25145355747316,-2.67819476128,37.7303237915,-5.70421648026,0.39066892071997816,1.0
216.0,21.6,0.0,1.0,0.925000011920929,0.668383869940012,0.0,-1.7289075679236894,0.6740099134997879,0.685867936153915,17.575307980479813,-1.5367487186880116,392.961249223342,0.5189419110802328,41.03247995102271,-2.25731730461,37.6412353516,4.22877931595,0.39066892071997816,1.0
217.0,21.700000000000003,0.0,1.0,0.8999999761581421,0.6799646752509184,0.0,-2.611957017202052,0.6693719178993043,0.6873245394381097,17.613642157926968,-1.6453411437612442,392.8853761855152,0.521235939583818,4.988767868442343,-2.25731730461,37.6412353516,4.22877931595,0.39066892071997816,1.0
218.0,21.8,0.0,1.0,0.699999988079071,0.680966440892326,0.0,-3.4289331180778797,0.6651533220490425,0.6887708125481605,17.65405902449046,-1.913674340533078,392.8143471666352,0.5237726989008872,7.0181772575454335,-2.25731730461,37.6412353516,4.22877931595,0.39066892071997816,1.0
219.0,21.9,0.0,1.0,0.75,0.6844181188477096,0.0,-4.197856373062196,0.6613331559614914,0.6903114386842767,17.69447589105395,-2.182007537304921,392.7433181477552,0.5263094582179565,9.047586646648597,-2.25731730461,37.6412353516,4.22877931595,0.39066892071997816,1.0
220.0,22.0,0.0,1.0,0.699999988079071,0.6851972123092778,0.0,-4.732686862216168,0.6585789981634169,0.6912958668320193,17.73489275761744,-2.450340734076756,392.6722891288752,0.5288462175350257,11.076996035751684,-1.48658299446,38.0066986084,12.3684749603,0.39066892071997816,1.0
221.0,22.1,0.0,1.0,1.0,0.7009373516938139,0.0,-4.948925812824109,0.6577750482403448,0.6920227402638766,17.77117748823447,-2.2460746950011163,392.60390428455287,0.5315033670215643,13.052371673080568,-1.48658299446,38.0066986084,12.3684749603,0.39066892071997816,1.0
222.0,22.200000000000003,0.0,1.0,0.925000011920929,0.7121404847051696,0.0,-4.864546050750373,0.6586987958432288,0.6923799367106759,17.804015039568284,-1.6475490487428952,392.5377253075772,0.5342609504007616,14.982670373899117,-1.48658299446,38.0066986084,12.3684749603,0.39066892071997816,1.0
223.0,22.3,0.0,1.0,0.574999988079071,0.7052834598738645,0.0,-4.592986100962212,0.660326356021265,0.6921151066734357,17.836852590902094,-1.0490234024846952,392.4715463306016,0.5370185337799588,16.912969074717598,-1.48658299446,38.0066986084,12.3684749603,0.39066892071997816,1.0
224.0,22.4,0.0,1.0,0.800000011920929,0.7100192874762178,0.0,-4.084454328757113,0.6631850382053005,0.6914260181330905,17.869690142235907,-0.4504977562264738,392.4053673536259,0.5397761171591561,18.843267775536145,-0.743078052998,37.5621910095,19.6419563293,0.39066892071997816,1.0
225.0,22.5,0.0,1.0,0.8999999761581421,0.719518321910314,0.0,-3.340137042855966,0.6672757862354308,0.6903338840147953,17.89729394505772,-0.8493729775602985,392.3688306202716,0.5419476797564711,20.947660155954527,-0.743078052998,37.5621910095,19.6419563293,0.39066892071997816,1.0
226.0,22.6,0.0,1.0,0.6000000238418579,0.7135424070068911,0.0,-2.5621874454789335,0.6714119969236593,0.6890671899556166,17.924435235164328,-1.3363897254419272,392.33491340800254,0.5440674549852543,23.06743740636944,-0.743078052998,37.5621910095,19.6419563293,0.39066892071997816,1.0
227.0,22.700000000000003,0.0,1.0,0.625,0.7091152866565466,0.0,-1.838653667936282,0.6752163970476739,0.6878638305993967,17.951576525270937,-1.823406473323556,392.30099619573343,0.5461872302140377,25.187214656784352,-0.743078052998,37.5621910095,19.6419563293,0.39066892071997816,1.0
228.0,22.8,0.0,1.0,0.574999988079071,0.7024095217276727,0.0,-1.293978652853717,0.6781430770760809,0.6870331392358232,17.97871781537755,-2.310423221205167,392.2670789834644,0.548307005442821,27.30699190719919,-0.1981689636973596,37.37960004867864,27.972642940768328,0.39066892071997816,1.0
229.0,22.9,0.0,1.0,0.75,0.704789045641289,0.0,-0.8600586632786976,0.6805484231626722,0.6864523157737616,18.00543652716917,-2.5224507993703917,392.23937491141214,0.549385290195745,29.43030561806098,-0.137474954128,37.3634185791,29.5227584839,0.39066892071997816,1.0
230.0,23.0,0.0,1.0,0.824999988079071,0.7107995927631781,0.0,-0.3288464003976181,0.6833335019151315,0.6855880334848031,18.030478856086468,-1.6435867761715677,392.2363185827152,0.5463319460042005,31.56764859052609,-0.137474954128,37.3634185791,29.5227584839,0.39066892071997816,1.0
