t_sec,airspeed,climb,altitude,throttle,heading,pitch,roll,yaw,is_boundary
0.0,19.2856369019,1.83278882504,388.66998291,0.449999988079,281.0,0.0942793413997,26.381855011,-81.2312850952,0
0.1,19.163672508636378,1.4156107904278281,388.69002805082863,0.48435949302177495,282.4316459823982,0.0942793413997,26.381855011,-81.2312850952,0
0.2,19.041708115372753,0.9984327558156562,388.7100731916572,0.5187189979645499,283.8632919647964,0.0942793413997,26.381855011,-81.2312850952,0
0.30000000000000004,18.919743722109132,0.5812547212034842,388.73011833248586,0.5530785029073249,285.2949379471947,-0.87172305584,34.8045387268,-78.5243988037,0
0.4,18.825721502754725,0.054852172847115244,388.7283215448952,0.5751862907003586,286.90760163745483,-0.87172305584,34.8045387268,-78.5243988037,0
0.5,18.75881379239766,-0.57753958988714,388.705329800657,0.5854052649755558,288.69592117627036,-0.87172305584,34.8045387268,-78.5243988037,0
0.6000000000000001,18.691906082040596,-1.2099313526213962,388.6823380564188,0.5956242392507529,290.48424071508583,-1.347640970940907,36.45715437769723,-76.3790125518798,0
0.7000000000000001,18.62499837168353,-1.8423231153556514,388.6593463121807,0.60584321352595,292.2725602539013,-2.01164031029,38.7606620789,-73.3731842041,0
0.8,18.573734230485517,-1.725856635707244,388.6468441324499,0.6068485130945426,293.9454484471387,-2.01164031029,38.7606620789,-73.3731842041,0
0.9,18.533196803148257,-1.0959019612203766,388.64153459244545,0.6015360439251294,295.53918596817385,-2.01164031029,38.7606620789,-73.3731842041,0
1.0,18.492659375811,-0.4659472867335095,388.63622505244103,0.5962235747557161,297.1329234892091,-1.8233584011439539,38.78700960404665,-71.00404770872329,0
1.1,18.452121948473746,0.16400738775335855,388.6309155124366,0.5909111055863029,298.7266610102443,-1.43255198002,38.8366165161,-66.0845108032,0
1.2000000000000002,18.401616697663613,0.20625049029515188,388.63521216915495,0.58305664959555,300.56224943002945,-1.43255198002,38.8366165161,-66.0845108032,0
1.3,18.349047982881352,0.1268299560351549,388.64149742859087,0.574675970579508,302.4479040069406,-1.43255198002,38.8366165161,-66.0845108032,0
1.4000000000000001,18.296479268099095,0.04740942177515772,388.6477826880267,0.566295291563466,304.33355858385164,-1.407135074094146,37.791305693168404,-63.32782599856215,0
1.5,18.243910553316837,-0.03201111248483929,388.65406794746264,0.557914612547424,306.2192131607627,-1.38169896603,36.7608680725,-60.5728988647,0
1.6,18.19107246820585,-0.09232656836070587,388.660003662,0.5498392871994751,308.0803624374041,-1.38169896603,36.7608680725,-60.5728988647,0
1.7000000000000002,18.133660134170245,0.17178637389378598,388.660003662,0.5469492533960468,309.52538071723217,-1.38169896603,36.7608680725,-60.5728988647,0
1.8,18.07624780013464,0.4358993161482772,388.660003662,0.5440592195926186,310.9703989970602,-1.38169896603,36.7608680725,-60.5728988647,0
1.9000000000000001,18.018835466099038,0.7000122584027689,388.660003662,0.5411691857891904,312.41541727688826,-2.2890564236442845,29.99676028624809,-51.54718919259665,0
2.0,17.943712433501656,0.6822451443871028,388.69655806259675,0.5365185012527073,313.5222269724748,-2.29748988152,29.9377059937,-51.447719574,0
2.1,17.85655669454685,0.47296780093117075,388.7579476421627,0.530671624866708,314.3992566530302,-2.29748988152,29.9377059937,-51.447719574,0
2.2,17.769400955592044,0.26369045747523867,388.81933722172874,0.5248247484807088,315.27628633358563,-2.1044791596162087,28.79932700233782,-50.46978890842141,0
2.3000000000000003,17.676082149450288,0.11644245327556299,388.8924737929336,0.5182016872274354,316.08991470373445,-1.36685168743,24.7944107056,-46.737197876,0
2.4000000000000004,17.55367117067922,0.2619980468600304,389.0210609211851,0.5079147191131753,316.60426321674055,-1.36685168743,24.7944107056,-46.737197876,0
2.5,17.431260191908155,0.40755364044449716,389.1496480494366,0.49762775099891526,317.11861172974665,-1.36685168743,24.7944107056,-46.737197876,0
2.6,17.308849213137087,0.5531092340289645,389.27823517768815,0.48734078288465515,317.63296024275274,0.866390168667,17.8757896423,-43.3168792725,0
2.7,17.192941985969384,0.7443079296272024,389.40616952124253,0.47787206224944395,318.1063964525481,0.866390168667,17.8757896423,-43.3168792725,0
2.8000000000000003,17.09323973858987,1.049232608428845,389.53247736313006,0.47044211625821863,318.47789410640667,0.866390168667,17.8757896423,-43.3168792725,0
2.9000000000000004,16.993537491210354,1.3541572872304877,389.6587852050176,0.4630121702669933,318.84939176026523,0.8706421188634632,17.756858014495208,-43.28787667347259,0
3.0,16.88696062300361,1.492271230210135,389.79070822009413,0.4562745840599202,319.0,1.14917063713,9.96686077118,-41.0511016846,0
3.1,16.775696456649328,1.516649205394946,389.92645980863654,0.45000906704986093,319.0,1.14917063713,9.96686077118,-41.0511016846,0
3.2,16.664432290295043,1.541027180579757,390.06221139717894,0.44374355003980165,319.0,1.1687884291322166,7.58226256129917,-40.55490617741914,0
3.3000000000000003,16.55316812394076,1.5654051557645683,390.19796298572135,0.4374780330297423,319.0,1.18263494968,5.91436004639,-40.2042961121,0
3.4000000000000004,16.44190395758648,1.5897831309493793,390.33371457426375,0.431212516019683,319.0,1.18263494968,5.91436004639,-40.2042961121,0
3.5,16.356176596000115,1.3397155232840268,390.4325022050008,0.427582921343689,319.0,1.18263494968,5.91436004639,-40.2042961121,0
3.6,16.276576990658995,1.0237925492337983,390.52242004465205,0.42458583686978757,319.0,1.18263494968,5.91436004639,-40.2042961121,0
3.7,16.196977385317876,0.7078695751835699,390.61233788430326,0.42158875239588606,319.0,0.692079246044,0.491608947515,-40.1335716248,0
3.8000000000000003,16.131222343714835,0.7022084940428366,390.6866570257898,0.41866719795164753,319.0,0.692079246044,0.491608947515,-40.1335716248,0
3.9000000000000004,16.08108575638177,1.046562861405909,390.74337882303615,0.4158308511265596,319.0,0.692079246044,0.491608947515,-40.1335716248,0
4.0,16.03094916904871,1.39091722876898,390.8001006202824,0.41299450430147167,319.0,0.08169753553851955,-0.8414702283407771,-40.25208380769831,0
4.1000000000000005,15.980812581715647,1.735271596132054,390.85682241752875,0.41015815747638373,319.0,-0.200255483389,-1.45756328106,-40.3068275452,0
4.2,15.953746658949033,0.8933928545275593,390.87506910018595,0.409999996424,318.62298682536584,-0.200255483389,-1.45756328106,-40.3068275452,0
4.3,15.92804318109726,-0.018539233935452204,390.8910436235792,0.409999996424,318.223709026272,-0.200255483389,-1.45756328106,-40.3068275452,0
4.4,15.910882879478065,-0.5416221714735506,390.88968515833915,0.409999996424,317.8969189144301,-2.39997053146,-1.86988186836,-40.8565940857,0
4.5,15.90460825875497,-0.5692350802478866,390.86624106849047,0.409999996424,317.662492322998,-2.39997053146,-1.86988186836,-40.8565940857,0
4.6000000000000005,15.898333638031879,-0.5968479890222227,390.8427969786418,0.409999996424,317.4280657315659,-2.39997053146,-1.86988186836,-40.8565940857,0
4.7,15.892059017308785,-0.6244608977965587,390.81935288879305,0.409999996424,317.19363914013377,-3.1775662899,-0.0721150040627,-41.3495826721,0
4.800000000000001,15.887472972323563,-0.659681329732798,390.79266281351704,0.409999996424,317.0,-3.1775662899,-0.0721150040627,-41.3495826721,0
4.9,15.89090347025837,-0.7310186112569971,390.75056236551535,0.409999996424,317.0,-3.1775662899,-0.0721150040627,-41.3495826721,0
5.0,15.89433396819318,-0.802355892781196,390.7084619175137,0.409999996424,317.0,-3.1775662899,-0.0721150040627,-41.3495826721,0
5.1000000000000005,15.89776446612799,-0.8736931743053956,390.666361469512,0.409999996424,317.0,-4.05985736847,3.92310571671,-42.1572799683,0
5.2,15.897721997151203,-0.8816582147621974,390.61650855315764,0.4118780436588648,317.09390231136933,-4.05985736847,3.92310571671,-42.1572799683,0
5.300000000000001,15.891853223655673,-0.7833089758455929,390.5536499726134,0.41690673280004203,317.34533663354625,-4.05985736847,3.92310571671,-42.1572799683,0
5.4,15.88598445016014,-0.6849597369289893,390.4907913920692,0.4219354219412192,317.5967709557232,-4.05985736847,3.92310571671,-42.1572799683,0
5.5,15.880115676664609,-0.5866104980123856,390.42793281152495,0.4269641110823964,317.8482052779001,-4.50496959686,8.85128879547,-42.5212898254,0
5.6000000000000005,15.87712552909048,-0.5581476218629853,390.34838365812243,0.4324000852360231,318.240007798766,-4.50496959686,8.85128879547,-42.5212898254,0
5.7,15.878520788738287,-0.6361522647182879,390.2434074569723,0.43845653272788515,318.8456525238879,-4.50496959686,8.85128879547,-42.5212898254,0
5.800000000000001,15.879916048386095,-0.7141569075735912,390.1384312558221,0.4445129802197472,319.4512972490098,-4.50496959686,8.85128879547,-42.5212898254,0
5.9,15.881311308033903,-0.7921615504288939,390.033455054672,0.4505694277116093,320.05694197413175,-4.67259788513,15.2377691269,-41.8948020935,0
6.0,15.88270656768171,-0.8701661932841964,389.9284788535218,0.45662587520347137,320.66258669925367,-4.67259788513,15.2377691269,-41.8948020935,0
6.1000000000000005,15.894582218149093,-1.2208557607804396,389.80425301617373,0.4619336185278246,321.3867224053821,-4.67259788513,15.2377691269,-41.8948020935,0
6.2,15.919641347277768,-1.914560769890317,389.6558127031995,0.4662995529458212,322.2599101217405,-4.67259788513,15.2377691269,-41.8948020935,0
6.300000000000001,15.94593728356751,-2.4825318588775436,389.50730255196254,0.47126088040789643,323.2521763099595,-5.017804329912515,17.09053757437546,-41.13099407968072,0
6.4,15.979110480031697,-2.3513600995229624,389.3584040654068,0.4795328879817022,324.90657775898575,-6.04312086105,22.5478534698,-38.8759460449,0
6.5,16.012283676495883,-2.2201883401683817,389.209505578851,0.4878048955555079,326.560979208012,-6.04312086105,22.5478534698,-38.8759460449,0
6.6000000000000005,16.04545687296007,-2.0890165808137993,389.0606070922953,0.49607690312931363,328.2153806570383,-6.47401010422401,23.086577759103907,-36.800113331989216,0
6.7,16.077848855307113,-2.09979343866226,388.92795090895925,0.5035116646490934,329.58527799967567,-6.63010597229,23.2818965912,-36.0502891541,0
6.800000000000001,16.10953611436423,-2.238620333396528,388.8099467001714,0.5101911571834264,330.6985278170671,-6.63010597229,23.2818965912,-36.0502891541,0
6.9,16.141223373421344,-2.3774472281307952,388.6919424913835,0.5168706497177593,331.8117776344585,-6.493169494758998,23.885608635213565,-35.055914004547745,0
7.0,16.17291063247846,-2.5162741228650622,388.57393828259563,0.5235501422520923,332.92502745184987,-5.88574552536,26.5622615814,-30.6643981934,0
7.1000000000000005,16.203976280982324,-2.6355721789592006,388.45666518288317,0.5301231722833082,334.04928011058763,-5.88574552536,26.5622615814,-30.6643981934,0
7.2,16.217584720713795,-2.2064255353269915,388.3599244304715,0.5337063268472668,335.48253476015174,-5.88574552536,26.5622615814,-30.6643981934,0
7.300000000000001,16.231193160445265,-1.7772788916947782,388.2631836780598,0.5372894814112256,336.9157894097158,-5.88574552536,26.5622615814,-30.6643981934,0
7.4,16.23901612047118,-1.4451707147647577,388.17949911491746,0.5394748845761991,338.42010740204694,-3.86200404167,28.4200782776,-25.7253627777,0
7.5,16.22886805878832,-1.4144861846961523,388.13637005844595,0.537318552567422,340.1451643720534,-3.86200404167,28.4200782776,-25.7253627777,0
7.6000000000000005,16.218719997105456,-1.3838016546275467,388.0932410019745,0.5351622205586449,341.87022134205984,-3.86200404167,28.4200782776,-25.7253627777,0
7.7,16.208571935422594,-1.3531171245589413,388.05011194550303,0.5330058885498679,343.5952783120663,-2.81460404396,28.2236289978,-21.1022663116,0
7.800000000000001,16.19842387373973,-1.3224325944903357,388.0069828890316,0.5308495565410908,345.32033528207273,-2.81460404396,28.2236289978,-21.1022663116,0
7.9,16.170513356965728,-1.3280108106725441,387.9870610199615,0.52999997139,346.87924722601,-2.81460404396,28.2236289978,-21.1022663116,0
8.0,16.13105452997113,-1.3571653534946433,387.9822273691633,0.52999997139,348.33013951315945,-2.81460404396,28.2236289978,-21.1022663116,0
8.1,16.091595702976534,-1.3863198963167425,387.977393718365,0.52999997139,349.78103180030894,-2.6045320247228956,25.84288212962395,-16.33825387131683,0
8.200000000000001,16.052136875981937,-1.4154744391388419,387.9725600675668,0.52999997139,351.2319240874584,-2.49070906639,24.587638855,-13.5331144333,0
8.3,16.00605788251654,-1.0275648188324225,387.980534189123,0.5284947643535882,352.30104169438584,-2.49070906639,24.587638855,-13.5331144333,0
8.4,15.952532098680662,-0.17051451942716356,388.00291531936347,0.5252964033287121,352.94071450941703,-2.49070906639,24.587638855,-13.5331144333,0
8.5,15.899006314844783,0.6865357799780951,388.0252964496039,0.5220980423038359,353.58038732444817,-2.1589686367128915,23.258590858640787,-11.920631786817014,0
8.6,15.837148251951318,1.2227056501242004,388.06362282568097,0.5192835096638515,354.21494158391283,-1.31149327755,19.9399299622,-7.81813001633,0
8.700000000000001,15.759402123563248,1.1470177991392123,388.13235374155187,0.5172008644793517,354.8397357350665,-1.31149327755,19.9399299622,-7.81813001633,0
8.8,15.681655995175182,1.0713299481542256,388.2010846574228,0.5151182192948518,355.46452988622013,-0.6523814518609005,18.69256601580885,-6.502492006809988,0
8.9,15.603909866787117,0.9956420971692388,388.2698155732937,0.5130355741103519,356.08932403737384,-0.0139090400189,17.5147285461,-5.2312335968,0
9.0,15.526163738399049,0.9199542461842521,388.3385464891646,0.5109529289258521,356.7141181885275,-0.0139090400189,17.5147285461,-5.2312335968,0
9.1,15.45151123610705,0.911143851693967,388.4047321164865,0.5086105118086853,357.2778959958923,-0.0139090400189,17.5147285461,-5.2312335968,0
9.200000000000001,15.379468291888958,0.9587464176387223,388.46877072342613,0.5060489699740462,357.7902048514091,-0.0139090400189,17.5147285461,-5.2312335968,0
9.3,15.307425347670868,1.0063489835834765,388.5328093303657,0.5034874281394072,358.3025137069259,0.3347939050051161,14.911679451299763,-3.496635925990389,0
9.4,15.235382403452778,1.0539515495282308,388.5968479373053,0.5009258863047681,358.81482256244266,0.58603054285,13.1332359314,-2.24682188034,0
9.5,15.167874025936136,0.8998828880009244,388.6499501727649,0.5,291.78988189913434,0.58603054285,13.1332359314,-2.24682188034,0
9.600000000000001,15.102932505028514,0.631655331662265,388.6968617180746,0.5,186.5345111426892,0.58603054285,13.1332359314,-2.24682188034,0
9.700000000000001,15.037990984120892,0.36342777532361015,388.74377326338436,0.5,81.27914038624596,0.6041357310930388,13.357976504350384,-1.4967285193942812,0
9.8,14.974424013564748,0.187602150445223,388.7876551389899,0.5,0.13922508499054756,0.629245400429,13.6474628448,-0.450622260571,0
9.9,14.915516752615188,0.3250179919340761,388.8212664697515,0.5,0.7504215788936379,0.629245400429,13.6474628448,-0.450622260571,0
10.0,14.856609491665626,0.4624338334229292,388.85487780051307,0.5,1.3616180727967282,0.629245400429,13.6474628448,-0.450622260571,0
10.100000000000001,14.797702230716064,0.5998496749117848,388.8884891312746,0.5,1.9728145666998296,1.00843381882,14.3941230774,0.89596414566,0
10.200000000000001,14.752451524325773,0.4784339971312755,388.9009464083111,0.5,2.657495863681388,1.00843381882,14.3941230774,0.89596414566,0
10.3,14.707836523965941,0.34496983691994587,388.91241897434577,0.5,3.3455978428168143,1.00843381882,14.3941230774,0.89596414566,0
10.4,14.663221523606111,0.2115056767086163,388.92389154038045,0.5,4.033699821952241,0.6285764817993604,15.760220176385506,2.1383662264374896,0
10.5,14.61860652324628,0.07804151649728663,388.93536410641514,0.5,4.721801801087667,0.545159578323,16.0608139038,2.40947008133,0
10.600000000000001,14.584792787044128,-0.011623724515905692,388.92175355460387,0.5026067085485327,5.6516777586056826,0.545159578323,16.0608139038,2.40947008133,0
10.700000000000001,14.558309776684533,-0.07156301270036924,388.89111930468465,0.5069825679521672,6.745643652774891,0.545159578323,16.0608139038,2.40947008133,0
10.8,14.531826766324938,-0.13150230088483278,388.86048505476543,0.5113584273558018,7.8396095469441,0.25248326622526945,17.368355020013013,3.4529644061456706,0
10.9,14.505343755965344,-0.19144158906929631,388.8298508048462,0.5157342867594363,8.933575441113309,-0.449941158295,20.3559589386,5.95216703415,0
11.0,14.479164847991466,-0.25429684863772894,388.7989124091634,0.5200671908144238,10.026883980608774,-0.449941158295,20.3559589386,5.95216703415,0
11.100000000000001,14.464761050019247,-0.4300610672299957,388.75619722384823,0.5227368262492484,11.094739172952147,-0.449941158295,20.3559589386,5.95216703415,0
11.200000000000001,14.450357252047027,-0.6058252858222594,388.7134820385331,0.5254064616840731,12.1625943652955,-0.449941158295,20.3559589386,5.95216703415,0
11.3,14.435953454074808,-0.781589504414523,388.67076685321786,0.5280760971188978,13.230449557638856,-0.5672925466363203,24.866307202364098,10.17995832632343,0
11.4,14.424923381707819,-0.9757442939301001,388.6266089045091,0.5308916939017482,14.44585902354715,-0.578892946243,25.3117580414,10.6029043198,0
11.5,14.422596663987598,-1.2173420825603538,388.5787289929156,0.5340838338671915,16.041921015105636,-0.578892946243,25.3117580414,10.6029043198,0
11.600000000000001,14.420269946267377,-1.4589398711906116,388.5308490813221,0.5372759738326349,17.63798300666415,-0.578892946243,25.3117580414,10.6029043198,0
11.700000000000001,14.419556636923792,-1.627152565194739,388.47826733523175,0.5406336994201951,19.22178749828703,-0.309880226851,27.527463913,14.965675354,0
11.8,14.428232503349214,-1.368303169868234,388.3983234214673,0.5449550449649769,20.73425988140558,-0.309880226851,27.527463913,14.965675354,0
11.9,14.436908369774637,-1.1094537745417288,388.3183795077028,0.5492763905097587,22.246732264524134,-0.309880226851,27.527463913,14.965675354,0
12.0,14.445584236200059,-0.8506043792152239,388.23843559393833,0.5535977360545407,23.759204647642687,-0.5838261575864212,28.55441956775023,17.689650982699337,0
12.100000000000001,14.454260102625481,-0.5917549838887144,388.1584916801739,0.5579190815993226,25.271677030761264,-0.728620529175,29.095205307,19.1825618744,0
12.200000000000001,14.47269593477088,-0.5581443146911772,388.06324349151623,0.5639594817795226,26.79189663430993,-0.728620529175,29.095205307,19.1825618744,0
12.3,14.500196885230489,-0.7337368086894523,387.95378059487706,0.5715965508523977,28.319311905529993,-0.728620529175,29.095205307,19.1825618744,0
12.4,14.527697835690098,-0.9093293026877275,387.8443176982379,0.5792336199252729,29.846727176750058,-0.749623693182053,29.412987133739165,21.420229272424358,0
12.5,14.555198786149708,-1.0849217966860025,387.73485480159866,0.5868706889981481,31.374142447970122,-0.799304366112,30.1644916534,26.6981277466,0
12.600000000000001,14.58993256563904,-1.200993191922315,387.6347488024855,0.5914932193786664,32.895942876993,-0.799304366112,30.1644916534,26.6981277466,0
12.700000000000001,14.629687344421532,-1.2757452923732047,387.5411383220235,0.5940230697606232,34.41384550633226,-0.799304366112,30.1644916534,26.6981277466,0
12.8,14.669442123204021,-1.3504973928240944,387.4475278415616,0.5965529201425802,35.931748135671526,-0.2493303537788647,30.475984526823005,29.930072159280993,0
12.9,14.70919690198651,-1.4252494932749844,387.3539173610997,0.5990827705245371,37.449650765010794,0.209009557962,30.7355232239,32.6195678711,0
13.0,14.748293259491824,-1.4836320654993298,387.2755353131621,0.6014336303386891,39.146886291136774,0.209009557962,30.7355232239,32.6195678711,0
13.100000000000001,14.78701510366453,-1.5327035677721677,387.20581527420387,0.6036826794180158,40.94612727053419,0.209009557962,30.7355232239,32.6195678711,0
13.200000000000001,14.825736947837234,-1.5817750700450046,387.13609523524565,0.6059317284973423,42.74536824993158,0.4308474530495808,30.827919526233735,34.220601409067704,0
13.3,14.86445879200994,-1.6308465723178416,387.06637519628737,0.6081807775766689,44.54460922932897,1.12418055534,31.1169548035,39.2162361145,0
13.4,14.904207695246797,-1.694864873188534,386.9973640051093,0.6109706080724345,46.38823787723631,1.12418055534,31.1169548035,39.2162361145,0
13.5,14.948303759674683,-1.822147444890917,386.93135310443824,0.6160493663119151,48.41974311047504,1.12418055534,31.1169548035,39.2162361145,0
13.600000000000001,14.987329647805664,-1.8306555288514328,386.8704476582004,0.6205973170773803,50.41811901528451,1.12418055534,31.1169548035,39.2162361145,0
13.700000000000001,15.008599944950193,-1.423219254968667,386.82742134582463,0.6232863974901688,52.30047709925307,1.2343454361,31.1067142487,46.5372200012,0
13.8,15.029870242094722,-1.0157829810859011,386.7843950334489,0.6259754779029572,54.18283518322164,1.2343454361,31.1067142487,46.5372200012,0
13.9,15.051140539239253,-0.6083467072031354,386.7413687210731,0.6286645583157456,56.0651932671902,2.07937431335,31.1090221405,50.7504653931,0
14.0,15.059832613885053,-0.4081804363694919,386.7227023425838,0.6313512970735237,57.81078187815688,2.07937431335,31.1090221405,50.7504653931,0
14.100000000000001,15.056115643823977,-0.41249637552149093,386.7280682555159,0.6340357256716815,59.421440573136806,2.07937431335,31.1090221405,50.7504653931,0
14.200000000000001,15.0523986737629,-0.4168123146734899,386.73343416844796,0.6367201542698394,61.03209926811671,2.07937431335,31.1090221405,50.7504653931,0
14.3,15.048681703701824,-0.4211282538254888,386.73880008138,0.6394045828679973,62.64275796309661,4.57657146454,32.3232040405,57.5892333984,0
14.4,15.033325728730343,-0.3909729435737294,386.794439319833,0.6376327494766326,64.65706693320192,4.57657146454,32.3232040405,57.5892333984,0
14.5,15.014652467527721,-0.3509928242512963,386.8644071896275,0.634590816394272,66.78642212162039,4.57657146454,32.3232040405,57.5892333984,0
14.600000000000001,14.9959792063251,-0.3110127049288625,386.93437505942205,0.6315488833119113,68.9157773100389,6.666920463499684,33.6106109619,63.81213790059891,0
14.700000000000001,14.976129713502205,0.027286106275961286,387.03232838429494,0.6261043927224677,70.77912124492843,6.67641925812,33.6106109619,63.8302955627,0
14.8,14.955059995479893,0.6750613666925379,387.159313880141,0.6181674838349034,72.36650453627583,6.67641925812,33.6106109619,63.8302955627,0
14.9,14.93399027745758,1.3228366271091145,387.286299375987,0.6102305749473391,73.95388782762322,6.8545889321417866,32.186209811706796,66.71904538289374,0
15.0,14.91292055943527,1.9706118875256913,387.41328487183307,0.6022936660597747,75.54127111897061,7.06871891022,30.4737739563,70.4335784912,0
15.100000000000001,14.87984503069714,2.2318379022557893,387.54692100792204,0.5944607278151174,76.96937628468255,7.06871891022,30.4737739563,70.4335784912,0
15.200000000000001,14.841889875330018,2.3359553270442097,387.68326022187864,0.5866700472679844,78.33274464905186,7.06871891022,30.4737739563,70.4335784912,0
15.3,14.803934719962896,2.4400727518326297,387.8195994358352,0.5788793667208515,79.69611301342115,6.3188132122842235,27.391965138314283,74.78590078202679,0
15.4,14.765979564595776,2.54419017662105,387.9559386497918,0.5710886861737187,81.05948137779046,5.98310232162,26.0109462738,76.7539596558,0
15.5,14.728024409228654,2.6483076014094706,388.0922778637484,0.5632980056265857,82.42284974215977,5.98310232162,26.0109462738,76.7539596558,0
15.600000000000001,14.677130574117259,2.5940373653721753,388.22733275097494,0.5563170534262575,83.36829524701744,5.98310232162,26.0109462738,76.7539596558,0
15.700000000000001,14.616738659161983,2.423497256477546,388.3614448342934,0.5499305099787397,84.00695020085443,5.98310232162,26.0109462738,76.7539596558,0
15.8,14.556346744206708,2.252957147582917,388.49555691761196,0.5435439665312221,84.64560515469144,5.684548331470392,22.586760907145887,79.08833267069146,0
15.9,14.489282776448562,2.0826134687835105,388.6298117741742,0.5381590109622703,85.18410067648374,5.15848350525,16.6036224365,83.1859359741,0
16.0,14.413900578133184,1.9125146847516843,388.7642446300409,0.5340227623720251,85.59772469727851,5.15848350525,16.6036224365,83.1859359741,0
16.1,14.338518379817803,1.7424159007198554,388.8986774859076,0.5298865137817798,86.01134871807328,5.173439355521869,14.430623884598507,84.06912911744658,0
16.2,14.263136181502427,1.5723171166880325,389.0331103417743,0.5257502651915346,86.42497273886804,5.19545459747,11.3658494949,85.3672714233,0
16.3,14.187753983187045,1.4022183326562034,389.16754319764107,0.5216140166012893,86.8385967596628,5.19545459747,11.3658494949,85.3672714233,0
16.400000000000002,14.117518927881244,1.4031701119058297,389.30341064653277,0.5173520857045962,86.86760511262143,5.19545459747,11.3658494949,85.3672714233,0
16.5,14.050577675563119,1.5135820043350292,389.4401961322427,0.5130097271307036,86.65048697687209,5.19545459747,11.3658494949,85.3672714233,0
16.6,13.98363642324499,1.6239938967642327,389.57698161795264,0.5086673685568108,86.43336884112274,5.30636284027723,7.8605667290896815,86.38995750891803,0
16.7,13.916695170926864,1.7344057891934321,389.7137671036626,0.5043250099829183,86.2162507053734,5.40350341797,4.79334259033,87.3860397339,0
16.8,13.849816040202624,1.8438506868504594,389.85045376743653,0.4999776164745928,85.99888082433002,5.40350341797,4.79334259033,87.3860397339,0
16.900000000000002,13.79842384522483,1.7122234392688325,389.96250408695516,0.4943750119974486,85.71875075074858,5.40350341797,4.79334259033,87.3860397339,0
17.0,13.74703165024704,1.5805961916872104,390.07455440647374,0.4887724075203046,85.43862067716717,5.40350341797,4.79334259033,87.3860397339,0
17.1,13.695639455269248,1.4489689441055835,390.18660472599237,0.4831698030431604,85.15849060358573,4.502280790792462,3.1454212950759066,86.53486496977163,0
17.2,13.651324894359844,1.2995452299825294,390.281454590663,0.4789853180340322,85.0,4.31947374344,2.82602643967,86.3401107788,0
17.3,13.616232163301373,1.1269335430415595,390.3538930581868,0.47664857710378294,85.0,4.31947374344,2.82602643967,86.3401107788,0
17.400000000000002,13.5811394322429,0.9543218561005897,390.4263315257107,0.4743118361735337,85.0,3.98864072785965,2.513628291821226,86.25664870176716,0
17.5,13.546046701184428,0.7817101691596261,390.4987699932345,0.47197509524328446,85.0,2.76051282883,1.35312533379,85.9317779541,0
17.6,13.514122766296497,0.6410384094468231,390.56258965082316,0.469999998808,84.95679671124066,2.76051282883,1.35312533379,85.9317779541,0
17.7,13.49950499286746,0.6748043566255473,390.57933827313707,0.469999998808,84.67764164439754,2.76051282883,1.35312533379,85.9317779541,0
17.8,13.484887219438422,0.7085703038042725,390.5960868954509,0.469999998808,84.39848657755441,2.76051282883,1.35312533379,85.9317779541,0
17.900000000000002,13.470269446009382,0.7423362509829979,390.61283551776484,0.469999998808,84.11933151071129,1.82571041584,1.59373819828,85.8551712036,0
18.0,13.461385262076405,0.6474612638988597,390.6180562468734,0.469999998808,83.80630213330906,1.82571041584,1.59373819828,85.8551712036,0
18.1,13.45678203592539,0.4565371248847138,390.6146697284347,0.469999998808,83.4679806603537,1.82571041584,1.59373819828,85.8551712036,0
18.2,13.452178809774374,0.2656129858705747,390.611283209996,0.469999998808,83.12965918739837,1.1145113761751784,1.192025323769956,84.94143988776182,0
18.3,13.456164659895737,0.1199663906492256,390.58270998167126,0.47151535737271405,82.84846399900871,0.997117459774,1.132188797,84.7859344482,0
18.400000000000002,13.465487615603799,0.002454489342006899,390.53848616115476,0.4739723339188162,82.60276611007642,0.997117459774,1.132188797,84.7859344482,0
18.5,13.47481057131186,-0.1150574119652076,390.4942623406383,0.47642931046491827,82.35706822114413,0.7712706710296279,0.8363833169968031,84.21881583825291,0
18.6,13.484133527019921,-0.23256931327242633,390.4500385201218,0.47888628701102043,82.11137033221185,0.50552213192,0.488092035055,83.5521240234,0
18.7,13.497497075836979,-0.3796431202592901,390.4018684105541,0.48104167322791,82.0,0.50552213192,0.488092035055,83.5521240234,0
18.8,13.514210660997051,-0.5512265612835718,390.35042645168465,0.4829470123511406,82.0,0.50552213192,0.488092035055,83.5521240234,0
18.900000000000002,13.530924246157124,-0.7228100023078535,390.2989844928153,0.4848523514743712,82.0,0.39591109096611715,0.7831108790340668,83.36367877882194,0
19.0,13.547637831317195,-0.8943934433321292,390.2475425339459,0.4867576905976017,82.0,0.102977372706,1.57112622261,82.8613128662,0
19.1,13.564351416477267,-1.0659768843564108,390.1961005750765,0.4886630297208323,82.0,0.102977372706,1.57112622261,82.8613128662,0
19.200000000000003,13.582792473286299,-1.1918982068710524,390.1415791010604,0.4908772769535891,81.91227317467602,0.102977372706,1.57112622261,82.8613128662,0
19.3,13.605297147421481,-1.2104062609616553,390.0798135306717,0.49381818406919586,81.61818218264077,0.102977372706,1.57112622261,82.8613128662,0
19.400000000000002,13.627801821556663,-1.2289143150522588,390.0180479602829,0.4967590911848027,81.3240911906055,0.102977372706,1.57112622261,82.8613128662,0
19.5,13.650306495691844,-1.2474223691428616,389.9562823898941,0.49969999830040945,81.03000019857024,-0.369954943657,2.7027015686,82.0311813354,0
19.6,13.667962913254621,-1.0478656213817144,389.8875652150941,0.5023118131247554,81.0,-0.369954943657,2.7027015686,82.0311813354,0
19.700000000000003,13.685068578335713,-0.8235371378440247,389.8180583516041,0.5048862437072796,81.0,-0.369954943657,2.7027015686,82.0311813354,0
19.8,13.702174243416803,-0.5992086543063431,389.7485514881142,0.5074606742898037,81.0,-0.2026277874551445,3.6843956583405104,81.72026632675387,0
19.900000000000002,13.719247312952035,-0.3784894622709831,389.6788814041725,0.51004444129371,81.0,-0.196009993553,3.7123529911,81.7080612183,0
20.0,13.733963219192855,-0.418778000710431,389.5974079511696,0.5133033763061038,81.0,-0.196009993553,3.7123529911,81.7080612183,0
20.1,13.748679125433673,-0.45906653914988027,389.51593449816664,0.5165623113184976,81.0,-0.196009993553,3.7123529911,81.7080612183,0
20.200000000000003,13.763395031674493,-0.49935507758932957,389.43446104516374,0.5198212463308916,81.0,-0.0797636955976,4.84885692596,81.3784408569,0
20.3,13.779252245136414,-0.8086169783933512,389.366749475882,0.522529706519118,80.74702719952803,-0.0797636955976,4.84885692596,81.3784408569,0
20.400000000000002,13.795175685160773,-1.1334865796028466,389.2998364665626,0.5252062243392943,80.47937516225066,-0.0797636955976,4.84885692596,81.3784408569,0
20.5,13.811099125185134,-1.4583561808123306,389.2329234572433,0.5278827421594705,80.21172312497329,0.15375330001164017,5.882387675682078,81.12842280448656,0
20.6,13.822517201023457,-1.6675347126149482,389.17167850555654,0.52999997139,80.0,0.246329814196,6.29251003265,81.0292282104,0
20.700000000000003,13.816879880192808,-1.4387559565456347,389.13189041446395,0.52999997139,80.0,0.246329814196,6.29251003265,81.0292282104,0
20.8,13.811242559362157,-1.2099772004763292,389.09210232337136,0.52999997139,80.0,0.246329814196,6.29251003265,81.0292282104,0
20.900000000000002,13.805605238531507,-0.9811984444070154,389.0523142322788,0.52999997139,80.0,1.09570908546,7.38168239594,80.4680175781,0
21.0,13.7949580353698,-0.9202153995495621,389.0200103525875,0.52999997139,80.0,1.09570908546,7.38168239594,80.4680175781,0
21.1,13.777912382455852,-1.0735352775721894,388.9972650508074,0.52999997139,80.0,1.09570908546,7.38168239594,80.4680175781,0
21.200000000000003,13.760866729541906,-1.2268551555948168,388.9745197490273,0.52999997139,80.0,2.0064016829553695,7.172198573991521,80.41489944119927,0
21.3,13.741292092059771,-1.279680139369837,388.9569859379665,0.5307511939304639,80.07512187792618,3.08478188515,6.92410612106,80.352142334,0
21.400000000000002,13.717246017711275,-1.1548225146099842,388.94866643846154,0.532830634999632,80.28306494371364,3.08478188515,6.92410612106,80.352142334,0
21.5,13.693199943362778,-1.0299648898501357,388.9403469389565,0.5349100760688,80.4910080095011,3.08478188515,6.92410612106,80.352142334,0
21.6,13.669153869014282,-0.9051072650902829,388.93202743945153,0.536989517137968,80.69895107528856,3.2710287571,6.45591163635,80.6164169312,0
21.700000000000003,13.645107794665785,-0.7802496403304301,388.9237079399465,0.5390689582071362,80.90689414107604,3.2710287571,6.45591163635,80.6164169312,0
21.8,13.622709002022923,-0.5615759925851674,388.91876339555654,0.540000021458,80.8777949557477,3.2710287571,6.45591163635,80.6164169312,0
21.900000000000002,13.60164576588027,-0.2668397024310587,388.91655514285634,0.540000021458,80.65651047617375,3.2710287571,6.45591163635,80.6164169312,0
22.0,13.580582529737617,0.0278965877230396,388.91434689015614,0.540000021458,80.4352259965998,3.485418599021103,6.464454175533186,80.72373980629237,0
22.1,13.559519293594965,0.32263287787714845,388.9121386374559,0.540000021458,80.21394151702583,4.0910243988,6.48857975006,81.0269165039,0
22.200000000000003,13.538503783941854,0.5978617527000146,388.910003662,0.540000021458,80.01083486037807,4.0910243988,6.48857975006,81.0269165039,0
22.3,13.518878813530632,0.3047306499432081,388.910003662,0.540000021458,80.33734972740972,4.0910243988,6.48857975006,81.0269165039,0
22.400000000000002,13.49925384311941,0.011599547186391113,388.910003662,0.540000021458,80.66386459444138,4.0910243988,6.48857975006,81.0269165039,0
22.5,13.479628872708187,-0.28153155557041554,388.910003662,0.540000021458,80.99037946147301,3.84292316437,6.24220561981,80.9699554443,0
22.6,13.453611255149738,-0.14159370068075935,388.9125376954797,0.540000021458,80.74606969586124,3.84292316437,6.24220561981,80.9699554443,0
22.700000000000003,13.427399564354134,0.011491617628448136,388.9151486592309,0.540000021458,80.4844303668066,3.84292316437,6.24220561981,80.9699554443,0
22.8,13.40118787355853,0.16457693593765022,388.9177596229821,0.540000021458,80.222791037752,4.32123422623,6.05094194412,81.0294036865,0
22.900000000000002,13.375943540898682,0.29309653766920973,388.918828035103,0.540000021458,80.03849739674362,4.32123422623,6.05094194412,81.0294036865,0
23.0,13.35624690971336,0.280734229130342,388.91105006899284,0.540000021458,80.29777348628603,4.32123422623,6.05094194412,81.0294036865,0
23.1,13.336550278528039,0.26837192059147386,388.9032721028827,0.540000021458,80.55704957582847,4.32123422623,6.05094194412,81.0294036865,0
23.200000000000003,13.316853647342716,0.25600961205260564,388.8954941367725,0.540000021458,80.8163256653709,3.99382042885,5.4677901268,80.9927215576,0
23.3,13.29992417629565,0.24844179084952125,388.8858192064285,0.5408332089922852,80.91668116711031,3.99382042885,5.4677901268,80.9927215576,0
23.400000000000002,13.2897175160853,0.2525221684521033,388.87153560471353,0.543690624220181,80.63093937180878,3.99382042885,5.4677901268,80.9927215576,0
23.5,13.279510855874952,0.25660254605468524,388.85725200299856,0.5465480394480767,80.34519757650725,3.99382042885,5.4677901268,80.9927215576,0
23.6,13.269304195664601,0.2606829236572673,388.84296840128354,0.5494054546759726,80.05945578120571,3.87706756592,5.68822526932,81.1473007202,0
23.700000000000003,13.26296449719368,0.15262472897058843,388.8326434447058,0.550000011921,80.24510641897113,3.87706756592,5.68822526932,81.1473007202,0
23.8,13.257640828069642,0.015102555056594635,388.8233586069356,0.550000011921,80.55461360825363,3.87706756592,5.68822526932,81.1473007202,0
23.900000000000002,13.252317158945603,-0.1224196188574041,388.8140737691654,0.550000011921,80.86412079753616,3.690331417079823,6.066363763648906,81.05261344280623,0
24.0,13.248689248120462,-0.2047474430191928,388.8142722521327,0.550000011921,81.14249557065929,3.54279732704,6.36072254181,80.9781723022,0
24.1,13.246388417620604,-0.24388082392182778,388.82189226939363,0.550000011921,81.39650648426868,3.54279732704,6.36072254181,80.9781723022,0
24.200000000000003,13.244087587120745,-0.28301420482446277,388.8295122866546,0.550000011921,81.65051739787808,3.5157010542344174,6.473135792516345,81.00232215752303,0
24.3,13.241786756620886,-0.3221475857270964,388.83713230391555,0.550000011921,81.90452831148745,3.30042767525,7.1564655304,81.1937408447,0
24.400000000000002,13.227013286620389,-0.22910763477342913,388.8720849282276,0.5483954370329097,82.16045764183748,3.30042767525,7.1564655304,81.1937408447,0
24.5,13.204728842899621,-0.056473430971977545,388.92349713940234,0.5458245935521904,82.41754223509099,3.30042767525,7.1564655304,81.1937408447,0
24.6,13.182444399178852,0.11616077282948023,388.97490935057704,0.543253750071471,82.6746268283445,3.840174457440182,7.104565735657602,81.72411212382617,0
24.700000000000003,13.160159955458083,0.288794976630938,389.0263215617518,0.5406829065907517,82.93171142159801,4.44777965546,7.04636335373,82.3196411133,0
24.8,13.139463988944977,0.4681465331828313,389.07494244065043,0.5382518987191593,83.0,4.44777965546,7.04636335373,82.3196411133,0
24.900000000000002,13.119342583554996,0.6499277939332715,389.12255367899536,0.5358714701723728,83.0,4.44777965546,7.04636335373,82.3196411133,0
25.0,13.099221178165017,0.8317090546837054,389.17016491734023,0.5334910416255864,83.0,4.527311613370926,7.520294747381279,82.78469961497325,0
25.1,13.079099772775038,1.0134903154341455,389.21777615568516,0.5311106130787998,83.0,4.6006731987,7.9531712532,83.2149658203,0
25.200000000000003,13.054581034933452,1.0308568424607756,389.25554786461737,0.52999997139,83.1555668103756,4.6006731987,7.9531712532,83.2149658203,0
25.3,13.026216091951577,0.9044150945962078,389.28471325391797,0.52999997139,83.44720290191442,4.6006731987,7.9531712532,83.2149658203,0
25.400000000000002,12.997851148969698,0.7779733467316357,389.3138786432185,0.52999997139,83.73883899345326,4.414396169454596,7.84129041539001,83.39510944099518,0
25.5,12.96956397552486,0.6581699100155826,389.34379824302727,0.52999997139,84.0237613625821,4.11624622345,7.66697025299,83.6838378906,0
25.6,12.941943260289314,0.5952545187887135,389.38018116772906,0.52999997139,84.25114943762381,4.11624622345,7.66697025299,83.6838378906,0
25.700000000000003,12.914322545053766,0.5323391275618443,389.41656409243086,0.52999997139,84.47853751266553,4.11624622345,7.66697025299,83.6838378906,0
25.8,12.88670182981822,0.46942373633497747,389.45294701713266,0.52999997139,84.70592558770723,4.49178981781,8.172706604,84.1942062378,0
25.900000000000002,12.859081114582672,0.40650834510810835,389.48932994183446,0.52999997139,84.93331366274893,4.49178981781,8.172706604,84.1942062378,0
26.0,12.840508441046419,0.36409101630708407,389.52426275569877,0.5277939746715109,85.0,4.49178981781,8.172706604,84.1942062378,0
26.1,12.825690429833774,0.330179760450361,389.5585938176363,0.5246725563579199,85.0,4.49178981781,8.172706604,84.1942062378,0
26.200000000000003,12.810872418621129,0.2962685045936379,389.5929248795738,0.5215511380443288,85.0,4.341462803069846,8.339570436866849,84.81616692811794,0
26.3,12.795541695072307,0.4020722418905018,389.6221002884917,0.519999980927,84.87885802837783,4.23157787323,8.46163749695,85.2723464966,0
26.400000000000002,12.77970449693741,0.6458911747125773,389.646182768988,0.519999980927,84.63804792005566,4.23157787323,8.46163749695,85.2723464966,0
26.5,12.763867298802513,0.8897101075346442,389.6702652494843,0.519999980927,84.3972378117335,3.9228932377186445,7.403927441893539,85.31435547429318,0
26.6,12.748030100667616,1.1335290403567198,389.6943477299806,0.519999980927,84.15642770341132,3.8061311245,7.01593828201,85.3302001953,0
26.700000000000003,12.7350216693748,1.206231213206407,389.7082453736212,0.519999980927,84.0,3.8061311245,7.01593828201,85.3302001953,0
26.8,12.727257192684371,0.9617179451599743,389.70326241483474,0.519999980927,84.0,3.8061311245,7.01593828201,85.3302001953,0
26.900000000000002,12.719492715993942,0.7172046771135329,389.6982794560482,0.519999980927,84.0,3.8049774083071304,6.981068614412882,85.32248797537221,0
27.0,12.711728239303513,0.47269140906710005,389.69329649726177,0.519999980927,84.0,3.7641620636,5.73392677307,84.971244812,0
27.1,12.711588598681386,0.2888731753019945,389.6782831245725,0.5208369865844915,84.0,3.7641620636,5.73392677307,84.971244812,0
27.200000000000003,12.726320532130787,0.2234352830948187,389.64370630920894,0.5233064983735471,84.0,3.7641620636,5.73392677307,84.971244812,0
27.3,12.741052465580186,0.1579973908876452,389.6091294938454,0.5257760101626026,84.0,3.7641620636,5.73392677307,84.971244812,0
27.400000000000002,12.755784399029585,0.09255949868046934,389.57455267848184,0.5282455219516582,84.0,2.40699076653,3.45808339119,84.8119506836,0
27.5,12.772114550976175,-0.012015390119851983,389.536671012469,0.5306658747170516,83.93341000069765,2.40699076653,3.45808339119,84.8119506836,0
27.6,12.79236603026149,-0.2126153061401178,389.4906806922113,0.5329656127956739,83.70343734426251,2.40699076653,3.45808339119,84.8119506836,0
27.700000000000003,12.812617509546804,-0.41321522216038364,389.4446903719536,0.5352653508742962,83.47346468782739,2.40699076653,3.45808339119,84.8119506836,0
27.8,12.832868988832118,-0.6138151381806424,389.39870005169587,0.5375650889529183,83.24349203139226,1.38130378723,2.15811514854,84.6835708618,0
27.900000000000002,12.853120468117432,-0.8144150542009082,389.35270973143815,0.5398648270315406,83.01351937495713,1.38130378723,2.15811514854,84.6835708618,0
28.0,12.870970224630115,-0.8637155022671115,389.3163299486342,0.540000021458,82.78952884743775,1.38130378723,2.15811514854,84.6835708618,0
28.1,12.888669972833917,-0.9035659931688029,389.2805504268126,0.540000021458,82.56591195548214,1.38130378723,2.15811514854,84.6835708618,0
28.200000000000003,12.90636972103772,-0.9434164840704944,389.24477090499107,0.540000021458,82.3422950635265,2.1612707070221324,1.9108816902130283,83.48709149079663,0
28.3,12.924069469241521,-0.9832669749721844,389.20899138316946,0.540000021458,82.11867817157089,2.19139671326,1.90129756927,83.4418640137,0
28.400000000000002,12.935162021791738,-0.9288406385380823,389.18292947489243,0.5414140954964985,82.0,2.19139671326,1.90129756927,83.4418640137,0
28.5,12.938782309609701,-0.7677939674105803,389.167857491052,0.5444273859228052,82.0,2.19139671326,1.90129756927,83.4418640137,0
28.6,12.942402597427666,-0.6067472962830726,389.15278550721155,0.547440676349112,82.0,2.19139671326,1.90129756927,83.4418640137,0
28.700000000000003,12.945186705212853,-0.4146433579446128,389.14651009479144,0.5495649303782388,81.91298360846022,3.11345720291,5.397108078,82.4741744995,0
28.8,12.943256543987468,-0.047442781768936015,389.18982855261567,0.546676918421315,81.33538066621554,3.11345720291,5.397108078,82.4741744995,0
28.900000000000002,12.941326382762083,0.31975779440675384,389.23314701043984,0.5437889064643912,80.75777772397085,3.11345720291,5.397108078,82.4741744995,0
29.0,12.939396221536699,0.6869583705824307,389.276465468264,0.5409008945074674,80.18017478172615,4.58529424667,3.29708194733,82.019241333,0
29.1,12.926661608681133,0.8587299590827375,389.35249237222337,0.5372821307666446,79.86410574082873,4.58529424667,3.29708194733,82.019241333,0
29.200000000000003,12.909028777965014,0.9419034594369152,389.44334770991856,0.5333320793712474,79.66660357130691,4.58529424667,3.29708194733,82.019241333,0
29.3,12.891395947248895,1.0250769597910898,389.53420304761374,0.5293820279758504,79.46910140178508,4.942155952469416,4.894695033651772,81.51393343101348,0
29.400000000000002,12.873763116532777,1.1082504601452676,389.625058385309,0.5254319765804534,79.27159923226324,5.35805416107,6.734770298,80.9201583862,0
29.5,12.856130285816658,1.191423960499442,389.7159137230042,0.5214819251850563,79.07409706274142,5.35805416107,6.734770298,80.9201583862,0
29.6,12.852166882941928,1.2315725339335961,389.78831079003606,0.519999980927,79.4507604915819,5.35805416107,6.734770298,80.9201583862,0
29.700000000000003,12.856411118136867,1.245887324693662,389.84962481783947,0.519999980927,80.17217451847924,5.35805416107,6.734770298,80.9201583862,0
29.8,12.860655353331806,1.2602021154537273,389.9109388456429,0.519999980927,80.89358854537653,4.751625276655035,6.6630791388503985,80.31650853209021,0
29.900000000000002,12.89057618777854,1.0898502015085538,389.9070218817189,0.519999980927,81.37043783567692,4.05090856552,6.5867061615,79.6210708618,0
30.0,12.924939742303769,0.8875461404438207,389.8918182581463,0.519999980927,81.80497106008725,4.05090856552,6.5867061615,79.6210708618,0
30.1,12.959303296828997,0.6852420793790805,389.87661463457374,0.519999980927,82.2395042844976,1.38509202003,7.784294528975005,81.22118606049727,0
30.200000000000003,12.993666851354227,0.48293801831434036,389.8614110110012,0.519999980927,82.67403750890794,1.38509202003,7.78456306458,81.2325286865,0
30.3,13.027345819043655,0.2712421672899413,389.84203188671324,0.520664356473252,83.0,1.38509202003,7.78456306458,81.2325286865,0
30.400000000000002,13.058969448028574,0.031349295231405505,389.8101166343809,0.5233233902617224,83.0,1.38509202003,7.78456306458,81.2325286865,0
30.5,13.090593077013489,-0.20854357682712182,389.77820138204856,0.5259824240501927,83.0,1.38509202003,7.78456306458,81.2325286865,0
30.6,13.122216705998408,-0.44843644888565776,389.7462861297162,0.528641457838663,83.0,1.77958774567,10.5872516632,83.4854125977,0
30.700000000000003,13.142443611529202,-0.4824480371536902,389.7242642746223,0.52999997139,83.0,1.77958774567,10.5872516632,83.4854125977,0
30.8,13.15076558639364,-0.30139760177143854,389.71257698706023,0.52999997139,83.0,1.77958774567,10.5872516632,83.4854125977,0
30.900000000000002,13.159087561258076,-0.12034716638918042,389.7008896994982,0.52999997139,83.0,2.1956950492193408,9.273048117708901,83.41298936616771,0
31.0,13.167409536122515,0.06070326899307121,389.6892024119361,0.52999997139,83.0,2.77663874626,7.43915081024,83.3119354248,0
31.1,13.173690723451754,0.2178823497918733,389.68152686609784,0.52999997139,83.05114175139803,2.77663874626,7.43915081024,83.3119354248,0
31.200000000000003,13.172385746236912,0.28632508707765336,389.6887640597292,0.52999997139,83.29239135796819,2.77663874626,7.43915081024,83.3119354248,0
31.3,13.171080769022069,0.354767824363431,389.6960012533605,0.52999997139,83.53364096453832,2.77663874626,7.43915081024,83.3119354248,0
31.400000000000002,13.169775791807226,0.4232105616492111,389.70323844699186,0.52999997139,83.77489057110846,2.82305002213,5.72091579437,83.6292572021,0
31.5,13.167480285526835,0.4757285803723799,389.7112826324659,0.52999997139,84.0,2.82305002213,5.72091579437,83.6292572021,0
31.6,13.151369724871852,0.3061422101432334,389.73058205170724,0.52999997139,84.0,2.82305002213,5.72091579437,83.6292572021,0
31.700000000000003,13.135259164216867,0.13655583991408687,389.74988147094865,0.52999997139,84.0,2.82305002213,5.72091579437,83.6292572021,0
31.8,13.119148603561882,-0.0330305303150536,389.76918089019006,0.52999997139,84.0,3.8645772934,6.62353992462,84.0468597412,0
31.900000000000002,13.100413544550129,0.12426111694322828,389.76783870525543,0.52999997139,84.0,3.8645772934,6.62353992462,84.0468597412,0
32.0,13.081563787267559,0.2958382916730204,389.765594421716,0.52999997139,84.0,3.8645772934,6.62353992462,84.0468597412,0
32.1,13.062714029984985,0.46741546640281856,389.7633501381766,0.52999997139,84.0,4.06033468246,6.36097478867,84.2830200195,0
32.2,13.043864272702413,0.6389926411326169,389.76110585463715,0.52999997139,84.0,4.06033468246,6.36097478867,84.2830200195,0
32.300000000000004,13.036719106893747,0.46979541613312614,389.7485307729369,0.52999997139,84.0,4.06033468246,6.36097478867,84.2830200195,0
32.4,13.041372046971457,-0.042898842516377655,389.7255423546529,0.52999997139,84.0,4.06033468246,6.36097478867,84.2830200195,0
32.5,13.046024987049167,-0.5555931011659179,389.70255393636893,0.52999997139,84.0,3.657843246387015,6.661280681231505,84.2014325206562,0
32.6,13.050513484237383,-1.05923145426598,389.6792851241089,0.5300471436715267,84.0,2.9555978775,7.15481185913,84.0627212524,0
32.7,13.046316577936409,-1.0845627556064115,389.6412067033253,0.5325858210574917,84.0,2.9555978775,7.15481185913,84.0627212524,0
32.800000000000004,13.042119671635435,-1.1098940569468432,389.60312828254166,0.5351244984434568,84.0,2.9555978775,7.15481185913,84.0627212524,0
32.9,13.03792276533446,-1.135225358287273,389.565049861758,0.5376631758294217,84.0,3.35542392731,9.1773481369,84.0824050903,0
33.0,13.033476016026999,-1.1366621573997542,389.525284229751,0.5401813432923069,84.03626440144676,3.35542392731,9.1773481369,84.0824050903,0
33.1,13.026136537918562,-0.8614439652392836,389.46598375237085,0.5424620430508427,84.49240478817498,3.35542392731,9.1773481369,84.0824050903,0
33.2,13.018797059810126,-0.5862257730788131,389.40668327499077,0.5447427428093784,84.94854517490322,3.35542392731,9.1773481369,84.0824050903,0
33.300000000000004,13.01145758170169,-0.31100758091834246,389.34738279761063,0.5470234425679141,85.40468556163145,3.99869418144,7.80103826523,84.8266525269,0
33.4,13.004118103593255,-0.035789388757891505,389.2880823202305,0.5493041423264498,85.86082594835965,3.99869418144,7.80103826523,84.8266525269,0
33.5,12.988250157535026,-0.08034981435989769,389.2561826517324,0.550000011921,85.82739150147624,3.99869418144,7.80103826523,84.8266525269,0
33.6,12.968637519036418,-0.2653191128777541,389.23631417130747,0.550000011921,85.57899380571659,3.99869418144,7.80103826523,84.8266525269,0
33.7,12.949024880537811,-0.4502884113956106,389.21644569088255,0.550000011921,85.33059610995694,4.4877524796191315,7.470364106773227,85.36510962019184,0
33.800000000000004,12.929412242039204,-0.635257709913467,389.1965772104577,0.550000011921,85.08219841419731,5.05762434006,7.10430765152,86.0202941895,0
33.9,12.908764976843472,-0.5354271741156177,389.2262340228226,0.5482746299396917,84.82746163731933,5.05762434006,7.10430765152,86.0202941895,0
34.0,12.887606008630788,-0.29474106707615827,389.2803849274106,0.5456959129655061,84.5695896939683,5.05762434006,7.10430765152,86.0202941895,0
34.1,12.866447040418105,-0.05405496003669885,389.33453583199855,0.5431171959913206,84.31171775061728,5.37388867126631,5.86565304355537,85.62227785930341,0
34.2,12.845288072205422,0.18663114700276062,389.3886867365865,0.540538479017135,84.05384580726626,5.66508483887,4.72490501404,85.2468948364,0
34.300000000000004,12.822761484607698,0.3737385485570154,389.48981099630953,0.5364073301648652,83.82036579938095,5.66508483887,4.72490501404,85.2468948364,0
34.4,12.79987396006712,0.5467056605165324,389.60333228651007,0.5318664693545817,83.59332321897992,5.66508483887,4.72490501404,85.2468948364,0
34.5,12.776986435526542,0.7196727724760615,389.71685357671055,0.527325608544298,83.36628063857887,5.391872966919126,4.532436784898535,84.58539249850229,0
34.6,12.754098910985963,0.8926398844355908,389.8303748669111,0.5227847477340142,83.13923805817782,5.38900661469,4.53242063522,84.5793991089,0
34.7,12.735459537415915,1.0506994478630587,389.9408598959031,0.518895480922942,83.110450105731,5.38900661469,4.53242063522,84.5793991089,0
34.800000000000004,12.72355676780436,1.1851190203511188,390.0465301032424,0.5160394944130815,83.3960490290642,5.38900661469,4.53242063522,84.5793991089,0
34.9,12.711653998192809,1.3195385928391696,390.1522003105817,0.5131835079032211,83.68164795239737,5.38900661469,4.53242063522,84.5793991089,0
35.0,12.699751228581256,1.45395816532723,390.25787051792105,0.5103275213933606,83.96724687573057,3.67377638817,3.45059871674,83.9874954224,0
35.1,12.704949053878199,1.4018222478516107,390.3470882389613,0.5057168930736584,84.21415507370678,3.67377638817,3.45059871674,83.9874954224,0
35.2,12.712362055034076,1.325520316273521,390.4341747387976,0.5008789720662437,84.456051354774,3.67377638817,3.45059871674,83.9874954224,0
35.300000000000004,12.719775056189953,1.2492183846954314,390.5212612386339,0.49604105105882873,84.69794763584123,2.846894043241176,2.884006655810253,84.23080158464764,0
35.4,12.72718805734583,1.172916453117347,390.6083477384702,0.4912031300514142,84.93984391690843,2.46511077881,2.62216234207,84.3428649902,0
35.5,12.754376605095032,1.2765826886050493,390.6530872787664,0.490000009537,85.0,2.46511077881,2.62216234207,84.3428649902,0
35.6,12.788110867206274,1.4398184641968987,390.6838099573823,0.490000009537,85.0,2.46511077881,2.62216234207,84.3428649902,0
35.7,12.821845129317516,1.6030542397887482,390.71453263599824,0.490000009537,85.0,1.5665118037651462,3.5842215480859405,84.83999624958632,0
35.800000000000004,12.8570162003752,1.6228437364013029,390.74164733496906,0.490000009537,85.0,0.614096462727,4.59663915634,85.3652496338,0
35.9,12.899134497362365,0.949045048390439,390.7513168128434,0.490000009537,85.0,0.614096462727,4.59663915634,85.3652496338,0
36.0,12.941252794349532,0.2752463603795272,390.7609862907178,0.490000009537,85.0,0.614096462727,4.59663915634,85.3652496338,0
36.1,12.983810994990318,-0.3370188686136296,390.77070637655345,0.490000009537,85.0,0.1397351897329016,6.172147234141747,85.57728565903496,0
36.2,13.032308908548416,-0.11844062001969222,390.7811097864727,0.490000009537,85.0,-0.168901190162,7.19720935822,85.7151641846,0
36.300000000000004,13.080806822106515,0.10013762857424519,390.7915131963919,0.490000009537,85.0,-0.168901190162,7.19720935822,85.7151641846,0
36.4,13.12930473566461,0.3187158771681671,390.8019166063111,0.490000009537,85.0,-0.049754511565,7.38583278656,85.5593490601,0
36.5,13.175767705540096,0.487296433196606,390.8155932709586,0.490000009537,85.0,-0.049754511565,7.38583278656,85.5593490601,0
36.6,13.215150121505413,0.4819108197339909,390.84065917294095,0.490000009537,85.0,-0.049754511565,7.38583278656,85.5593490601,0
36.7,13.25453253747073,0.47652520627137585,390.8657250749233,0.490000009537,85.0,-0.049754511565,7.38583278656,85.5593490601,0
36.800000000000004,13.29391495343605,0.4711395928087608,390.8907909769057,0.490000009537,85.0,0.326264798641,6.18757724762,85.4017791748,0
36.9,13.333297369401363,0.4657539793461461,390.91585687888806,0.490000009537,85.0,0.326264798641,6.18757724762,85.4017791748,0
37.0,13.363156616249729,0.4189590861491632,390.93630421883137,0.4890984530623746,85.0,0.326264798641,6.18757724762,85.4017791748,0
37.1,13.380699642156497,0.31860997880585895,390.95077841792124,0.4870309224675324,85.0,0.326264798641,6.18757724762,85.4017791748,0
37.2,13.398242668063263,0.2182608714625548,390.9652526170111,0.4849633918726901,85.0,0.53513392079692,6.83710687648247,85.51250425114792,0
37.300000000000004,13.415785693970031,0.11791176411925058,390.97972681610105,0.4828958612778479,85.0,0.865101218224,7.86413288116,85.6870117188,0
37.4,13.433328719876798,0.017562656775953478,390.9942010151909,0.4808283306830058,85.0,0.865101218224,7.86413288116,85.6870117188,0
37.5,13.464017394787682,-0.08177651990846484,391.0085820323847,0.479999989271,85.68673024910038,0.865101218224,7.86413288116,85.6870117188,0
37.6,13.503493336089058,-0.180440604040756,391.0229007617338,0.479999989271,86.83250832728591,0.865101218224,7.86413288116,85.6870117188,0
37.7,13.542969277390435,-0.2791046881730472,391.03721949108285,0.479999989271,87.97828640547142,0.402456589581206,7.871164516495581,85.77911143266515,0
37.800000000000004,13.580796478051795,-0.3446059272757995,391.05208376309906,0.479999989271,89.05987859496044,0.0585811436176,7.87632131577,85.8474349976,0
37.9,13.60504573379206,-0.13699975802781855,391.0714407661769,0.479999989271,89.61287796622224,0.0585811436176,7.87632131577,85.8474349976,0
38.0,13.629294989532326,0.07060641122017713,391.0907977692547,0.479999989271,90.1658773374841,0.0585811436176,7.87632131577,85.8474349976,0
38.1,13.653544245272593,0.27821258046817277,391.1101547723326,0.479999989271,90.71887670874595,-1.03590703011,8.93460941315,89.6311187744,0
38.2,13.666731814732263,0.29094961839264255,391.1595721015902,0.47744661775586117,91.0,-1.03590703011,8.93460941315,89.6311187744,0
38.300000000000004,13.668481461245815,0.10218951997500764,391.2400721867548,0.47225302793203705,91.0,-1.03590703011,8.93460941315,89.6311187744,0
38.400000000000006,13.670231107759367,-0.08657057844262733,391.32057227191933,0.4670594381082129,91.0,0.22433780583234908,12.051441768121814,90.8901924971958,0
38.5,13.67198075427292,-0.27533067686024887,391.40107235708393,0.4618658482843891,91.0,0.805232048035,13.4876737595,91.4837417603,0
38.6,13.674935379417708,-0.09818081024186573,391.4866116349765,0.4585845099014814,91.5661982299501,0.805232048035,13.4876737595,91.4837417603,0
38.7,13.678565625427751,0.2841315387427613,391.5749763436799,0.4563753539951789,92.44985880164458,0.805232048035,13.4876737595,91.4837417603,0
38.800000000000004,13.682195871437793,0.6664438877273885,391.6633410523833,0.4541661980888764,93.33351937333906,0.9718856963253202,14.172637495279886,91.57064851425545,0
38.900000000000006,13.685826117447835,1.0487562367120153,391.7517057610867,0.45195704218257393,94.21717994503355,1.13463258743,14.8248281479,91.6557617188,0
39.0,13.690121879234797,1.3855942236163346,391.83751904004043,0.4496725054245855,95.09824489002051,1.13463258743,14.8248281479,91.6557617188,0
39.1,13.699584007815307,1.3694169367167277,391.9035256932277,0.4468027907601849,95.95916011039552,1.13463258743,14.8248281479,91.6557617188,0
39.2,13.70904613639582,1.3532396498171206,391.96953234641495,0.44393307609578436,96.82007533077054,1.13463258743,14.8248281479,91.6557617188,0
39.300000000000004,13.718508264976332,1.3370623629175138,392.03553899960224,0.4410633614313838,97.68099055114556,-0.429296284914,17.2364997864,95.9391479492,0
39.400000000000006,13.733124178475105,1.1910284622237841,392.07527490752096,0.439999997616,98.55561393884014,-0.429296284914,17.2364997864,95.9391479492,0
39.5,13.750774025496442,0.9685504840286809,392.0995457356979,0.439999997616,99.43830705956067,-0.429296284914,17.2364997864,95.9391479492,0
39.6,13.76842387251778,0.7460725058335619,392.1238165638748,0.439999997616,100.32100018028126,-0.48298444102047033,19.425902217141928,97.2713531581306,0
39.7,13.786073719539118,0.5235945276384428,392.14808739205176,0.439999997616,101.20369330100185,-0.550201952457,22.1631469727,98.944770813,0
39.800000000000004,13.805462857442226,0.3218754701069242,392.1709499610657,0.439999997616,102.09668445235205,-0.550201952457,22.1631469727,98.944770813,0
39.900000000000006,13.840884711518122,0.31151134149594556,392.18083125150514,0.439999997616,103.08460245231286,-0.550201952457,22.1631469727,98.944770813,0
40.0,13.876306565594017,0.3011472128849676,392.19071254194455,0.439999997616,104.0725204522736,-0.550201952457,22.1631469727,98.944770813,0
40.1,13.911728419669913,0.29078308427398897,392.200593832384,0.439999997616,105.06043845223441,0.0645510479808,23.9338951111,102.299407959,0
40.2,13.947174101917863,0.2754375935728778,392.2087596971453,0.44013686503831567,106.04106026585389,0.0645510479808,23.9338951111,102.299407959,0
40.300000000000004,13.983082763420851,0.1633046823122162,392.18359499417335,0.44293305425352225,106.87991783043431,0.0645510479808,23.9338951111,102.299407959,0
40.400000000000006,14.01899142492384,0.051171771051554626,392.1584302912014,0.4457292434687288,107.71877539501473,0.0645510479808,23.9338951111,102.299407959,0
40.5,14.054900086426827,-0.060961140209098985,392.13326558822945,0.44852543268393513,108.5576329595951,0.157729029655,27.1243000031,106.518852234,0
40.6,14.096159850321083,-0.18300254879271627,392.08597034388265,0.449999988079,109.76830738073517,0.157729029655,27.1243000031,106.518852234,0
40.7,14.143389873738315,-0.31609893187977334,392.01398391149075,0.449999988079,111.39382027185123,0.157729029655,27.1243000031,106.518852234,0
40.800000000000004,14.190619897155546,-0.4491953149668304,391.9419974790988,0.449999988079,113.01933316296727,0.17278033035583332,27.064514976073173,106.93428006645249,0
40.900000000000006,14.237849920572778,-0.5822916980538875,391.8700110467069,0.449999988079,114.64484605408333,0.273999750614,26.6634368896,109.727409363,0
41.0,14.293284172492308,-0.722157271918124,391.78740101479167,0.4520175459444465,116.36316032919568,0.273999750614,26.6634368896,109.727409363,0
41.1,14.389841504766745,-0.8959529071147571,391.6515409866417,0.46414796136842534,118.54663458492794,0.273999750614,26.6634368896,109.727409363,0
41.2,14.48639883704118,-1.0697485423113902,391.51568095849177,0.4762783767924042,120.73010884066021,0.273999750614,26.6634368896,109.727409363,0
