t_sec,airspeed,climb,altitude,throttle,heading,pitch,roll,yaw,is_boundary
0.0,23.641620636,3.19013595581,396.449981689,0.52999997139,218.0,-6.09405755997,-38.7072257996,-134.566833496,0
0.1,23.433882973518354,1.5787180575466846,396.41267950926704,0.5217102686302592,215.92757233369414,-6.09405755997,-38.7072257996,-134.566833496,0
0.2,23.22614531103671,-0.03269984071663101,396.37537732953405,0.5134205658705183,213.8551446673883,-6.09405755997,-38.7072257996,-134.566833496,0
0.30000000000000004,23.009404165423646,-0.3722827796257393,396.44221443895333,0.48581543179579584,212.35507833303308,-3.7567615509,-25.8602466583,-142.126052856,0
0.4,22.78633804805414,0.18160185166606457,396.5822096865076,0.44464115389667164,211.25709741453602,-3.7567615509,-25.8602466583,-142.126052856,0
0.5,22.56327193068464,0.7354864829578683,396.7222049340619,0.40346687599754744,210.15911649603896,-1.6105794154085165,-19.67943074868753,-145.50138691306577,0
0.6000000000000001,22.340205813315134,1.2893711142496729,396.8622001816162,0.3622925980984232,209.0611355775419,-1.13517951965,-18.327003479,-146.252380371,0
0.7000000000000001,22.13716568577084,1.6904692447987393,397.04091094227573,0.33287072203482004,208.72870714197984,-1.13517951965,-18.327003479,-146.252380371,0
0.8,21.935306351933622,2.082558615222683,397.2219044881878,0.304141803585375,208.44141802598085,-1.13517951965,-18.327003479,-146.252380371,0
0.9,21.73344701809641,2.4746479856466275,397.40289803409996,0.27541288513593,208.1541289099819,-0.622657060623,-28.4376735687,-150.851455688,0
1.0,21.54829932414358,2.582111338491596,397.5413276216535,0.25081570275745274,208.30614298738476,-0.622657060623,-28.4376735687,-150.851455688,0
1.1,21.382494847781295,2.3601286867524247,397.6304907150904,0.23100087988410678,208.9666372209531,-0.622657060623,-28.4376735687,-150.851455688,0
1.2000000000000002,21.21669037141901,2.1381460350132535,397.7196538085273,0.21118605701076082,209.6271314545214,-0.489055901766,-36.0573501587,-151.13225689296164,0
1.3,21.05018848732855,1.8960011215829378,397.795661147476,0.19614941782605647,209.7432943332702,-0.489055901766,-36.0573501587,-151.13293457,0
1.4000000000000001,20.88278250664318,1.6277185107853671,397.85461379609694,0.18730705987487647,209.15380382661397,-0.489055901766,-36.0573501587,-151.13293457,0
1.5,20.715376525957815,1.3594358999877971,397.9135664447179,0.17846470192369648,208.5643133199577,-0.456598669291,-21.928314209,-149.397613525,0
1.6,20.549632625427787,1.0972825811832791,397.96935433436346,0.17053909588514873,207.94609058707212,-0.456598669291,-21.928314209,-149.397613525,0
1.7000000000000002,20.421142051956306,0.9725092308003989,397.9542083398685,0.18316127072417257,206.6838730279416,-0.456598669291,-21.928314209,-149.397613525,0
1.8,20.29265147848482,0.847735880417519,397.93906234537354,0.19578344556319638,205.42165546881103,-0.456598669291,-21.928314209,-149.397613525,0
1.9000000000000001,20.16416090501334,0.722962530034639,397.9239163508786,0.20840562040222022,204.15943790968046,-5.02915859222,11.4495706558,-152.209335327,0
2.0,20.041442065571783,0.5439142050915977,397.89966909439397,0.22120162818964909,203.0720977457094,-5.02915859222,11.4495706558,-152.209335327,0
2.1,19.98383307301813,-0.24739990776468235,397.77275221183857,0.23595861279895602,203.95751661116626,-5.02915859222,11.4495706558,-152.209335327,0
2.2,19.92622408046448,-1.0387140206209624,397.6458353292832,0.25071559740826294,204.8429354766231,-5.02915859222,11.4495706558,-152.209335327,0
2.3000000000000003,19.86861508791083,-1.8300281334772426,397.5189184467278,0.26547258201756985,205.72835434207994,-6.37605381012,28.0296115875,-156.750518799,0
2.4000000000000004,19.86514385023404,-2.223872351797006,397.3330451167938,0.28160048732867843,207.1600476138753,-6.37605381012,28.0296115875,-156.750518799,0
2.5,19.885633068734318,-2.4418031061874856,397.1210786587465,0.29833513899401715,208.8335127139168,-6.37605381012,28.0296115875,-156.750518799,0
2.6,19.9061222872346,-2.659733860577967,396.9091122006992,0.3150697906593559,210.50697781395834,-9.05620002747,32.8688964844,-153.162368774,0
2.7,19.937098900333925,-2.887820778017891,396.69200428597844,0.3320585871334286,212.18527167288076,-9.05620002747,32.8688964844,-153.162368774,0
2.8000000000000003,20.054850396763754,-3.199941900081039,396.43235488978917,0.35115023059381945,213.9035196867235,-9.05620002747,32.8688964844,-153.162368774,0
2.9000000000000004,20.172601893193587,-3.5120630221441873,396.17270549359984,0.37024187405421033,215.6217677005663,-9.123679642222433,33.22441470660377,-152.93349006374234,0
3.0,20.29035338962342,-3.8241841442073334,395.9130560974105,0.3893335175146011,217.34001571440902,-10.5349798203,40.6762504578,-147.95451355,0
3.1,20.40810488605325,-4.136305266270481,395.6534067012212,0.40842516097499193,219.0582637282518,-10.5349798203,40.6762504578,-147.95451355,0
3.2,20.52585638248308,-4.44842638833363,395.39375730503184,0.42751680443538276,220.77651174209456,-10.5349798203,40.6762504578,-147.95451355,0
3.3000000000000003,20.70485742856243,-4.431941763624318,395.08544054603385,0.44445000711973504,223.02300071884886,-10.5349798203,40.6762504578,-147.95451355,0
3.4000000000000004,20.89301617044827,-4.366325814906456,394.7698473106069,0.46106049161013474,225.34846937918545,-10.5349798203,40.6762504578,-147.95451355,0
3.5,21.081174912334113,-4.300709866188595,394.45425407517996,0.4776709761005344,227.67393803952203,-10.8190441132,43.3485603333,-138.108795166,0
3.6,21.272976857615635,-4.465696100793335,394.1648442931896,0.4895207507580452,230.1421717814422,-10.8190441132,43.3485603333,-138.108795166,0
3.7,21.46537293416705,-4.668288791348227,393.87970449196916,0.5005941519136125,232.633687561175,-10.8190441132,43.3485603333,-138.108795166,0
3.8000000000000003,21.657769010718464,-4.870881481903119,393.5945646907487,0.5116675530691797,235.12520334090783,-9.873527221018453,44.776915214412384,-131.65215224660633,0
3.9000000000000004,21.856855876542408,-4.936942728588289,393.316936147835,0.5225637283596309,237.61529923714411,-9.83622646332,44.8337020874,-131.246505737,0
4.0,22.07628242206008,-4.5879549095625185,393.06214147127605,0.5329211454882162,240.10107875539472,-9.83622646332,44.8337020874,-131.246505737,0
4.1000000000000005,22.29570896757775,-4.238967090536745,392.80734679471703,0.5432785626168015,242.58685827364536,-9.66157271747675,44.34549391162896,-125.3540483725559,0
4.2,22.515135513095423,-3.889979271510974,392.5525521181581,0.5536359797453868,245.07263779189597,-9.56656742096,44.0878868103,-122.151023865,0
4.3,22.734562058613093,-3.540991452485203,392.29775744159906,0.563993396873972,247.5584173101466,-9.56656742096,44.0878868103,-122.151023865,0
4.4,22.921762978322015,-3.2493013296860807,392.095672722349,0.569999992847,250.2535920327457,-9.56656742096,44.0878868103,-122.151023865,0
4.5,23.064474293128672,-3.0367144609885868,391.96635758060864,0.569999992847,253.23785066531062,-9.56656742096,44.0878868103,-122.151023865,0
4.6000000000000005,23.20718560793533,-2.824127592291091,391.8370424388683,0.569999992847,256.2221092978756,-5.86769914627,43.836479187,-110.27671814,0
4.7,23.349896922741987,-2.6115407235935972,391.707727297128,0.569999992847,259.20636793044054,-5.86769914627,43.836479187,-110.27671814,0
4.800000000000001,23.458204050092736,-2.4688860854300567,391.6150521429648,0.5721358730398636,262.0679411148738,-5.86769914627,43.836479187,-110.27671814,0
4.9,23.514682622743432,-2.43158160094098,391.5775736884125,0.5774893727027534,264.74469349900363,-5.86769914627,43.836479187,-110.27671814,0
5.0,23.571161195394133,-2.394277116451904,391.5400952338601,0.5828428723656431,267.4214458831334,-4.23704767227,41.5385932922,-98.7536010742,0
5.1000000000000005,23.627639768044833,-2.3569726319628272,391.5026167793077,0.588196372028533,270.09819826726323,-4.23704767227,41.5385932922,-98.7536010742,0
5.2,23.66352904190787,-1.826000911621596,391.5246029355841,0.5921632289426805,272.7305954701989,-4.23704767227,41.5385932922,-98.7536010742,0
5.300000000000001,23.688957481094754,-1.0442109680596539,391.57680136229163,0.5954255722792131,275.34045707237004,-4.23704767227,41.5385932922,-98.7536010742,0
5.4,23.71438592028164,-0.26242102449771876,391.6289997889992,0.5986879156157457,277.95031867454105,-1.77120101452,43.290145874,-88.1479797363,0
5.5,23.714521591330474,0.17728031412209705,391.7156765456926,0.5984724866950073,280.527529498958,-1.77120101452,43.290145874,-88.1479797363,0
5.6000000000000005,23.69764041709549,0.38682618569758154,391.82555014678877,0.5959172303535878,283.0827730467841,-1.77120101452,43.290145874,-88.1479797363,0
5.7,23.680759242860503,0.5963720572730641,391.9354237478849,0.5933619740121684,285.6380165946102,-0.59979981527933,44.598663891564094,-83.2168650990986,0
5.800000000000001,23.663878068625518,0.8059179288485485,392.045297348981,0.5908067176707489,288.19326014243626,0.044848728925,45.3184089661,-80.4909667969,0
5.9,23.638901494206355,1.0049632711972605,392.16744240884844,0.587465033370233,290.6477128337899,0.044848728925,45.3184089661,-80.4909667969,0
6.0,23.610189793560195,1.1991637879388395,392.2952493812164,0.5837605000901932,293.0556617621563,0.044848728925,45.3184089661,-80.4909667969,0
6.1000000000000005,23.581478092914036,1.3933643046804205,392.42305635358446,0.5800559668101533,295.4636106905227,0.600498795509,45.7854156494,-69.8311538696,0
6.2,23.552766392267877,1.5875648214219995,392.55086332595243,0.5763514335301134,297.87155961888914,0.600498795509,45.7854156494,-69.8311538696,0
6.300000000000001,23.524054691621714,1.7817653381635803,392.67867029832047,0.5726469002500735,300.27950854725555,0.600498795509,45.7854156494,-69.8311538696,0
6.4,23.490527484774173,1.8645868147370008,392.80825608044347,0.5689929786805822,302.8056121014465,0.600498795509,45.7854156494,-69.8311538696,0
6.5,23.44494856919713,1.6686613237967824,392.94229366807895,0.565465722422758,305.6274197988638,0.600498795509,45.7854156494,-69.8311538696,0
6.6000000000000005,23.399369653620084,1.472735832856562,393.0763312557144,0.5619384661649339,308.44922749628114,0.8678368692269597,46.07537125338397,-65.4046208286952,0
6.7,23.367359185398524,1.4077750968354144,393.1938764535455,0.560000002384,311.09708067734533,1.371489048,46.6241874695,-57.0642929077,0
6.800000000000001,23.35190339259536,1.5026026514073851,393.291299514117,0.560000002384,313.53269435300825,1.371489048,46.6241874695,-57.0642929077,0
6.9,23.336447599792198,1.5974302059793553,393.3887225746885,0.560000002384,315.9683080286712,0.5591811911375515,46.932132142407575,-51.87816535910257,0
7.0,23.320991806989035,1.6922577605513252,393.48614563525996,0.560000002384,318.4039217043341,0.0458562895656,47.1239356995,-48.6017837524,0
7.1000000000000005,23.31160348906185,1.5735632342216792,393.56900127217506,0.5579986111448313,320.90062691655385,0.0458562895656,47.1239356995,-48.6017837524,0
7.2,23.31375031925323,1.048932320823181,393.6241621278151,0.5521922854215621,323.5134759838991,0.0458562895656,47.1239356995,-48.6017837524,0
7.300000000000001,23.31589714944461,0.5243014074246783,393.6793229834551,0.546385959698293,326.1263250512444,-0.9668220728335338,48.25333293483042,-39.86909926243669,0
7.4,23.31804397963599,-0.00032950597381975477,393.7344838390951,0.5405796339750237,328.73917411858963,-1.11531996727,48.419178009,-38.4956970215,0
7.5,23.307835167598835,0.047341435002903304,393.76300788239763,0.5293768847506922,331.12462620170584,-1.11531996727,48.419178009,-38.4956970215,0
7.6000000000000005,23.296256185703694,0.15847736922154762,393.78857805598597,0.5175757031110064,333.4848612634949,-1.11531996727,48.419178009,-38.4956970215,0
7.7,23.284677203808553,0.26961330344019097,393.81414822957436,0.5057745214713206,335.845096325284,-1.8877825737,46.8795394897,-30.0449771881,0
7.800000000000001,23.27309822191341,0.3807492376588353,393.8397184031627,0.4939733398316348,338.20533138707304,-1.8877825737,46.8795394897,-30.0449771881,0
7.9,23.261519240018274,0.4918851718774786,393.8652885767511,0.48217215819194903,340.56556644886206,-1.8877825737,46.8795394897,-30.0449771881,0
8.0,23.223218768553036,0.8401385100547958,393.90722787752594,0.47140813614683574,342.4319754637969,-1.8877825737,46.8795394897,-30.0449771881,0
8.1,23.178890307421455,1.241882176943893,393.9528598216046,0.4608780826199082,344.1869843152191,-1.8877825737,46.8795394897,-30.0449771881,0
8.200000000000001,23.134561846289873,1.6436258438329976,393.9984917656832,0.4503480290929805,345.9419931666414,-1.9718542099,37.7818870544,-18.9774608612,0
8.3,23.067409321525034,1.7212853743083183,394.065436984429,0.4400848935600276,347.3881137290734,-1.9718542099,37.7818870544,-18.9774608612,0
8.4,22.99947662582247,1.7878670779484214,394.1331107324039,0.42983088180384815,348.8236758883242,-1.9718542099,37.7818870544,-18.9774608612,0
8.5,22.93154393011991,1.8544487815885247,394.20078448037873,0.41957687004766875,350.2592380475751,-1.99456655979,29.1875705719,-12.7536287308,0
8.6,22.863611234417352,1.9210304852286277,394.2684582283536,0.4093228582914893,351.69480020682596,-1.99456655979,29.1875705719,-12.7536287308,0
8.700000000000001,22.79481270531898,1.9544554364544504,394.3379939998252,0.39946620973311603,353.0800693910834,-1.99456655979,29.1875705719,-12.7536287308,0
8.8,22.717345373995368,1.6559119853275868,394.42617251886213,0.39358799743054157,353.96180076350885,-1.99456655979,29.1875705719,-12.7536287308,0
8.9,22.639878042671754,1.3573685342007233,394.5143510378991,0.3877097851279671,354.8435321359343,-1.982526257363278,28.70728495574866,-12.516144769938963,0
9.0,22.562410711348143,1.05882508307386,394.602529556936,0.38183157282539265,355.7252635083598,-1.65714764595,17.3389320374,-6.17847490311,0
9.1,22.48563347083057,0.8777203399950115,394.69091400196174,0.37661602081712336,356.1691988821003,-1.65714764595,17.3389320374,-6.17847490311,0
9.200000000000001,22.409168577472695,0.7497704086834964,394.77939165268896,0.37170040043953134,356.41498013536926,-1.65714764595,17.3389320374,-6.17847490311,0
9.3,22.332703684114822,0.6218204773719836,394.86786930341617,0.3667847800619394,356.66076138863815,-1.56871795654,7.79460859299,-3.48838829994,0
9.4,22.256238790756946,0.4938705460604708,394.9563469541434,0.3618691596843474,356.90654264190704,-1.56871795654,7.79460859299,-3.48838829994,0
9.5,22.18674713145545,0.567154904437301,395.0371544928625,0.3584278051837819,356.8427794064857,-1.56871795654,7.79460859299,-3.48838829994,0
9.600000000000001,22.1215338556047,0.7639052827072781,395.11325608309124,0.35589097714529516,356.5890971167242,-1.56871795654,7.79460859299,-3.48838829994,0
9.700000000000001,22.056320579753947,0.9606556609772516,395.18935767332,0.35335414910680846,356.3354148269627,-1.43874263763,-1.45770514011,-2.57160043716,0
9.8,21.991107303903195,1.1574060392472252,395.26545926354873,0.35081732106832175,356.08173253720116,-1.43874263763,-1.45770514011,-2.57160043716,0
9.9,21.93188477648008,1.1586287225053222,395.3195822203447,0.34999999404,355.814978026286,-1.43874263763,-1.45770514011,-2.57160043716,0
10.0,21.875509819707307,1.0669116116173696,395.3632581166016,0.34999999404,355.5420099222377,-1.43874263763,-1.45770514011,-2.57160043716,0
10.100000000000001,21.819134862934536,0.9751945007294153,395.4069340128586,0.34999999404,355.26904181818946,-2.189694818171167,-5.608184315419032,-3.3324061053478777,0
10.200000000000001,21.763005091607475,0.880339652284035,395.4497758071107,0.3501029916190132,354.9897002476235,-2.24995851517,-5.93522691727,-3.39723920822,0
10.3,21.723676220795078,0.5704768681451113,395.4354622316348,0.3572637167611993,354.27362811750595,-2.24995851517,-5.93522691727,-3.39723920822,0
10.4,21.68434734998268,0.2606140840061878,395.42114865615895,0.3644244419033854,353.5575559873884,-2.251512467463988,-6.065455489486451,-3.39723920822,0
10.5,21.65352853861804,-0.04965132716574491,395.3848576835218,0.3726942286036474,352.5958664407172,-3.51707434654,-21.3994121552,-4.8660569191,0
10.600000000000001,21.652642543662115,-0.3613329165834675,395.271264619353,0.38486496760719874,350.7702556627525,-3.51707434654,-21.3994121552,-4.8660569191,0
10.700000000000001,21.65175654870619,-0.6730145060011846,395.15767155518427,0.39703570661074983,348.94464488478786,-4.104143414103413,-27.32745893800644,-5.827109142388637,0
10.8,21.65087055375026,-0.9846960954189017,395.0440784910155,0.409206445614301,347.1190341068233,-4.43911123276,-30.7081756592,-6.40199232101,0
10.9,21.649984558794333,-1.2963776848366189,394.93048542684676,0.42137718461785206,345.29342332885864,-4.43911123276,-30.7081756592,-6.40199232101,0
11.0,21.65884920841019,-1.5920099435836588,394.7971003996135,0.43352705285068566,343.2945906081803,-4.43911123276,-30.7081756592,-6.40199232101,0
11.100000000000001,21.69141173211484,-1.8486360612860568,394.615613173062,0.4456261969603132,340.8747609208269,-4.43911123276,-30.7081756592,-6.40199232101,0
11.200000000000001,21.723974255819492,-2.1052621789884505,394.4341259465105,0.4577253410699405,338.45493123347353,-5.091274229932234,-33.673386028741746,-9.924060786519105,0
11.3,21.756536779524144,-2.361888296690844,394.252638719959,0.4698244851795679,336.03510154612013,-6.08305454254,-38.1399154663,-15.2952699661,0
11.4,21.7886251287323,-2.610212869409261,394.0641222106002,0.48216162431437964,333.56767283671525,-6.08305454254,-38.1399154663,-15.2952699661,0
11.5,21.818205230823768,-2.8146246496349754,393.8384228108417,0.49575768888721455,330.848458949703,-6.08305454254,-38.1399154663,-15.2952699661,0
11.600000000000001,21.84778533291524,-3.0190364298606935,393.6127234110831,0.5093537534600497,328.1292450626907,-6.686065488178596,-40.25602178836441,-21.296307705748394,0
11.700000000000001,21.877365435006713,-3.223448210086408,393.38702401132457,0.5229498180328847,325.4100311756784,-7.11386442184,-41.7388114929,-25.6744098663,0
11.8,21.898857877991027,-3.4421067210707603,393.1550482088339,0.5346913827455024,322.3580069063803,-7.11386442184,-41.7388114929,-25.6744098663,0
11.9,21.911639656390005,-3.676109411555244,392.9163125221446,0.5444355924704932,318.94753533209575,-7.11386442184,-41.7388114929,-25.6744098663,0
12.0,21.924421434788982,-3.9101121020397276,392.67757683545534,0.554179802195484,315.53706375781115,-6.35030841827,-42.4786262512,-35.8535461426,0
12.100000000000001,21.93720321318796,-4.144114792524215,392.438841148766,0.5639240119204751,312.1265921835265,-6.35030841827,-42.4786262512,-35.8535461426,0
12.200000000000001,21.92694384759628,-4.231606629885391,392.22123070130175,0.5740439969032054,308.6519987015146,-6.35030841827,-42.4786262512,-35.8535461426,0
12.3,21.87851959123468,-4.076420815983815,392.03861167821464,0.5847864085185492,305.07119497207026,-6.35030841827,-42.4786262512,-35.8535461426,0
12.4,21.830095334873082,-3.9212350020822386,391.85599265512747,0.595528820133893,301.49039124262595,-5.920603951934341,-43.00947320989285,-39.66647645492895,0
12.5,21.781671078511486,-3.7660491881806624,391.67337363204035,0.6062712317492368,297.90958751318163,-4.8412938118,-44.3184432983,-49.2641143799,0
12.600000000000001,21.733246822149887,-3.6108633742790834,391.49075460895324,0.6170136433645808,294.32878378373726,-4.8412938118,-44.3184432983,-49.2641143799,0
12.700000000000001,21.684822565788288,-3.4556775603775067,391.30813558586607,0.6277560549799246,290.74798005429295,-4.8412938118,-44.3184432983,-49.2641143799,0
12.8,21.607072569516276,-3.36656255148758,391.17729896365466,0.6318916648067376,287.54082720752797,-4.8412938118,-44.3184432983,-49.2641143799,0
12.9,21.52157939151263,-3.2948929080657847,391.0601349901712,0.6342828116781485,284.4323333101232,-4.8217454011909044,-44.33153304760254,-49.4428351064059,0
13.0,21.436086213508982,-3.22322326464399,390.9429710166877,0.6366739585495594,281.3238394127185,-3.180147487736866,-45.32162058410158,-64.60058005376551,0
13.100000000000001,21.350593035505337,-3.1515536212221935,390.8258070432042,0.6390651054209703,278.21534551531363,-2.66518163681,-45.6324462891,-69.3641815186,0
13.200000000000001,21.228742166257927,-3.053539208703506,390.7254594064083,0.6341564615795611,274.85737244765323,-2.66518163681,-45.6324462891,-69.3641815186,0
13.3,21.08355072982716,-2.9386122301774376,390.6359073625889,0.6245615670514758,271.3392410988974,-2.66518163681,-45.6324462891,-69.3641815186,0
13.4,20.93835929339639,-2.8236852516513693,390.5463553187695,0.6149666725233904,267.8211097501415,0.0177519824356,-44.2011032104,-82.7978744507,0
13.5,20.767449408397347,-2.4183585215988206,390.4978465684417,0.6046216863317465,265.0319011956285,0.0177519824356,-44.2011032104,-82.7978744507,0
13.600000000000001,20.568940512587574,-1.701397679537691,390.4933822439575,0.5934717609200467,263.0249151000281,0.0177519824356,-44.2011032104,-82.7978744507,0
13.700000000000001,20.370431616777804,-0.9844368374765746,390.48891791947335,0.582321835508347,261.01792900442786,1.4529351293594965,-37.37688583588178,-92.09109869507941,0
13.8,20.171922720968038,-0.26747599541545775,390.4844535949892,0.5711719100966474,259.01094290882753,1.74060976505,-36.0080337524,-93.9549942017,0
13.9,19.973413825158268,0.44948484664565846,390.47998927050503,0.5600219846849478,257.0039568132272,1.74060976505,-36.0080337524,-93.9549942017,0
14.0,19.727571753849354,0.8796337937806702,390.6534589484459,0.5491578429835053,255.91578431844923,1.74060976505,-36.0080337524,-93.9549942017,0
14.100000000000001,19.481636179895936,1.3092161685197943,390.82728011980765,0.5382942658233677,254.8294268614448,2.4145282508892234,-32.89574580009129,-95.58435264802799,0
14.200000000000001,19.235700605942526,1.738798543258911,391.0011012911694,0.5274306886632302,253.7430694044404,5.17062282562,-20.4635601044,-102.549293518,0
14.3,18.98976503198912,2.1683809179980273,391.1749224625311,0.5165671115030928,252.656711947436,5.17062282562,-20.4635601044,-102.549293518,0
14.4,18.771020627362088,2.573692195589655,391.37568336893816,0.5064117634458886,252.11960756248465,5.17062282562,-20.4635601044,-102.549293518,0
14.5,18.593837848223306,2.941905169767969,391.61762158424546,0.4973389415714562,252.4220349462826,5.17062282562,-20.4635601044,-102.549293518,0
14.600000000000001,18.416655069084523,3.3101181439462897,391.8595597995528,0.48826611969702366,252.72446233008057,6.88416147232,-0.104196190834,-107.64440155,0
14.700000000000001,18.244271434084716,3.645338217225982,392.097952163765,0.4794514206757843,253.01371421774152,6.88416147232,-0.104196190834,-107.64440155,0
14.8,18.121064409874954,3.642481541955939,392.30001035376324,0.4732816947413915,253.16795739828032,6.88416147232,-0.104196190834,-107.64440155,0
14.9,17.997857385665192,3.639624866685896,392.5020685437614,0.4671119688069986,253.32220057881912,6.88416147232,-0.104196190834,-107.64440155,0
15.0,17.87465036145543,3.6367681914158534,392.70412673375967,0.4609422428726058,253.47644375935792,6.35426568985,9.5925989151,-106.43737793,0
15.100000000000001,17.751443337245664,3.6339115161458104,392.9061849237579,0.4547725169382129,253.63068693989675,6.35426568985,9.5925989151,-106.43737793,0
15.200000000000001,17.628236313035902,3.631054840875768,393.10824311375615,0.44860279100382006,253.78493012043555,6.35426568985,9.5925989151,-106.43737793,0
15.3,17.505029288826144,3.628198165605725,393.3103013037544,0.44243306506942726,253.93917330097435,6.35426568985,9.5925989151,-106.43737793,0
15.4,17.42478512666781,3.1137137945740783,393.4723842998422,0.4379902572674579,254.40194845304666,6.35426568985,9.5925989151,-106.43737793,0
15.5,17.372515568529597,2.2660909520522923,393.60843806587235,0.43467190553342633,255.06561943279598,6.35426568985,9.5925989151,-106.43737793,0
15.600000000000001,17.32024601039138,1.4184681095304912,393.74449183190256,0.4313535537993947,255.72929041254534,3.83463597298,11.8966283798,-105.868011475,0
15.700000000000001,17.278563823205374,1.1551692652201024,393.8278930992551,0.4281395739252397,256.1860429457414,3.83463597298,11.8966283798,-105.868011475,0
15.8,17.24417523503164,1.294408969472939,393.87502226335533,0.4249974954227795,256.50025015921506,3.83463597298,11.8966283798,-105.868011475,0
15.9,17.209786646857907,1.4336486737257756,393.92215142745556,0.42185541692031925,256.81445737268876,1.577743227461649,11.689072317439784,-103.49602859362821,0
16.0,17.19398286941493,1.372252336754324,393.9475171040033,0.42246592787054105,257.1232969830344,1.39926636219,11.6727170944,-103.308486938,0
16.1,17.20497958707254,1.021525894799073,393.94149842856746,0.4284879147135307,257.4243961636592,1.39926636219,11.6727170944,-103.308486938,0
16.2,17.21597630473015,0.6707994528438342,393.9354797531317,0.4345099015565202,257.725495344284,0.0182348974049,8.81393623352,-102.903404236,0
16.3,17.232797499799382,0.31418323344374194,393.9232371191666,0.4409007749918396,258.0675583172823,0.0182348974049,8.81393623352,-102.903404236,0
16.400000000000002,17.3097380680133,-0.10322637614777413,393.8467517285012,0.45109923992852063,258.8324433471075,0.0182348974049,8.81393623352,-102.903404236,0
16.5,17.386678636227213,-0.5206359857392754,393.7702663378359,0.46129770486520133,259.59732837693275,0.0182348974049,8.81393623352,-102.903404236,0
16.6,17.463619204441127,-0.9380455953307913,393.6937809471706,0.47149616980188236,260.362213406758,-1.6545945406,25.6777801514,-101.14907074,0
16.7,17.552906760462697,-1.296561839503872,393.60530924426826,0.482029738336658,261.3721204624133,-1.6545945406,25.6777801514,-101.14907074,0
16.8,17.704152146197593,-1.3595480999528577,393.4566896005048,0.49424487422944285,263.61156084140936,-1.6545945406,25.6777801514,-101.14907074,0
16.900000000000002,17.85539753193249,-1.4225343604018434,393.30806995674124,0.5064600101222276,265.85100122040546,-1.6719724779963696,26.258416973543195,-101.04286627947224,0
17.0,18.006642917667378,-1.485520620850827,393.15945031297775,0.518675146015012,268.09044159940146,-2.15726494789,34.7797660828,-98.0641937256,0
17.1,18.157888303402274,-1.5485068812998126,393.0108306692142,0.5308902819077969,270.32988197839757,-2.15726494789,34.7797660828,-98.0641937256,0
17.2,18.324606647671608,-1.6671703831746776,392.8516258507822,0.542737839034511,272.54756403751406,-2.15726494789,34.7797660828,-98.0641937256,0
17.3,18.536715211664955,-1.9491641373940796,392.6613692200577,0.553507096822372,274.7014176492164,-2.15726494789,34.7797660828,-98.0641937256,0
17.400000000000002,18.748823775658302,-2.2311578916134813,392.4711125893332,0.5642763546102328,276.8552712609188,-3.669778266667108,38.76198847061292,-90.28108045648813,0
17.5,18.965012737316236,-2.5056029033209883,392.2849210438144,0.5727443367852667,279.23495594993574,-4.13382339478,39.9630088806,-87.7465591431,0
17.6,19.18583041103972,-2.771484789956743,392.1033408402494,0.5786018032530551,281.87081837413075,-4.13382339478,39.9630088806,-87.7465591431,0
17.7,19.4066480847632,-3.0373666765924883,391.9217606366845,0.5844592697208433,284.5066807983256,-3.7959977114955903,40.6482505798,-81.21997926673659,0
17.8,19.62761082215681,-3.286554407139003,391.7423169691471,0.5904190346654375,287.1396868194974,-3.79523253441,40.6482505798,-81.2035217285,0
17.900000000000002,19.851110965593175,-3.2437334458865035,391.6002448876341,0.5981681709460503,289.7227295777407,-3.79523253441,40.6482505798,-81.2035217285,0
18.0,20.074611109029536,-3.2009124846340056,391.4581728061212,0.6059173072266628,292.305772335984,-3.79523253441,40.6482505798,-81.2035217285,0
18.1,20.298111252465905,-3.1580915233815063,391.3161007246082,0.6136664435072755,294.88881509422737,-3.20208024979,40.7961997986,-72.6145401001,0
18.2,20.52099924867172,-3.101668686759853,391.1871866861653,0.6207997496490546,297.55982195061245,-3.20208024979,40.7961997986,-72.6145401001,0
18.3,20.741148377681704,-2.984388382536022,391.117144322261,0.6251777105384075,300.62439749569194,-3.20208024979,40.7961997986,-72.6145401001,0
18.400000000000002,20.961297506691686,-2.8671080783121905,391.04710195835673,0.6295556714277604,303.6889730407714,-2.6106275837991393,41.477254650917935,-69.30733634989156,0
18.5,21.181446635701665,-2.749827774088364,390.97705959445244,0.6339336323171131,306.75354858585075,-1.50355434418,42.4382896423,-62.8879089355,0
18.6,21.401595764711647,-2.632547469864533,390.90701723054815,0.6383115932064659,309.8181241309302,-1.50355434418,42.4382896423,-62.8879089355,0
18.7,21.574600688246022,-2.1882318201696562,390.87384265995115,0.639999985695,312.6942494044102,-1.50355434418,42.4382896423,-62.8879089355,0
18.8,21.718010557652505,-1.538617795980761,390.8638120648969,0.639999985695,315.4520739040807,-1.50355434418,42.4382896423,-62.8879089355,0
18.900000000000002,21.861420427058984,-0.8890037717918655,390.85378146984254,0.639999985695,318.2098984037512,-0.939202427864,42.8927268982,-48.9349403381,0
19.0,22.004830296465464,-0.23938974760299292,390.84375087478827,0.639999985695,320.9677229034216,-0.939202427864,42.8927268982,-48.9349403381,0
19.1,22.107281913941037,0.039479738569333726,390.87017229671324,0.639999985695,323.7470067442223,-0.939202427864,42.8927268982,-48.9349403381,0
19.200000000000003,22.18523100815449,0.096558102347547,390.9184004694608,0.639999985695,326.5391282424045,-0.939202427864,42.8927268982,-48.9349403381,0
19.3,22.263180102367933,0.15363646612575826,390.9666286422084,0.639999985695,329.33124974058654,0.639429628849,43.296749115,-37.7353553772,0
19.400000000000002,22.341129196581385,0.21071482990397153,391.0148568149559,0.639999985695,332.12337123876875,0.639429628849,43.296749115,-37.7353553772,0
19.5,22.384195552670903,0.5083279510511022,391.10881315222974,0.6379790240250373,334.61677087788456,0.639429628849,43.296749115,-37.7353553772,0
19.6,22.41129775973493,0.9160222446912489,391.2236970677964,0.6350331655433771,336.9734599107871,0.639429628849,43.296749115,-37.7353553772,0
19.700000000000003,22.438399966798954,1.3237165383313958,391.33858098336316,0.6320873070617168,339.3301489436896,2.2150132961036215,43.48685095953649,-29.674005998424878,0
19.8,22.452478442621455,1.5932679151966744,391.4659882891053,0.6281840184923712,341.78692400430236,2.74392437935,43.5504798889,-26.9536209106,0
19.900000000000002,22.434893422667756,1.5269641073459521,391.6238426537258,0.6219530111629216,344.48702975539805,2.74392437935,43.5504798889,-26.9536209106,0
20.0,22.41730840271406,1.4606602994952322,391.78169701834616,0.6157220038334721,347.18713550649363,3.0751006786813493,43.85219705581418,-21.130119216559624,0
20.1,22.39972338276036,1.3943564916445101,391.9395513829666,0.6094909965040225,349.8872412575893,3.24989581108,44.0118103027,-18.0262718201,0
20.200000000000003,22.38213836280666,1.3280526837937878,392.097405747587,0.6032599891745729,352.587347008685,3.24989581108,44.0118103027,-18.0262718201,0
20.3,22.3528432388894,1.540109635829889,392.26679635360136,0.597745346124582,314.65595356373296,3.24989581108,44.0118103027,-18.0262718201,0
20.400000000000002,22.31069924477704,2.0575969480338085,392.4488450597207,0.5930167312488758,232.1417912017354,3.24989581108,44.0118103027,-18.0262718201,0
20.5,22.268555250664686,2.57508426023771,392.63089376584,0.5882881163731698,149.62762883974077,3.5188551191534447,44.35961366695357,-6.508892444898057,0
20.6,22.22641125655233,3.0925715724416296,392.81294247195933,0.5835595014974635,67.11346647774315,3.54802370071,44.3973388672,-5.26097917557,0
20.700000000000003,22.182641382241133,3.4551611323657525,392.981580342677,0.5785636902122946,5.574517787371054,3.54802370071,44.3973388672,-5.26097917557,0
20.8,22.133921232909884,3.346137547410112,393.10938659275365,0.5727543529907412,7.898254892024319,3.54802370071,44.3973388672,-5.26097917557,0
20.900000000000002,22.08520108357864,3.237113962454468,393.2371928428303,0.5669450157691875,10.221991996677666,3.1966117667872713,44.329813377453846,-2.9823483420353862,0
21.0,22.03648093424739,3.1280903774988276,393.364999092907,0.5611356785476341,12.54572910133093,1.85587513447,44.0713119507,5.75999593735,0
21.1,21.96654426589325,2.7041165326003886,393.47897119486,0.5546071314273456,14.887506634944105,1.85587513447,44.0713119507,5.75999593735,0
21.200000000000003,21.89145208997642,2.2036113563720305,393.58958166830087,0.5479038199138929,17.233667902186546,1.85587513447,44.0713119507,5.75999593735,0
21.3,21.816359914059586,1.7031061801436902,393.70019214174175,0.5412005084004404,19.579829169428905,1.1475315468634437,43.58130146330192,11.426355196724286,0
21.400000000000002,21.737965304055237,1.5652370922288366,393.77743331750884,0.540000021458,21.852662868681417,0.944146096706,43.440448761,13.0533504486,0
21.5,21.658850240591185,1.5064800827130211,393.8473947034846,0.540000021458,24.109499549174327,0.944146096706,43.440448761,13.0533504486,0
21.6,21.57973517712713,1.4477230731972037,393.9173560894604,0.540000021458,26.366336229667315,-0.0482498444617,43.4340820312,20.8340358734,0
21.700000000000003,21.500620113663075,1.3889660636813863,393.98731747543616,0.540000021458,28.623172910160307,-0.0482498444617,43.4340820312,20.8340358734,0
21.8,21.422953832784398,1.203084066138208,394.0387317249364,0.540000021458,30.982621338554537,-0.0482498444617,43.4340820312,20.8340358734,0
21.900000000000002,21.347554258009847,0.8183075006600254,394.06112788166854,0.540000021458,33.502611919837754,-0.0482498444617,43.4340820312,20.8340358734,0
22.0,21.2721546832353,0.43353093518185637,394.08352403840064,0.540000021458,36.02260250112088,-0.16263987032063115,44.036687271956836,28.285583308423522,0
22.1,21.19675510846075,0.04875436970367364,394.1059201951328,0.540000021458,38.542593082404096,-0.200852811337,44.2379646301,30.7876472473,0
22.200000000000003,21.129338755728696,-0.29649845572205497,394.0846701255877,0.5433755190983062,41.19407555868886,-0.200852811337,44.2379646301,30.7876472473,0
22.3,21.063692794690922,-0.6329863362742455,394.05374089190605,0.5474995807838856,43.8747182108444,-0.200852811337,44.2379646301,30.7876472473,0
22.400000000000002,20.99804683365315,-0.969474216826448,394.02281165822444,0.5516236424694652,46.55536086300003,-1.14917421341,44.771446228,39.2711181641,0
22.5,20.932400872615375,-1.3059620973786386,393.9918824245428,0.5557477041550447,49.23600351515557,-1.14917421341,44.771446228,39.2711181641,0
22.6,20.8667549115776,-1.642449977930841,393.9609531908612,0.5598717658406243,51.91664616731121,-1.14917421341,44.771446228,39.2711181641,0
22.700000000000003,20.795508389911376,-1.157736291662327,393.86403496592584,0.5629078903316485,54.907890720903836,-1.14917421341,44.771446228,39.2711181641,0
22.8,20.724082131517346,-0.6466680862154055,393.76499898061866,0.5659091000553155,57.909103306827284,-1.14917421341,44.771446228,39.2711181641,0
22.900000000000002,20.652655873123315,-0.13559988076846574,393.6659629953114,0.5689103097789826,60.91031589275084,-2.63530516624,45.5522994995,52.0557975769,0
23.0,20.57668984554245,-0.16969781981393556,393.5652494166931,0.5713490328962872,63.61884960287965,-2.63530516624,45.5522994995,52.0557975769,0
23.1,20.498135881454928,-0.5145726528953681,393.4635795108268,0.5734671054335291,66.16053907132499,-2.63530516624,45.5522994995,52.0557975769,0
23.200000000000003,20.419581917367406,-0.8594474859768008,393.36190960496043,0.575585177970771,68.70222853977032,-3.041949403676014,46.017590098878046,62.374736281944855,0
23.3,20.341027953279887,-1.204322319058221,393.26023969909414,0.5777032505080127,71.24391800821556,-3.04885554314,46.0253486633,62.6016807556,0
23.400000000000002,20.262473989192365,-1.5491971521396537,393.1585697932278,0.5798213230452547,73.78560747666089,-3.04885554314,46.0253486633,62.6016807556,0
23.5,20.159803404790317,-1.4159472240740285,393.0686103521329,0.579999983311,76.9983025695425,-3.04885554314,46.0253486633,62.6016807556,0
23.6,20.054911177338152,-1.238652046763871,392.97972968875786,0.579999983311,80.2728112566457,-3.04885554314,46.0253486633,62.6016807556,0
23.700000000000003,19.950018949885987,-1.0613568694537139,392.8908490253828,0.579999983311,83.54731994374889,-1.95141768456,44.1083450317,75.3569793701,0
23.8,19.845126722433825,-0.8840616921435629,392.80196836200776,0.579999983311,86.82182863085197,-1.95141768456,44.1083450317,75.3569793701,0
23.900000000000002,19.73287694260269,-0.8569765939773,392.73693361524323,0.579999983311,89.574130659591,-1.95141768456,44.1083450317,75.3569793701,0
24.0,19.616492113757424,-0.9143116953128129,392.6853006125496,0.579999983311,92.0329451239034,-1.95141768456,44.1083450317,75.3569793701,0
24.1,19.500107284912154,-0.9716467966483278,392.63366760985605,0.579999983311,94.4917595882159,-1.43216133118,43.438167572,88.5441055298,0
24.200000000000003,19.38372245606688,-1.0289818979838425,392.5820346071624,0.579999983311,96.9505740525284,-1.43216133118,43.438167572,88.5441055298,0
24.3,19.2574142120001,-0.9556442578763502,392.5675120883008,0.577495040648315,99.62821428349181,-1.43216133118,43.438167572,88.5441055298,0
24.400000000000002,19.123717026348682,-0.785008134164825,392.5806219108348,0.5731249261073725,102.46879144402085,-1.43216133118,43.438167572,88.5441055298,0
24.5,18.99001984069727,-0.6143720104533059,392.5937317333688,0.5687548115664302,105.30936860454979,-0.166001990438,41.1509628296,99.5766067505,0
24.6,18.856322655045847,-0.44373588674178066,392.60684155590286,0.5643846970254877,108.14994576507884,-0.166001990438,41.1509628296,99.5766067505,0
24.700000000000003,18.722625469394426,-0.2730997630302555,392.61995137843684,0.5600145824845452,110.99052292560788,-0.166001990438,41.1509628296,99.5766067505,0
24.8,18.566658346185754,-0.09619967111043393,392.6800305741179,0.5547797821984232,113.3491013238475,-0.166001990438,41.1509628296,99.5766067505,0
24.900000000000002,18.410616674621835,0.08072138936963341,392.74026699922564,0.5495420873868927,115.70606623687364,-0.166001990438,41.1509628296,99.5766067505,0
25.0,18.254575003057926,0.2576424498496945,392.80050342433333,0.5443043925753625,118.06303114989969,0.74379491806,37.8566818237,111.74357605,0
25.1,18.09924574251538,0.4341503596126367,392.86294235563076,0.5405625144125531,120.33749609460192,0.74379491806,37.8566818237,111.74357605,0
25.200000000000003,17.947202031716458,0.6087528703966146,392.9355389675786,0.5437191539021483,122.23148159465302,0.74379491806,37.8566818237,111.74357605,0
25.3,17.795158320917544,0.7833553811805865,393.0081355795264,0.5468757933917434,124.12546709470405,1.3366008518151267,37.852997796178,117.24504870641755,0
25.400000000000002,17.64312334245124,0.9549334212102388,393.0805680860793,0.550030617502624,126.02142392756882,1.66203033924,37.8510131836,120.279304504,0
25.5,17.491929847861147,0.8350608850338461,393.1371867145034,0.5530105041730752,128.10734658622906,1.66203033924,37.8510131836,120.279304504,0
25.6,17.34073635327105,0.7151883488574493,393.1938053429275,0.5559903908435264,130.19326924488936,1.66203033924,37.8510131836,120.279304504,0
25.700000000000003,17.189542858680955,0.5953158126810523,393.25042397135155,0.5589702775139778,132.2791919035497,2.14782166481,41.2643852234,126.821983337,0
25.8,17.06095155675808,0.5730722954473055,393.30220258324965,0.560000002384,134.73451166816588,2.14782166481,41.2643852234,126.821983337,0
25.900000000000002,16.944294669662405,0.6023788746306967,393.3514255685392,0.560000002384,137.38488057528585,2.14782166481,41.2643852234,126.821983337,0
26.0,16.82811256135643,0.6256714522904715,393.4002266772643,0.5597672116397789,140.02715891908002,2.95079922676,43.8121681213,134.036941528,0
26.1,16.747153757072244,0.20279202595739337,393.4177292385183,0.5422639375988227,142.06920747605417,2.95079922676,43.8121681213,134.036941528,0
26.200000000000003,16.666194952788057,-0.22008740037568475,393.4352317997723,0.5247606635578667,144.11125603302833,2.95079922676,43.8121681213,134.036941528,0
26.3,16.585236148503874,-0.6429668267087479,393.4527343610263,0.5072573895169111,146.1533045900024,1.88814985752,43.8394851685,140.287216187,0
26.400000000000002,16.515420951049922,-0.5963216731426146,393.5039941761983,0.49426040777909924,147.38263946618983,1.88814985752,43.8394851685,140.287216187,0
26.5,16.453499019931403,-0.21710174225044798,393.5791650104853,0.48445533382086764,148.03631103743274,1.88814985752,43.8394851685,140.287216187,0
26.6,16.39157708881288,0.16211818864173222,393.65433584477233,0.47465025986263565,148.68998260867565,2.14022302628,28.0551624298,147.457138062,0
26.700000000000003,16.329655157694358,0.5413381195339124,393.7295066790594,0.46484518590440366,149.34365417991856,2.14022302628,28.0551624298,147.457138062,0
26.8,16.26773322657584,0.9205580504260791,393.8046775133464,0.455040111946172,149.99732575116147,2.14022302628,28.0551624298,147.457138062,0
26.900000000000002,16.205811295457316,1.2997779813182593,393.87984834763347,0.44523503798794,150.65099732240438,2.14022302628,28.0551624298,147.457138062,0
27.0,16.159438090467933,1.5143418606812136,393.9728123767504,0.4376520837474865,151.0,2.14022302628,28.0551624298,147.457138062,0
27.1,16.130876178870885,1.5402898226852084,394.08615877101226,0.4326146001724447,151.0,2.14022302628,28.0551624298,147.457138062,0
27.200000000000003,16.102314267273837,1.5662377846892033,394.1995051652741,0.42757711659740283,151.0,2.6828982832871806,-0.11239625525530172,151.19684056659153,0
27.3,16.073752355676792,1.5921857466931972,394.312851559536,0.4225396330223612,151.0,2.73369789124,-2.50457262993,151.562530518,0
27.400000000000002,16.06010668009952,1.548307169260117,394.41668071492205,0.4189850646989774,150.59403073761806,2.73369789124,-2.50457262993,151.562530518,0
27.5,16.06162690785926,1.4334332987747882,394.5108333322972,0.41693823259898166,149.77529711679352,2.73369789124,-2.50457262993,151.562530518,0
27.6,16.063147135619,1.3185594282894555,394.6049859496723,0.4148914004989859,148.95656349596896,2.506228182806603,-8.071171022913871,151.52031647223944,0
27.700000000000003,16.064667363378742,1.2036855578041228,394.69913856704744,0.41284456839899014,148.1378298751444,2.356798172,-11.6797027588,151.49256897,0
27.8,16.06618759113848,1.088811687318794,394.79329118442257,0.4107977362989944,147.31909625431987,2.356798172,-11.6797027588,151.49256897,0
27.900000000000002,16.076087638760153,1.0019906677276191,394.8644727129681,0.40827579625645194,146.48273945647594,2.356798172,-11.6797027588,151.49256897,0
28.0,16.09133950613967,0.9330857613886276,394.920983624593,0.4054504258161296,145.6351275160965,2.356798172,-11.6797027588,151.49256897,0
28.1,16.106591373519187,0.8641808550496336,394.977494536218,0.40262505537580723,144.787515575717,1.38773703575,-16.9656639099,147.264282227,0
28.200000000000003,16.122396952638255,0.7883105001674359,395.030765914906,0.40000000596,143.92326767596694,1.38773703575,-16.9656639099,147.264282227,0
28.3,16.14545848844958,0.6211634224678605,395.0415857632862,0.40000000596,142.84101861766214,1.38773703575,-16.9656639099,147.264282227,0
28.400000000000002,16.168520024260907,0.4540163447682793,395.0524056116664,0.40000000596,141.75876955935735,1.38773703575,-16.9656639099,147.264282227,0
28.5,16.191581560072233,0.28686926706870397,395.0632254600466,0.40000000596,140.67652050105255,0.184328556061,-16.3086166382,144.203765869,0
28.6,16.21464309588356,0.11972218936912271,395.07404530842683,0.40000000596,139.59427144274775,0.184328556061,-16.3086166382,144.203765869,0
28.700000000000003,16.236115027675634,-0.04204191969609544,395.06543764313034,0.40000000596,138.8545195899731,0.184328556061,-16.3086166382,144.203765869,0
28.8,16.25565109961716,-0.1972505138470494,395.03317066188674,0.40000000596,138.5318694688735,0.184328556061,-16.3086166382,144.203765869,0
28.900000000000002,16.27518717155869,-0.35245910799800884,395.0009036806431,0.40000000596,138.20921934777385,-0.5058855304049698,-14.312453010650925,142.16843120113873,0
29.0,16.291337447453838,-0.3621919810234783,394.95985116189894,0.40000000596,137.79175001044132,-1.23288762569,-12.3301334381,139.982788086,0
29.1,16.30124273338946,-0.10359964918235542,394.902594006866,0.40000000596,137.19938973306634,-1.23288762569,-12.3301334381,139.982788086,0
29.200000000000003,16.311148019325085,0.15499268265876753,394.8453368518331,0.40000000596,136.60702945569133,-1.5541089487991702,-10.427292507491465,139.17491505243157,0
29.3,16.321053305260705,0.41358501449988117,394.7880796968002,0.40000000596,136.01466917831635,-1.87955915928,-8.52918720245,138.231338501,0
29.400000000000002,16.330958591196328,0.672177346341004,394.7308225417673,0.40000000596,135.42230890094137,-1.87955915928,-8.52918720245,138.231338501,0
29.5,16.34055324934836,0.6742691231976334,394.66656275661074,0.4015122541329988,135.0,-1.87955915928,-8.52918720245,138.231338501,0
29.6,16.349376488411398,0.039362425016119196,394.5849125033897,0.40678004887835384,135.0,-1.87955915928,-8.52918720245,138.231338501,0
29.700000000000003,16.35819972747443,-0.5955442731653949,394.50326225016875,0.4120478436237089,135.0,-2.315800534673257,-5.245626585951501,136.54528190024692,0
29.8,16.36702296653747,-1.2304509713468863,394.4216119969477,0.4173156383690637,135.0,-2.69005942345,-2.43868803978,135.079818726,0
29.900000000000002,16.375967399111673,-1.4205765901820964,394.3379865457769,0.42190990457684097,135.0,-2.69005942345,-2.43868803978,135.079818726,0
30.0,16.385037758681626,-1.1485492063816527,394.2523087508675,0.42580433607838486,135.0,-2.69005942345,-2.43868803978,135.079818726,0
30.1,16.394108118251577,-0.8765218225811994,394.16663095595806,0.42969876757992886,135.0,-2.9960282321790963,0.0909083382303133,135.04932747564993,0
30.200000000000003,16.398406936428618,-0.9106880986868132,394.08507542242995,0.4316650323888815,134.83349731761825,-3.03264689445,0.382838726044,135.045639038,0
30.3,16.402305726686002,-0.9705244890594361,394.0038654836498,0.4334696470208191,134.65303568231823,-3.03264689445,0.382838726044,135.045639038,0
30.400000000000002,16.406204516943383,-1.0303608794320611,393.9226555448696,0.4352742616527568,134.47257404701818,-3.2037278814945833,2.0859806931683202,135.44791529424876,0
30.5,16.410103307200764,-1.090197269804684,393.8414456060894,0.4370788762846944,134.29211241171816,-3.21015954018,2.14480042458,135.463790894,0
30.6,16.414002097458145,-1.150033660177309,393.7602356673092,0.4388834909166321,134.11165077641814,-3.21015954018,2.14480042458,135.463790894,0
30.700000000000003,16.410896809066,-1.12284073851759,393.69458745251177,0.44090604297833774,134.0906046226434,-3.21015954018,2.14480042458,135.463790894,0
30.8,16.39642687805755,-0.9544362345954616,393.6541893013425,0.44328221485586233,134.32822203701159,-3.21015954018,2.14480042458,135.463790894,0
30.900000000000002,16.3819569470491,-0.7860317306733273,393.6137911501733,0.44565838673338704,134.5658394513798,-1.89940917492,4.56362056732,134.283752441,0
31.0,16.367487016040652,-0.6176272267511991,393.57339299900406,0.4480345586109117,134.803456865748,-1.89940917492,4.56362056732,134.283752441,0
31.1,16.35159799850573,-0.47612837287242576,393.53597528672555,0.449999988079,135.0400371774214,-1.89940917492,4.56362056732,134.283752441,0
31.200000000000003,16.32891855852399,-0.4633748256345037,393.51281917073953,0.449999988079,135.27165488442833,-1.89940917492,4.56362056732,134.283752441,0
31.3,16.306239118542255,-0.4506212783965821,393.4896630547535,0.449999988079,135.50327259143526,-1.5745890994217655,4.344786450565046,135.27503950362066,0
31.400000000000002,16.28355967856052,-0.43786773115866007,393.4665069387675,0.449999988079,135.7348902984422,-1.3476883173,4.21286344528,135.978027344,0
31.5,16.26088023857878,-0.42511418392073846,393.4433508227815,0.449999988079,135.96650800544913,-1.3476883173,4.21286344528,135.978027344,0
31.6,16.234747376631983,-0.45321282964397713,393.4449451460608,0.449999988079,135.75272892095646,-1.3476883173,4.21286344528,135.978027344,0
31.700000000000003,16.208030733871475,-0.4882172999928281,393.4507233865446,0.449999988079,135.46365811017066,-1.3476883173,4.21286344528,135.978027344,0
31.8,16.181314091110963,-0.5232217703416778,393.4565016270284,0.449999988079,135.17458729938485,-0.3411240472425785,4.361413100281567,136.671573630917,0
31.900000000000002,16.157683383810383,-0.45340836508402493,393.45918603857854,0.449999988079,135.08046306192293,-0.290532559156,4.3688158989,136.706573486,0
32.0,16.13875872659013,-0.2237477503421647,393.45715236250476,0.449999988079,135.28363225426978,-0.290532559156,4.3688158989,136.706573486,0
32.1,16.119834069369876,0.005912864399703732,393.4551186864309,0.449999988079,135.48680144661665,0.00847103539854,2.55364370346,135.974411011,0
32.2,16.100909412149623,0.23557347914157212,393.45308501035714,0.449999988079,135.68997063896353,0.00847103539854,2.55364370346,135.974411011,0
32.300000000000004,16.08198475492937,0.4652340938834405,393.4510513342833,0.449999988079,135.8931398313104,0.00847103539854,2.55364370346,135.974411011,0
32.4,16.066076115715358,0.48160527497202343,393.44386336688535,0.449999988079,135.8776036758681,0.00847103539854,2.55364370346,135.974411011,0
32.5,16.05351391467172,0.2613200764776876,393.43095642924493,0.449999988079,135.61940188567453,0.00847103539854,2.55364370346,135.974411011,0
32.6,16.04095171362808,0.0410348779833517,393.4180494916045,0.449999988079,135.36120009548094,-0.07818617303138224,1.6857759483869545,136.05457530554312,0
32.7,16.02838951258444,-0.1792503205109841,393.4051425539641,0.449999988079,135.10299830528737,-0.0905303135514,1.56848013401,136.065994263,0
32.800000000000004,16.02136673109828,-0.37583174101199646,393.39357329605673,0.449999988079,134.83951928009913,-0.0905303135514,1.56848013401,136.065994263,0
32.9,16.018020096620287,-0.5566825291518998,393.382891767865,0.449999988079,134.57253810248574,-0.0905303135514,1.56848013401,136.065994263,0
33.0,16.014673462142294,-0.7375333172918159,393.3722102396733,0.449999988079,134.30555692487235,-0.11509816142245839,2.2122754343790145,135.31886830223863,0
33.1,16.011326827664302,-0.9183841054317321,393.3615287114816,0.449999988079,134.03857574725896,-0.123718738556,2.43458580971,135.054580688,0
33.2,16.013738270844097,-0.47482619247985103,393.31984062039527,0.45200741250680837,134.20074203595703,-0.123718738556,2.43458580971,135.054580688,0
33.300000000000004,16.01712220468701,0.0741890741007808,393.2729157828283,0.4543538739585984,134.43538770560312,-0.123718738556,2.43458580971,135.054580688,0
33.4,16.02050613852992,0.6232043406813735,393.2259909452613,0.4567003354103882,134.67003337524918,-0.490170389414,2.35105538368,134.580978394,0
33.5,16.023890072372833,1.1722196072620052,393.17906610769427,0.4590467968621782,134.90467904489526,-0.490170389414,2.35105538368,134.580978394,0
33.6,16.02969256874959,1.073231697986078,393.1258348612487,0.46170834248505316,134.8291664230707,-0.490170389414,2.35105538368,134.580978394,0
33.7,16.037149758562933,0.5309033387628087,393.06828899682904,0.4645854573572539,134.5414546614599,-0.490170389414,2.35105538368,134.580978394,0
33.800000000000004,16.04460694837628,-0.011425020460460455,393.0107431324094,0.46746257222945464,134.25374289984913,-0.8421785601560923,2.021913339480731,135.56074647045583,0
33.9,16.052887236385757,-0.5347641938266484,392.9546161020361,0.469999998808,133.9586526841155,-0.993869900703,1.88004505634,135.983642578,0
34.0,16.067315958941354,-0.9162566630273477,392.90908757413354,0.469999998808,133.60844639299847,-0.993869900703,1.88004505634,135.983642578,0
34.1,16.081744681496946,-1.297749132228047,392.863559046231,0.469999998808,133.25824010188146,-0.9908561526657953,1.8989894959958127,135.97743752050783,0
34.2,16.09437760450681,-1.5613564384874892,392.8237547515629,0.47056660285455226,133.0,-0.921819806099,2.34141397476,134.87663269,0
34.300000000000004,16.10196794108896,-1.4939434345514468,392.8000240442201,0.4727242251647111,133.0,-0.921819806099,2.34141397476,134.87663269,0
34.4,16.109558277671113,-1.4265304306154094,392.7762933368773,0.47488184747486967,133.0,-0.4870933829756966,1.682556140818108,133.6518957095484,0
34.5,16.117148614253267,-1.359117426679367,392.7525626295345,0.4770394697850284,133.0,-0.390403628349,1.53607022762,133.374420166,0
34.6,16.124738950835418,-1.291704422743325,392.7288319221917,0.4791970920951872,133.0,-0.390403628349,1.53607022762,133.374420166,0
34.7,16.120074780036223,-1.0462885587057458,392.71103382824043,0.479999989271,133.0,-0.390403628349,1.53607022762,133.374420166,0
34.800000000000004,16.10814780062884,-0.6953767604459591,392.69675178224344,0.479999989271,133.0,-0.390403628349,1.53607022762,133.374420166,0
34.9,16.096220821221454,-0.3444649621861974,392.68246973624645,0.479999989271,133.0,0.159944146872,1.97018110752,133.718658447,0
35.0,16.08429384181407,0.006446836073589202,392.66818769024945,0.479999989271,133.0,0.159944146872,1.97018110752,133.718658447,0
35.1,16.06856020040447,0.2050125710059579,392.6618384810572,0.479999989271,133.0,0.159944146872,1.97018110752,133.718658447,0
35.2,16.047717713686104,0.19911768650694503,392.6661357742524,0.479999989271,133.0,0.159944146872,1.97018110752,133.718658447,0
35.300000000000004,16.02687522696774,0.19322280200793215,392.67043306744756,0.479999989271,133.0,0.820965349674,3.64479589462,133.987457275,0
35.4,16.006032740249374,0.1873279175089197,392.67473036064274,0.479999989271,133.0,0.820965349674,3.64479589462,133.987457275,0
35.5,15.985190253531007,0.18143303300990682,392.6790276538379,0.479999989271,133.0,0.820965349674,3.64479589462,133.987457275,0
35.6,15.968659891608825,0.11191689825618491,392.6918323778225,0.479999989271,133.0,0.820965349674,3.64479589462,133.987457275,0
35.7,15.953378316460729,0.02397611680873049,392.70710084475354,0.479999989271,133.0,0.820965349674,3.64479589462,133.987457275,0
35.800000000000004,15.938096741312632,-0.06396466463872391,392.72236931168464,0.479999989271,133.0,1.307712247450075,4.782100255965899,133.19212214404817,0
35.9,15.92935804494614,-0.001392415923613402,392.729980469,0.479999989271,133.12629834273733,1.3379970789,4.85334300995,133.142105103,0
36.0,15.927122791982258,0.21078568759809985,392.729980469,0.479999989271,133.37813380013822,1.3379970789,4.85334300995,133.142105103,0
36.1,15.924887539018377,0.4229637911198131,392.729980469,0.479999989271,133.6299692575391,0.885754644871,4.20994472504,133.671264648,0
36.2,15.922652286054495,0.6351418946415264,392.729980469,0.479999989271,133.88180471494,0.885754644871,4.20994472504,133.671264648,0
36.300000000000004,15.923355060718562,0.7380564098114749,392.7175588108219,0.479999989271,134.0,0.885754644871,4.20994472504,133.671264648,0
36.4,15.926656313122644,0.7443350052149194,392.6941510741049,0.479999989271,134.0,0.885754644871,4.20994472504,133.671264648,0
36.5,15.929957565526726,0.7506136006183641,392.670743337388,0.479999989271,134.0,0.23467549537347132,4.439848875277754,134.08115020059478,0
36.6,15.933258817930806,0.756892196021809,392.64733560067106,0.479999989271,134.0,0.164385259151,4.46426057816,134.125839233,0
36.7,15.936560070334888,0.7631707914252539,392.6239278639541,0.479999989271,134.0,0.164385259151,4.46426057816,134.125839233,0
36.800000000000004,15.943413333481049,0.5691142692031776,392.5978976606561,0.4820085632455933,133.79914300959746,0.164385259151,4.46426057816,134.125839233,0
36.9,15.950983883752752,0.3346024074278595,392.57133788083024,0.48442274529890533,133.5577252935234,0.164385259151,4.46426057816,134.125839233,0
37.0,15.958554434024457,0.10009054565252473,392.54477810100434,0.4868369273522175,133.31630757744932,0.0455729439855,4.71623468399,134.26373291,0
37.1,15.966124984296163,-0.13442131612281005,392.51821832117844,0.4892511094055297,133.07488986137525,0.0455729439855,4.71623468399,134.26373291,0
37.2,15.981430421301173,-0.2556741401293976,392.48835264399145,0.4918022981570646,133.0,0.0455729439855,4.71623468399,134.26373291,0
37.300000000000004,16.000214343009286,-0.32599282069593327,392.45700025939715,0.49441510070081424,133.0,0.0455729439855,4.71623468399,134.26373291,0
37.4,16.018998264717396,-0.39631150126246395,392.4256478748029,0.49702790324456375,133.0,0.35243034315508187,3.041523343752987,133.93140638830414,0
37.5,16.03778218642551,-0.4666301818289997,392.3942954902086,0.4996407057883134,133.0,0.381609290838,2.88238930702,133.899246216,0
37.6,16.075839938980156,-0.4217866266956555,392.37502322260616,0.5,132.43887174985298,0.381609290838,2.88238930702,133.899246216,0
37.7,16.116970667020034,-0.35858186823186927,392.3576769812135,0.5,131.7882784955508,0.381609290838,2.88238930702,133.899246216,0
37.800000000000004,16.15810139505991,-0.29537710976808307,392.34033073982084,0.5,131.13768524124862,0.682322561741,-6.89203834534,133.597702026,0
37.9,16.199232123099783,-0.23217235130430142,392.3229844984282,0.5,130.4870919869465,0.682322561741,-6.89203834534,133.597702026,0
38.0,16.242960407992996,-0.17333022673756981,392.3165468310807,0.5,129.73804510387882,0.682322561741,-6.89203834534,133.597702026,0
38.1,16.29442715968442,-0.1274849678686047,392.3426072543742,0.5,128.69569178696463,0.682322561741,-6.89203834534,133.597702026,0
38.2,16.34589391137585,-0.08163970899963956,392.3686676776676,0.5,127.65333847005043,1.1072070621091539,-11.726040167733137,131.70515964269322,0
38.300000000000004,16.39736066306728,-0.03579445013067442,392.394728100961,0.5,126.61098515313624,1.33814811707,-14.2588176727,130.667098999,0
38.400000000000006,16.44205563507955,-0.04373136234913487,392.42991850349057,0.4987551146476635,125.62653403812456,1.33814811707,-14.2588176727,130.667098999,0
38.5,16.47715913235702,-0.12784475395832484,392.4780405088367,0.4957469872865221,124.724094969126,1.33814811707,-14.2588176727,130.667098999,0
38.6,16.512262629634495,-0.21195814556752077,392.52616251418294,0.4927388599253805,123.82165590012738,1.72768984853966,-13.59211560417038,127.01081204388312,0
38.7,16.54485584671636,-0.2705770390873852,392.5764527948095,0.48977670573973675,122.91067866211331,1.75912213326,-13.5388364792,126.712806702,0
38.800000000000004,16.551916684188516,-0.06988814524778142,392.6487968794908,0.4872821505777901,121.91285861951675,1.75912213326,-13.5388364792,126.712806702,0
38.900000000000006,16.558977521660676,0.1308007485918224,392.72114096417215,0.4847875954158435,120.9150385769202,1.7641770457282977,-13.467677427125931,126.64741453203067,0
39.0,16.566038359132833,0.33148964243141193,392.7934850488534,0.482293040253897,119.91721853432372,2.03365373611,-9.6654291153,123.003700256,0
39.1,16.571835104889278,0.5364707828820419,392.8669180433646,0.47976093821901294,118.95218974400595,2.03365373611,-9.6654291153,123.003700256,0
39.2,16.563246904562448,0.7902962716567092,392.9527424719754,0.4768015651751603,118.36031457076406,2.03365373611,-9.6654291153,123.003700256,0
39.300000000000004,16.55465870423562,1.0441217604313766,393.0385669005862,0.4738421921313077,117.76843939752219,2.03365373611,-9.6654291153,123.003700256,0
39.400000000000006,16.54607050390879,1.2979472492060442,393.124391329197,0.470882819087455,117.17656422428031,2.23749709129,-6.41339063644,119.090553284,0
39.5,16.527694444702583,1.2665368114984419,393.1970525724888,0.46843131392458043,116.84313136205242,2.23749709129,-6.41339063644,119.090553284,0
39.6,16.505157200450025,1.1138619086421393,393.26411765316874,0.46619572240103047,116.61957199648886,2.23749709129,-6.41339063644,119.090553284,0
39.7,16.48261995619747,0.9611870057858367,393.3311827338486,0.46396013087748056,116.3960126309253,1.84292244911,-1.39207112789,117.003417969,0
39.800000000000004,16.460082711944914,0.8085121029295341,393.39824781452853,0.4617245393539306,116.17245326536174,1.84292244911,-1.39207112789,117.003417969,0
39.900000000000006,16.437879230196014,0.758742112561327,393.4610130384065,0.4593511553754214,115.93511483453842,1.84292244911,-1.39207112789,117.003417969,0
40.0,16.416802002130808,1.0562161519714677,393.5092687547472,0.45651280226982,115.65128009919775,1.84292244911,-1.39207112789,117.003417969,0
40.1,16.395724774065602,1.3536901913816297,393.55752447108796,0.45367444916421834,115.36744536385706,1.4341381414159728,1.2890820578322066,116.49247056085093,0
40.2,16.374647546000396,1.6511642307917915,393.60578018742865,0.4508360960586167,115.08361062851637,1.2620973587,2.37554335594,116.271850586,0
40.300000000000004,16.35462793300644,1.5951361262187007,393.64590308069836,0.449999988079,115.37012882783827,1.2620973587,2.37554335594,116.271850586,0
