t_sec,airspeed,climb,altitude,throttle,heading,pitch,roll,yaw,is_boundary
0.0,21.1363067627,4.02383613586,411.229980469,0.490000009537,274.0,7.04618883133,-38.0212402344,-80.785697937,0
0.1,20.930717992527885,4.351431574192274,411.5577210769068,0.458410623746184,273.0128316719738,7.04618883133,-38.0212402344,-80.785697937,0
0.2,20.725129222355772,4.679027012524547,411.88546168481355,0.4268212379553681,272.0256633439476,7.04618883133,-38.0212402344,-80.785697937,0
0.30000000000000004,20.51954045218366,5.006622450856821,412.2132022927204,0.3952318521645521,271.03849501592134,7.04618883133,-38.0212402344,-80.785697937,0
0.4,20.313951682011545,5.334217889189095,412.54094290062716,0.3636424663737361,270.05132668789514,6.61251783371,-30.3290176392,-85.7952423096,0
0.5,20.108362911839432,5.661813327521369,412.86868350853393,0.33205308058292016,269.06415835986894,6.61251783371,-30.3290176392,-85.7952423096,0
0.6000000000000001,19.912135940679267,5.87788870502932,413.20474762566016,0.32723895970801,269.5522095618901,6.61251783371,-30.3290176392,-85.7952423096,0
0.7000000000000001,19.71655970752926,6.086212330723303,413.541390309344,0.3242859856693476,270.14280317272556,6.61251783371,-30.3290176392,-85.7952423096,0
0.8,19.52098347437925,6.294535956417286,413.87803299302783,0.3213330116306851,270.73339678356103,6.61251783371,-30.3290176392,-85.8280104370284,0
0.9,19.38308290909629,5.8912074609093015,414.1739421802368,0.3187591065578152,271.3722662417857,4.13220262527,3.01641798019,-90.2890930176,0
1.0,19.292642141478822,4.984566442331342,414.4363328392276,0.3164971274163319,272.0508606314062,4.13220262527,3.01641798019,-90.2890930176,0
1.1,19.202201373861357,4.077925423753381,414.6987234982184,0.31423514827484866,272.72945502102664,4.13220262527,3.01641798019,-90.2890930176,0
1.2000000000000002,19.111760606243887,3.171284405175421,414.9611141572092,0.31197316913336537,273.4080494106471,2.865665308809816,13.533371416399998,-89.3820768587288,0
1.3,19.029912696085503,2.328129900677835,415.21065826509926,0.310000002384,274.1332644306355,2.01798152924,20.5594444275,-88.8424224854,0
1.4000000000000001,19.00677120255962,1.9187153673009405,415.3724347142331,0.310000002384,275.176991675816,2.01798152924,20.5594444275,-88.8424224854,0
1.5,18.983629709033735,1.5093008339240466,415.534211163367,0.310000002384,276.22071892099643,2.01798152924,20.5594444275,-88.8424224854,0
1.6,18.960488215507848,1.0998863005471518,415.69598761250086,0.310000002384,277.2644461661769,1.6929811685571314,21.67199115835999,-88.31151765581897,0
1.7000000000000002,18.953283125877974,0.7505380784141401,415.8107081891795,0.310000002384,278.35605397293483,-1.7929302454,35.9423217773,-85.3991699219,0
1.8,18.98411533132632,0.5445572069050715,415.81311496423604,0.310000002384,279.5619439641251,-1.7929302454,35.9423217773,-85.3991699219,0
1.9000000000000001,19.014947536774663,0.33857633539600224,415.8155217392926,0.310000002384,280.7678339553153,-1.7929302454,35.9423217773,-85.3991699219,0
2.0,19.045779742223008,0.13259546388693344,415.81792851434915,0.310000002384,281.9737239465056,-2.520698272800839,36.99715762605852,-84.48858906467547,0
2.1,19.085991228977534,-0.07648822618628087,415.79845023128604,0.3082639741297983,283.1736027840298,-5.03452110291,40.723941803,-81.9329910278,0
2.2,19.179793945494104,-0.30330076532082545,415.65392535459193,0.2966086475831983,284.33913516080355,-5.03452110291,40.723941803,-81.9329910278,0
2.3000000000000003,19.27359666201067,-0.5301133044553701,415.5094004778978,0.2849533210365984,285.50466753757735,-5.03452110291,40.723941803,-81.9329910278,0
2.4000000000000004,19.36739937852724,-0.7569258435899147,415.36487560120366,0.2732979944899985,286.6701999143511,-5.348607339605812,40.87580379000666,-81.14426551677114,0
2.5,19.461202095043806,-0.9837383827244582,415.22035072450956,0.2616426679433986,287.8357322911248,-8.19002342224,42.2149009705,-76.550201416,0
2.6,19.474971222292634,-1.0711937255090007,415.08261963964674,0.259999990463,288.50299336910206,-8.19002342224,42.2149009705,-76.550201416,0
2.7,19.475610020704774,-1.1357860950022518,414.9460031458151,0.259999990463,289.0885079446053,-8.19002342224,42.2149009705,-76.550201416,0
2.8000000000000003,19.476248819116915,-1.200378464495503,414.8093866519835,0.259999990463,289.67402252010845,-8.19002342224,42.2149009705,-76.550201416,0
2.9000000000000004,19.476887617529055,-1.264970833988754,414.6727701581519,0.259999990463,290.2595370956116,-9.043893944557114,21.203906973935712,-71.56299849958765,0
3.0,19.477526415941195,-1.3295632034820049,414.53615366432024,0.259999990463,290.8450516711148,-9.10912322998,19.4340801239,-71.3633880615,0
3.1,19.429718637916224,-1.54351338480029,414.33625624667815,0.2690967220616426,290.24193906356675,-9.10912322998,19.4340801239,-71.3633880615,0
3.2,19.364476339377617,-1.811213119247785,414.1135858563012,0.2814671040464878,289.2110739391227,-9.10912322998,19.4340801239,-71.3633880615,0
3.3000000000000003,19.29923404083901,-2.0789128536952797,413.8909154659243,0.293837486031333,288.1802088146786,-9.286554203183076,15.063212871243913,-70.82475499639571,0
3.4000000000000004,19.233991742300407,-2.3466125881427744,413.66824507554736,0.3062078680161782,287.14934369023456,-10.4860677719,-16.3982696533,-68.0842971802,0
3.5,19.1687494437618,-2.6143123225902682,413.44557468517047,0.31857825000102336,286.1184785657905,-10.4860677719,-16.3982696533,-68.0842971802,0
3.6,19.10892377032937,-2.930374836638301,413.16169918090236,0.3374126902447056,284.5489419412041,-10.4860677719,-16.3982696533,-68.0842971802,0
3.7,19.049801476366873,-3.2527175317240395,412.8698758457022,0.35708652508975447,282.90945576928624,-10.4860677719,-16.3982696533,-68.0842971802,0
3.8000000000000003,18.99067918240438,-3.575060226809778,412.57805251050206,0.3767603599348034,281.2699695973684,-10.4860677719,-16.3982696533,-68.0842971802,0
3.9000000000000004,18.94602752342411,-3.85483118799746,412.24491902914923,0.39295809429681805,279.2722535266734,-10.7214784622,-29.6740512848,-73.4491195679,0
4.0,18.90422842685339,-4.1262100829091155,411.9036421753602,0.40847059310545814,277.2039204343698,-10.7214784622,-29.6740512848,-73.4491195679,0
4.1000000000000005,18.86242933028267,-4.3975889778207735,411.5623653215711,0.4239830919140984,275.13558734206623,-10.72020241982035,-29.845225205509333,-73.94470332762626,0
4.2,18.82063023371195,-4.668967872732429,411.2210884677821,0.43949559072273847,273.06725424976264,-10.6974058151,-33.6547698975,-78.3854904175,0
4.3,18.815813920275314,-4.444770904145271,410.9109416840815,0.4558786785296709,270.6181979575863,-10.6974058151,-33.6547698975,-78.3854904175,0
4.4,18.812240561029654,-4.2039181286046166,410.60184115076555,0.4722910259583071,268.15634594110844,-10.6974058151,-33.6547698975,-78.3854904175,0
4.5,18.808667201783997,-3.9630653530639632,410.2927406174496,0.4887033733869431,265.69449392463065,-10.6974058151,-33.6547698975,-78.3854904175,0
4.6000000000000005,18.81791987974932,-3.7843197010734766,410.00175673398076,0.5028974073801116,263.3239376332358,-9.60453510284,-36.6176300049,-87.0191268921,0
4.7,18.855495243514127,-3.742720115111576,409.7507783621846,0.5121929217912712,261.1549822021714,-9.60453510284,-36.6176300049,-87.0191268921,0
4.800000000000001,18.89307060727894,-3.701120529149675,409.49979999038845,0.5214884362024308,258.986026771107,-9.60453510284,-36.6176300049,-87.0191268921,0
4.9,18.932315687111572,-3.666506075720493,409.2545358307274,0.5304905458285878,256.7792419500127,-8.752739365280295,-37.42477289582252,-91.59250184600457,0
5.0,18.989688603290997,-3.707728072484202,409.07130994477717,0.5363072073247376,254.16174958122448,-7.88800096512,-38.2379646301,-95.545425415,0
5.1000000000000005,19.047061519470425,-3.748950069247911,408.88808405882696,0.5421238688208874,251.54425721243624,-7.88800096512,-38.2379646301,-95.545425415,0
5.2,19.10443443564985,-3.7901720660116203,408.70485817287675,0.5479405303170372,248.926764843648,-7.578885666235741,-38.55317862444872,-97.06410209997333,0
5.300000000000001,19.16239564696686,-3.475394253708844,408.54601700007015,0.5542075987077962,246.17671065357806,-6.01313829422,-40.1733016968,-103.219734192,0
5.4,19.220679329671544,-2.965476714582943,408.40054220033545,0.5607215556533658,243.35399328523306,-6.01313829422,-40.1733016968,-103.219734192,0
5.5,19.278963012376224,-2.455559175457042,408.25506740060075,0.5672355125989355,240.5312759168881,-6.01313829422,-40.1733016968,-103.219734192,0
5.6000000000000005,19.337246695080903,-1.9456416363311357,408.10959260086605,0.5737494695445052,237.7085585485431,-4.59407138824,-38.9832115173,-111.439735413,0
5.7,19.395579643318904,-1.4483604707273583,407.96710743891475,0.5802553200383281,234.8978654145874,-4.59407138824,-38.9832115173,-111.439735413,0
5.800000000000001,19.455081476989037,-1.25089282444101,407.89555511412266,0.5865688349840525,232.372462045376,-4.59407138824,-38.9832115173,-111.439735413,0
5.9,19.514583310659166,-1.0534251781546635,407.8240027893306,0.5928823499297768,229.8470586761647,-4.59407138824,-38.9832115173,-111.439735413,0
6.0,19.5740851443293,-0.855957531868317,407.7524504645386,0.5991958648755012,227.32165530695335,-4.59407138824,-38.9832115173,-111.439735413,0
6.1000000000000005,19.633586977999432,-0.6584898855819686,407.6808981397465,0.6055093798212257,224.796251937742,-3.2084543705,-39.3443984985,-124.420280457,0
6.2,19.690298241288808,-0.5699021153322872,407.6363014502911,0.609300367916495,222.16042353309004,-3.2084543705,-39.3443984985,-124.420280457,0
6.300000000000001,19.74013498271962,-0.749538036172197,407.6581095021786,0.6068771547531795,219.2525649638867,-3.2084543705,-39.3443984985,-124.420280457,0
6.4,19.789971724150433,-0.9291739570121054,407.67991755406615,0.6044539415898641,216.34470639468339,-3.2084543705,-39.3443984985,-124.420280457,0
6.5,19.839808465581246,-1.1088098778520137,407.70172560595364,0.6020307284265486,213.4368478254801,-2.0370689741503343,-40.8553306567999,-131.56645856739843,0
6.6000000000000005,19.886679177938262,-1.1902059589941933,407.7302279473296,0.6004261543726411,210.616482156662,-0.787345170975,-42.3375930786,-136.713912964,0
6.7,19.918204674511756,-0.7633428487418028,407.7933642434513,0.6030569379198041,208.24877470613276,-0.787345170975,-42.3375930786,-136.713912964,0
6.800000000000001,19.949730171085253,-0.3364797384894084,407.8565005395731,0.605687721466967,205.88106725560354,-0.787345170975,-42.3375930786,-136.713912964,0
6.9,19.981255667658747,0.09038337176298228,407.9196368356949,0.6083185050141299,203.51335980507432,-0.787345170975,-42.3375930786,-136.95047803329905,0
7.0,20.011085444666385,0.34906467203955355,407.99717894591066,0.6091548495518134,200.90128477301283,0.547732174397,-41.642829895,-148.800628662,0
7.1000000000000005,20.037911486783077,0.3098349374861153,408.10023898214297,0.6068125912291152,197.85634604954708,0.547732174397,-41.642829895,-148.800628662,0
7.2,20.06473752889977,0.2706052029326773,408.20329901837533,0.604470332906417,194.81140732608134,0.547732174397,-41.642829895,-148.800628662,0
7.300000000000001,20.091563571016465,0.23137546837923906,408.30635905460764,0.6021280745837189,191.7664686026156,2.4546327331280935,-43.47436219932284,-157.0036771591412,0
7.4,20.119242764309686,0.24438521681682726,408.41147511724694,0.5997390871372194,188.7651581415036,2.58281159401,-43.6239242554,-157.025909424,0
7.5,20.155397609985084,0.7763694572765183,408.5370168272899,0.596885868004285,186.19727377874617,2.58281159401,-43.6239242554,-157.025909424,0
7.6000000000000005,20.191552455660485,1.3083536977362138,408.66255853733287,0.5940326488713507,183.62938941598867,2.58281159401,-43.6239242554,-157.025909424,0
7.7,20.227707301335883,1.8403379381959049,408.7881002473759,0.5911794297384164,181.06150505323123,2.570424213985455,-43.63433013493704,-157.73148022589675,0
7.800000000000001,20.25824571522409,1.9726676330471271,408.9154180268786,0.5854287806799527,178.6286407639891,1.96729421616,-44.1795730591,-171.123260498,0
7.9,20.284826380432705,1.8233715003080615,409.04398735484233,0.5776363905487842,176.29092149527258,1.96729421616,-44.1795730591,-171.123260498,0
8.0,20.310684558350026,1.675418197123443,409.17255975307205,0.569999992847,173.9383827828742,1.96729421616,-44.1795730591,-171.123260498,0
8.1,20.301174351323446,1.5932012925829948,409.3012824520119,0.569999992847,170.860378314731,1.970720388164571,-45.03684386962656,-178.40545175221098,0
8.200000000000001,20.291664144296867,1.5109843880425453,409.43000515095173,0.569999992847,167.78237384658775,1.97151398659,-45.2488670349,-179.570358276,0
8.3,20.282153937270284,1.4287674835020971,409.55872784989157,0.569999992847,164.70436937844454,1.97151398659,-45.2488670349,-179.570358276,0
8.4,20.273472277544027,1.4080118577073943,409.6674123134977,0.569999992847,161.75303491106683,1.8842716217,-43.4326019287,173.742019653,0
8.5,20.26581865696576,1.4635157292419803,409.7512338750443,0.569999992847,158.95886916491014,1.8842716217,-43.4326019287,173.742019653,0
8.6,20.258165036387496,1.5190196007765662,409.83505543659084,0.569999992847,156.16470341875345,1.8842716217,-43.4326019287,173.742019653,0
8.700000000000001,20.25051141580923,1.574523472311153,409.9188769981374,0.569999992847,153.37053767259673,0.656286238587128,-45.07355386648574,164.31327187247064,0
8.8,20.27143074658298,1.3962811529078238,410.0207279140437,0.5637425805690618,150.4970327017448,0.465711653233,-45.3599433899,163.718490601,0
8.9,20.296718468286297,1.18230242224843,410.12533525742157,0.5565285004726412,147.61139791114667,0.465711653233,-45.3599433899,163.718490601,0
9.0,20.322842632711943,1.0146202923280154,410.2307714516843,0.5494614910776373,144.8115180867911,0.465711653233,-45.3599433899,163.718490601,0
9.1,20.356931753500273,1.2877936983398186,410.34410030966825,0.5437949502236945,142.8282328071379,0.5740493536,-45.058555603,153.983673096,0
9.200000000000001,20.391020874288603,1.5609671043516269,410.45742916765226,0.5381284093697517,140.84494752748466,0.5740493536,-45.058555603,153.983673096,0
9.3,20.42510999507693,1.83414051036343,410.5707580256362,0.5324618685158089,138.86166224783148,0.5740493536,-45.05838287927733,153.74773798807004,0
9.4,20.45866946650331,1.8487274219095733,410.69611081980827,0.5236567441061882,136.94279444447633,-0.079104475677,-44.91355896,145.965652466,0
9.5,20.491822046445794,1.6646609412208426,410.8307007387448,0.5124404718466522,135.0734139517878,-0.079104475677,-44.91355896,145.965652466,0
9.600000000000001,20.52497462638828,1.4805944605321089,410.9652906576813,0.501224199587116,133.20403345909924,-0.079104475677,-44.91355896,145.965652466,0
9.700000000000001,20.539658021048577,1.818456238812831,411.0612355280349,0.4949216723162152,130.96867001619304,0.456965059042,-43.9695129395,137.730453491,0
9.8,20.552078625020894,2.220263144404141,411.15244571980173,0.4892211627430924,128.68846741015864,0.456965059042,-43.9695129395,137.730453491,0
9.9,20.564499228993206,2.622070049995452,411.2436559115686,0.4835206531699696,126.4082648041242,0.456965059042,-43.9695129395,137.730453491,0
10.0,20.593654979844448,2.7540360921324325,411.3443934808379,0.479999989271,124.05520058557791,1.57579088211,-42.166015625,133.239700317,0
10.100000000000001,20.6498396291903,2.4501827560010274,411.4605186963163,0.479999989271,121.58445773875395,1.57579088211,-42.166015625,133.239700317,0
10.200000000000001,20.706024278536148,2.146329419869628,411.5766439117947,0.479999989271,119.11371489193006,1.57579088211,-42.166015625,133.239700317,0
10.3,20.762208927882,1.8424760837382286,411.6927691272731,0.479999989271,116.64297204510616,0.0690894946456,-40.4171409607,125.006393433,0
10.4,20.816846070880143,1.5468350699370101,411.7884394425605,0.479999989271,114.5387674373157,0.0690894946456,-40.4171409607,125.006393433,0
10.5,20.86841169980262,1.2674939980833568,411.8435105616339,0.479999989271,113.16207348699793,0.0690894946456,-40.4171409607,125.006393433,0
10.600000000000001,20.919977328725096,0.9881529262296987,411.8985816807072,0.479999989271,111.78537953668013,0.0690894946456,-40.4171409607,125.006393433,0
10.700000000000001,20.97154295764757,0.7088118543760457,411.9536527997805,0.479999989271,110.40868558636235,-1.4183725100480742,-43.85676666811508,116.50699038353036,0
10.8,21.035804537213046,0.5879526847015845,411.9784935743767,0.479999989271,108.08817027437478,-1.61662662029,-44.3264503479,115.871398926,0
10.9,21.10542624818458,0.5340033388795424,411.99057133315756,0.479999989271,105.36918093987026,-1.61662662029,-44.3264503479,115.871398926,0
11.0,21.175047959156107,0.4800539930575005,412.0026490919384,0.479999989271,102.65019160536575,-1.61662662029,-44.3264503479,115.871398926,0
11.100000000000001,21.257611726966747,0.30247140812190265,412.0008932751306,0.4786018729264214,100.09122350932377,-0.647452771664,-44.3547477722,110.380485535,0
11.200000000000001,21.36015764197868,-0.06599718617464656,411.97777883293816,0.4750451069213433,97.77932340116384,-0.647452771664,-44.3547477722,110.380485535,0
11.3,21.462703556990615,-0.4344657804711958,411.95466439074573,0.4714883409162651,95.46742329300392,-0.647452771664,-44.3547477722,110.380485535,0
11.4,21.56524947200255,-0.802934374767745,411.9315499485533,0.467931574911187,93.155523184844,-2.50003170967,-45.3792304993,101.757957458,0
11.5,21.667795387014483,-1.1714029690642942,411.9084355063609,0.4643748089061088,90.84362307668407,-2.50003170967,-45.3792304993,101.757957458,0
11.600000000000001,21.77034130202642,-1.5398715633608497,411.88532106416847,0.4608180429010306,88.53172296852411,-2.50003170967,-45.3792304993,101.757957458,0
11.700000000000001,21.866707479899425,-1.0394583797640018,411.84605350819265,0.460000008345,86.20271623917549,-2.50003170967,-45.3792304993,101.757957458,0
11.8,21.96122782563413,-0.2795179907270837,411.8019611617953,0.460000008345,83.86859991528297,-2.50003170967,-45.3792304993,101.757957458,0
11.9,22.055748171368833,0.4804223983098339,411.757868815398,0.460000008345,81.53448359139045,-2.50003170967,-45.3792304993,101.757957458,0
12.0,22.150268517103537,1.240362787346752,411.7137764690007,0.460000008345,79.20036726749794,-3.91620802879,-41.2766418457,88.8725204468,0
12.100000000000001,22.236474818320016,0.9064050383246245,411.6521207020329,0.46206682799265936,76.93317838121285,-3.91620802879,-41.2766418457,88.8725204468,0
12.200000000000001,22.32190039868416,0.46972603434184423,411.58881566212125,0.46432772997815097,74.67227423949693,-3.91620802879,-41.2766418457,88.8725204468,0
12.3,22.407325979048306,0.03304703035906398,411.5255106222096,0.46658863196364264,72.411370097781,-3.937562283135441,-41.2146732735863,88.09082132946921,0
12.4,22.492751559412454,-0.40363197362371617,411.46220558229794,0.46884953394913426,70.15046595606508,-4.40636205673,-39.5534324646,79.1414794922,0
12.5,22.58238913520484,-0.6599802274135971,411.39055582051947,0.47303348925369937,67.7866038699325,-4.40636205673,-39.5534324646,79.1414794922,0
12.600000000000001,22.67639053548553,-0.7294973801035026,411.3102605361495,0.479209817842866,65.31607253242832,-4.40636205673,-39.5534324646,79.1414794922,0
12.700000000000001,22.770391935766224,-0.799014532793407,411.22996525177945,0.4853861464320325,62.84554119492417,-4.40636205673,-39.5534324646,79.1414794922,0
12.8,22.864393336046913,-0.8685316854833113,411.14966996740947,0.491562475021199,60.37500985742002,-3.780489525693326,-39.846114627184456,70.3616096988594,0
12.9,22.958394736327605,-0.9380488381732156,411.0693746830394,0.4977388036103655,57.90447851991587,-3.71653079987,-39.8765029907,69.9414672852,0
13.0,23.052288986448946,-0.9840071699671561,410.99608525738506,0.49768988611286086,55.38291873679221,-3.71653079987,-39.8765029907,69.9414672852,0
13.100000000000001,23.14612135167315,-1.0163590338210444,410.9268420865253,0.49404555899484587,52.83188732126304,-3.71653079987,-39.8765029907,69.9414672852,0
13.200000000000001,23.23995371689735,-1.048710897674932,410.85759891566556,0.49040123187683093,50.2808559057339,-3.7498658292727582,-39.946024525056814,69.1451952915183,0
13.3,23.341594290249308,-1.704851861462116,410.79913099325796,0.502712324565551,47.966030080370935,-4.57112693787,-41.2066726685,57.8304176331,0
13.4,23.44420085999953,-2.43816520768968,410.7419961361356,0.5169973500457449,45.68042654847352,-4.57112693787,-41.2066726685,57.8304176331,0
13.5,23.546807429749748,-3.1714785539172436,410.68486127901326,0.5312823755259387,43.3948230165761,-4.730284058546377,-41.27194623763501,56.381628949307846,0
13.600000000000001,23.65252203827392,-3.219983153370238,410.60860536213545,0.5437625909836868,41.059356721510305,-5.57545185089,-41.6360168457,50.170425415,0
13.700000000000001,23.763103349587094,-2.196184322825996,410.50240885519145,0.5534167561220172,38.64581313519153,-5.57545185089,-41.6360168457,50.170425415,0
13.8,23.873684660900274,-1.1723854922817543,410.3962123482474,0.5630709212603476,36.23226954887276,-5.57545185089,-41.6360168457,50.170425415,0
13.9,23.98426597221345,-0.14858666173751223,410.2900158413034,0.572725086398678,33.818725962553984,-5.501670710537725,-43.112306458451116,47.52010398435612,0
14.0,24.097003736349794,0.49336328428606185,410.1801113813891,0.579999983311,31.33601637586481,-5.33474969864,-46.4569358826,42.2798500061,0
14.100000000000001,24.216335112678884,-0.032235363248237725,410.0588694121854,0.579999983311,28.641823478033146,-5.33474969864,-46.4569358826,42.2798500061,0
14.200000000000001,24.335666489007973,-0.5578340107825281,409.9376274429817,0.579999983311,25.947630580201526,-5.33474969864,-46.4569358826,42.2798500061,0
14.3,24.45499786533706,-1.0834326583168183,409.816385473778,0.579999983311,23.253437682369913,-5.172104891644075,-46.574980633578974,40.65553956249367,0
14.4,24.565172663583297,-1.5171601564053885,409.6918209899405,0.5860140182453486,20.195791383683474,-3.93638324738,-47.5633354187,32.381690979,0
14.5,24.667381361906774,-1.870960988671687,409.5643659630061,0.5972601827801345,16.821945508880326,-3.93638324738,-47.5633354187,32.381690979,0
14.600000000000001,24.769590060230254,-2.2247618209379914,409.4369109360717,0.6085063473149207,13.448099634077119,-3.93638324738,-47.5633354187,32.381690979,0
14.700000000000001,24.81709848722575,-2.2067623248271446,409.3108628578322,0.5910222512152301,11.102224709060852,-4.35301828384,-46.6935539246,21.3969573975,0
14.8,24.856229163880222,-2.1318188638650577,409.18503026417125,0.5691379036179749,8.91379112329317,-4.35301828384,-46.6935539246,21.3969573975,0
14.9,24.895359840534695,-2.056875402902971,409.05919767051023,0.5472535560207197,6.725357537525484,-4.35301828384,-46.6935539246,21.3969573975,0
15.0,24.898827410990467,-1.8607502362803474,408.97734283341526,0.5272603165177915,4.771695322988332,-4.07995271683,-48.0637283325,13.0283946991,0
15.100000000000001,24.769419162614604,-1.2131187348661383,409.05934305654796,0.5143130851537167,3.692758882944108,-4.07995271683,-48.0637283325,13.0283946991,0
15.200000000000001,24.64001091423874,-0.5654872334519403,409.1413432796806,0.501365853789642,2.6138224428999033,-4.07995271683,-48.0637283325,13.0283946991,0
15.3,24.510602665862876,0.08214426796225749,409.2233435028133,0.4884186224255675,1.5348860028556985,-3.6100668874583044,-45.01112688535979,11.410563110112479,0
15.4,24.381194417487013,0.7297757693764553,409.305343725946,0.4754713910614929,0.4559495628114938,-0.913035452366,-25.3749732971,5.54003620148,0
15.5,24.225791940625975,1.2698435133656185,409.51292854331336,0.46524038064721285,0.15865393238905445,-0.913035452366,-25.3749732971,5.54003620148,0
15.600000000000001,24.051364894313185,1.731187852473203,409.8124257956449,0.456997308983841,0.4334229769172936,-0.913035452366,-25.3749732971,5.54003620148,0
15.700000000000001,23.876937848000402,2.192532191580779,410.1119230479764,0.44875423732046926,0.7081920214455278,-0.913035452366,-25.3749732971,5.54003620148,0
15.8,23.70251080168762,2.653876530688355,410.41142030030795,0.4405111656570975,0.9829610659737621,2.66569185257,8.29321575165,0.197212174535,0
15.9,23.559394691477134,3.040253035525451,410.71022773582035,0.4326252878283502,1.7374709494627991,2.66569185257,8.29321575165,0.197212174535,0
16.0,23.418348595412485,3.4216733015290766,411.0089895664818,0.4247630246334184,2.5236972377165863,2.66569185257,8.29321575165,0.197212174535,0
16.1,23.277302499347833,3.8030935675327084,411.30775139714325,0.4169007614384865,3.3099235259703876,2.66569185257,8.29321575165,0.197212174535,0
16.2,23.1422067685605,4.109196302508039,411.60512121790873,0.4093430956911978,4.098535057061198,3.4801671505,23.6946868896,1.19936239719,0
16.3,23.049817382271996,3.8747378656911344,411.8925004496276,0.4039715551524071,4.904265705645588,3.4801671505,23.6946868896,1.19936239719,0
16.400000000000002,22.95742799598349,3.6402794288742295,412.17987968134645,0.3986000146136165,5.709996354229979,3.4801671505,23.6946868896,1.19936239719,0
16.5,22.86503860969499,3.4058209920573335,412.4672589130653,0.39322847407482603,6.515727002814341,3.4801671505,23.6946868896,1.19936239719,0
16.6,22.78930549807277,3.2815012882373917,412.7080724913563,0.389999985695,7.446469436723861,2.84625220299,33.7225723267,4.14246702194,0
16.7,22.738664911140788,3.323104573347992,412.87873534076175,0.389999985695,8.565540976192061,2.84625220299,33.7225723267,4.14246702194,0
16.8,22.688024324208804,3.3647078584585937,413.0493981901672,0.389999985695,9.6846125156603,2.84625220299,33.7225723267,4.14246702194,0
16.900000000000002,22.63738373727682,3.4063111435691957,413.22006103957267,0.389999985695,10.803684055128539,2.141446099176928,36.38220507587621,5.886226483991878,0
17.0,22.609632421804246,2.95725011510315,413.27668766378866,0.39296540834044297,12.482708318013064,1.29857170582,39.4873504639,7.77369356155,0
17.1,22.586750791197616,2.4038004176346472,413.309053119144,0.3965617236642856,14.280862335975284,1.29857170582,39.4873504639,7.77369356155,0
17.2,22.565371386981774,1.8370251664470292,413.33656347481053,0.40012713972336805,16.063566942301453,0.8404908863369478,40.104103866194464,8.692493067656278,0
17.3,22.576675520281913,0.9803294095538359,413.25844272600773,0.40302028874919993,17.51014283467216,-1.19792723656,42.9231910706,11.9952526093,0
17.400000000000002,22.587979653582053,0.12363365266064252,413.180321977205,0.40591343777503175,18.95671872704287,-1.19792723656,42.9231910706,11.9952526093,0
17.5,22.599283786882193,-0.7330621042325207,413.10220122840224,0.4088065868008635,20.403294619413522,-1.19792723656,42.9231910706,11.9952526093,0
17.6,22.62485540815328,-1.2142233416711652,412.9733815110535,0.41419996296283623,21.979992153456763,-3.5670273304,42.5773773193,16.3381614685,0
17.7,22.660444422335008,-1.431716802375154,412.8089653741302,0.42134878182359276,23.64804982135579,-3.5670273304,42.5773773193,16.3381614685,0
17.8,22.69603343651674,-1.6492102630791505,412.6445492372069,0.4284976006843495,25.316107489254883,-3.5670273304,42.5773773193,16.3381614685,0
17.900000000000002,22.731622450698474,-1.8667037237831472,412.4801331002835,0.4356464195451063,26.98416515715397,-5.28621665238971,42.69417558974644,20.39002353316927,0
18.0,22.779182509009644,-2.072151452385589,412.2801560210374,0.44489445712064973,28.88100250078834,-5.9219956398,42.7389984131,21.5832233429,0
18.1,22.845387428041455,-2.2588379940035956,412.0247928944644,0.45741202074055093,31.134163415171926,-5.9219956398,42.7389984131,21.5832233429,0
18.2,22.911592347073267,-2.4455245356215953,411.7694297678914,0.4699295843604517,33.38732432955543,-5.9219956398,42.7389984131,21.5832233429,0
18.3,22.977797266105078,-2.6322110772396017,411.5140666413183,0.4824471479803529,35.640485243939025,-7.890842457654611,42.31671545397715,29.2639522552,0
18.400000000000002,23.05344293345246,-2.8125217529838182,411.269283446295,0.49394364014228814,37.98590859158305,-8.01647281647,42.2898330688,29.2639522552,0
18.5,23.143450925892097,-2.9831327465245563,411.0405956296559,0.5038867638919389,40.47169189968728,-8.01647281647,42.2898330688,29.2639522552,0
18.6,23.230857583980008,-3.156630585047139,410.8162219254466,0.5147868793003758,42.837705097153865,-8.01647281647,42.2898330688,29.2639522552,0
18.7,23.314112029740095,-3.3347363638424112,410.59873434520006,0.5272145309751847,45.012542973553636,-8.348887769668213,42.43188618850976,37.14732988414207,0
18.8,23.39736647550019,-3.51284214263769,410.3812467649535,0.539642182649994,47.187380849953485,-8.37952613831,42.4456672668,37.7698898315,0
18.900000000000002,23.47634185513087,-3.563144869193966,410.1706764976112,0.550000011921,49.39736099431106,-7.695990226419216,42.334707427902046,40.90059990395367,0
19.0,23.53390388242449,-2.9738940799642375,409.9947219277051,0.550000011921,51.783200483428345,-7.36837482452,42.2813873291,42.1563262939,0
19.1,23.59146590971811,-2.384643290734488,409.81876735779895,0.550000011921,54.16903997254572,-7.36837482452,42.2813873291,42.1563262939,0
19.200000000000003,23.649027937011734,-1.7953925015047385,409.6428127878928,0.550000011921,56.55487946166309,-6.875318199442067,42.9961267447068,45.453293450248594,0
19.3,23.670725857509577,-1.5100414245944809,409.5159609195983,0.5480410917397991,59.15481425436731,-6.14599180222,44.0145111084,49.7612304688,0
19.400000000000002,23.68419803748096,-1.2943923534762867,409.4003711771084,0.5456328764119389,61.80385364140236,-6.14599180222,44.0145111084,49.7612304688,0
19.5,23.69767021745234,-1.0787432823581,409.28478143461854,0.5432246610840789,64.45289302843732,-6.14599180222,44.0145111084,49.7612304688,0
19.6,23.711142397423725,-0.8630942112399057,409.16919169212866,0.5408164457562187,67.10193241547236,-4.8014292717,40.767124176,57.5742683411,0
19.700000000000003,23.674731494827427,-0.978656190161422,409.0859439045651,0.5432635584511053,69.30541604221742,-4.8014292717,40.767124176,57.5742683411,0
19.8,23.612735725926495,-1.2640952095081806,409.01928419757365,0.5482009526589399,71.28037560887017,-4.8014292717,40.767124176,57.5742683411,0
19.900000000000002,23.550739957025556,-1.5495342288549492,408.9526244905822,0.5531383468667747,73.255335175523,-4.8014292717,40.767124176,57.5742683411,0
20.0,23.488744188124624,-1.8349732482017074,408.8859647835908,0.5580757410746092,75.23029474217577,-4.20819711685,38.1679077148,68.4234542847,0
20.1,23.404931395581013,-1.721131810114816,408.8538305807429,0.560000002384,77.23069134497882,-4.20819711685,38.1679077148,68.4234542847,0
20.200000000000003,23.307185711294277,-1.3522999810523881,408.8437452200969,0.560000002384,79.2473326691862,-4.20819711685,38.1679077148,68.4234542847,0
20.3,23.209440027007545,-0.9834681519899733,408.8336598594508,0.560000002384,81.26397399339352,-4.20819711685,38.1679077148,68.4234542847,0
20.400000000000002,23.11169434272081,-0.6146363229275453,408.82357449880476,0.560000002384,83.2806153176009,-0.853696584702,39.9401016235,76.2434997559,0
20.5,23.002144483664335,-0.5691394207891839,408.83461235636724,0.561625687898545,85.46311835846639,-0.853696584702,39.9401016235,76.2434997559,0
20.6,22.886048701277005,-0.7029456620824741,408.85736394823067,0.5641528860512766,87.73759886509694,-0.853696584702,39.9401016235,76.2434997559,0
20.700000000000003,22.769952918889672,-0.8367519033757644,408.8801155400941,0.5666800842040083,90.0120793717275,-0.853696584702,39.9401016235,76.2434997559,0
20.8,22.653857136502346,-0.97055814466905,408.9028671319575,0.5692072823567398,92.28655987835798,-0.14351156758312378,39.99864673543754,82.67069706390642,0
20.900000000000002,22.523072525950425,-0.8813945030170716,408.9180853463564,0.5716167228854157,94.77840473814398,0.199642270803,40.0251083374,85.3445129395,0
21.0,22.385574700639104,-0.6903272450713098,408.9298605917032,0.5739723448105252,97.36959132671996,0.199642270803,40.0251083374,85.3445129395,0
21.1,22.248076875327783,-0.4992599871255412,408.9416358370499,0.5763279667356347,99.96077791529603,0.199642270803,40.0251083374,85.3445129395,0
21.200000000000003,22.110579050016458,-0.3081927291797726,408.95341108239666,0.5786835886607443,102.55196450387211,-0.00739592080936,41.0927124023,93.900100708,0
21.3,21.974934052746267,-0.30321699627121007,408.9550220142068,0.5824841780569034,104.86946639904907,-0.00739592080936,41.0927124023,93.900100708,0
21.400000000000002,21.841636042492485,-0.5339643760488056,408.9437577566462,0.5881151153420273,106.84029045486895,-0.00739592080936,41.0927124023,93.900100708,0
21.5,21.708338032238707,-0.764711755826393,408.9324934990856,0.5937460526271511,108.81111451068877,-0.00739592080936,41.0927124023,93.900100708,0
21.6,21.575040021984925,-0.9954591356039886,408.92122924152494,0.5993769899122751,110.78193856650866,-0.5280400819068988,42.30101758384336,101.61387472584259,0
21.700000000000003,21.455292258759798,-0.8935750190484948,408.9015424313721,0.600000023842,113.25392798656894,-0.764073610306,42.838142395,104.318725586,0
21.8,21.337230283589246,-0.750308173314082,408.8808077703189,0.600000023842,115.78826745697268,-0.764073610306,42.838142395,104.318725586,0
21.900000000000002,21.219168308418695,-0.607041327579664,408.86007310926567,0.600000023842,118.3226069273765,-0.764073610306,42.838142395,104.318725586,0
22.0,21.101106333248147,-0.4637744818452513,408.8393384482125,0.600000023842,120.85694639778023,0.377719372511,45.3558959961,111.507408142,0
22.1,20.988221303930185,-0.47841412701043584,408.8145597633615,0.6022036209864828,123.32215954763323,0.377719372511,45.3558959961,111.507408142,0
22.200000000000003,20.87958955335287,-0.6227866957711586,408.7864585866523,0.6062176509912733,125.73057984741801,0.377719372511,45.3558959961,111.507408142,0
22.3,20.770011756127182,-0.7683446206275236,408.760468289409,0.610000014305,128.13445766396566,0.377719372511,45.3558959961,111.507408142,0
22.400000000000002,20.644988095193327,-0.9332555538481584,408.76894178588117,0.610000014305,130.4641715086875,-0.641063034534,44.2790756226,122.049240112,0
22.5,20.519964434259478,-1.0981664870687873,408.77741528235333,0.610000014305,132.7938853534093,-0.641063034534,44.2790756226,122.049240112,0
22.6,20.394940773325622,-1.263077420289422,408.7858887788255,0.610000014305,135.12359919813116,-0.641063034534,44.2790756226,122.049240112,0
22.700000000000003,20.269917112391767,-1.4279883535100568,408.79436227529766,0.610000014305,137.45331304285304,-0.47378385067,45.0467987061,128.035263062,0
22.8,20.149112464654486,-1.32739794447137,408.82139130854017,0.610000014305,139.89184943834744,-0.47378385067,45.0467987061,128.035263062,0
22.900000000000002,20.03664149330394,-0.7023715681705982,408.88507247616155,0.610000014305,142.54533939749902,-0.47378385067,45.0467987061,128.035263062,0
23.0,19.924170521953396,-0.07734519186984867,408.9487536437829,0.610000014305,145.19882935665052,-0.47378385067,45.0467987061,128.035263062,0
23.1,19.81169955060285,0.5476811844309233,409.0124348114042,0.610000014305,147.8523193158021,0.5844824479440391,45.3140950663686,133.1188050426097,0
23.200000000000003,19.705780968524714,0.896636118510651,409.05877013550196,0.610000014305,150.70812707955443,2.15052914619,45.7285041809,139.104324341,0
23.3,19.604856412402178,1.0351780428116304,409.09188500074464,0.610000014305,153.71813513963357,2.15052914619,45.7285041809,139.104324341,0
23.400000000000002,19.503931856279635,1.1737199671126148,409.1249998659873,0.610000014305,156.7281431997128,2.15052914619,45.7285041809,139.104324341,0
23.5,19.401303532772022,1.2786414947410247,409.14638583703913,0.610000014305,159.57743041915074,0.7352267663576173,46.051770940716885,148.80178130650657,0
23.6,19.29343141205001,1.2800873108594906,409.1316730171267,0.610000014305,161.9320565106495,0.514581978321,46.1037750244,149.916091919,0
23.700000000000003,19.185559291327998,1.2815331269779564,409.1169601972142,0.610000014305,164.28668260214823,0.514581978321,46.1037750244,149.916091919,0
23.8,19.07768717060599,1.282978943096422,409.10224737730175,0.610000014305,166.6413086936469,-0.11785224604929878,45.72541673092673,156.93207627414648,0
23.900000000000002,18.955815113427843,0.7952997229157046,409.0888386038508,0.610000014305,168.85943416344583,-0.384018361568,45.56590271,159.375595093,0
24.0,18.831427114579814,0.2197193851504633,409.07566418180863,0.610000014305,171.05302897889672,-0.384018361568,45.56590271,159.375595093,0
24.1,18.70205833641064,0.12405129358508832,409.06692512294757,0.608473335129108,173.67934869507604,-0.3352206723175419,45.56164909719959,160.4765337390096,0
24.200000000000003,18.56890601608462,0.3929382441137749,409.0615552925736,0.6057869468696524,176.6343785986892,0.0786992534995,45.5227203369,167.156021118,0
24.3,18.43575369575861,0.6618251946424519,409.0561854621996,0.6031005586101968,179.5894085023023,0.0786992534995,45.5227203369,167.156021118,0
24.400000000000002,18.302601375432594,0.9307121451711385,409.0508156318256,0.6004141703507413,182.54443840591549,0.473592609167,45.1525039673,173.311706543,0
24.5,18.168472287360288,0.6712128172089191,409.1061332916865,0.5915787043331147,184.68426216165355,0.473592609167,45.1525039673,173.311706543,0
24.6,18.034165170276825,0.3154080092355822,409.1725120598987,0.5816224864919968,186.67550367259275,0.473592609167,45.1525039673,173.311706543,0
24.700000000000003,17.899858053193363,-0.04039679873775459,409.2388908281108,0.5716662686508789,188.666745183532,0.5058305677033397,44.931063238014254,128.91044606516422,0
24.8,17.767846330592434,0.3063595696155374,409.4092889263963,0.5601975000652621,190.71543531660174,0.802081823349,42.9258003235,-176.597839355,0
24.900000000000002,17.63629598157764,0.7943305186738862,409.60059487808513,0.5484247092444621,192.77567260507897,0.802081823349,42.9258003235,-176.597839355,0
25.0,17.50474563256285,1.2823014677322175,409.7919008297739,0.5366519184236624,194.8359098935561,0.802081823349,42.9258003235,-176.59631582368857,0
25.1,17.38382433820197,1.7474940233668481,409.9905281010429,0.5289091812297062,196.76355384040693,3.91647529602,38.0372123718,-170.82963562,0
25.200000000000003,17.276710125547677,2.1830975751449104,410.1986657249194,0.5264014608382386,198.5189597885649,3.91647529602,38.0372123718,-170.82963562,0
25.3,17.16959591289339,2.618701126922957,410.4068033487959,0.5238937404467711,200.2743657367228,3.91647529602,38.0372123718,-170.82963562,0
25.400000000000002,17.062481700239097,3.05430467870102,410.6149409726724,0.5213860200553034,202.02977168488079,3.6450551734851264,38.17297925671117,-165.64094193636933,0
25.5,16.968872951248123,3.2018461805270055,410.7935896053804,0.5177681122108866,203.78115479558792,3.52155280113,38.2359085083,-163.673797607,0
25.6,16.891952633898086,2.9934351620383852,410.9357992808232,0.5127783679098287,205.5275669664242,3.52155280113,38.2359085083,-163.673797607,0
25.700000000000003,16.81503231654805,2.785024143549765,411.07800895626593,0.5077886236087706,207.27397913726045,3.52155280113,38.2359085083,-163.673797607,0
25.8,16.73811199919801,2.5766131250611517,411.22021863170875,0.5027988793077129,209.02039130809666,3.36970180608039,40.077817133632884,-159.23046280683423,0
25.900000000000002,16.668782304226845,2.3168228268247626,411.356382746559,0.4937339929537857,210.835467572966,3.25978255272,41.4339599609,-156.27734375,0
26.0,16.60914980007913,1.9913943430461276,411.48482352177075,0.47946302096591437,212.73826376241107,3.25978255272,41.4339599609,-156.27734375,0
26.1,16.549517295931416,1.6659658592674806,411.61326429698244,0.46519204897804245,214.64105995185622,3.25978255272,41.4339599609,-156.27734375,0
26.200000000000003,16.4898847917837,1.340537375488834,411.7417050721942,0.4509210769901706,216.54385614130138,3.0615417308080097,40.5430647002177,-151.97328030949606,0
26.3,16.430160398322737,1.0841818540690387,411.8644708495346,0.43796037242206587,218.30594384291,2.91159129143,39.8416557312,-149.309875488,0
26.400000000000002,16.370136433920454,1.0530130450366058,411.96873540628445,0.42927130761761667,219.6093038354583,2.91159129143,39.8416557312,-149.309875488,0
26.5,16.31011246951817,1.021844236004174,412.0729999630343,0.42058224281316775,220.91266382800652,2.91159129143,39.8416557312,-149.309875488,0
26.6,16.250088505115887,0.990675426971741,412.17726451978416,0.41189317800871855,222.2160238205548,2.3049930486648766,36.70465327308123,-145.75730222057837,0
26.700000000000003,16.1900645407136,0.9595066179393081,412.281529076534,0.4032041132042693,223.51938381310308,1.55783987045,32.7915344238,-141.667663574,0
26.8,16.12843818472312,1.0556617165291808,412.3685123390062,0.39497923659597906,224.5020769164529,1.55783987045,32.7915344238,-141.667663574,0
26.900000000000002,16.065875771445125,1.2261946841007743,412.4454005151303,0.38702552138605817,225.29744840584223,1.55783987045,32.7915344238,-141.667663574,0
27.0,16.00331335816713,1.3967276516723615,412.5222886912544,0.3790718061761375,226.09281989523154,1.55783987045,32.7915344238,-141.667663574,0
27.1,15.940750944889134,1.5672606192439549,412.5991768673785,0.37111809096621656,226.88819138462088,0.1333375956778886,23.719291146525222,-135.934844971,0
27.200000000000003,15.871091758507589,1.1538607000255674,412.6438335377974,0.3675825324535068,227.24174746200387,0.0756574720144,23.266462326,-135.934844971,0
27.3,15.800271771262604,0.6449483853441432,412.6832181840009,0.3647696404307795,227.52303693254237,0.0756574720144,23.266462326,-135.934844971,0
27.400000000000002,15.729451784017618,0.13603607066270085,412.7226028302045,0.36195674840805203,227.8043264030809,0.0756574720144,23.266462326,-135.934844971,0
27.5,15.663563992612607,-0.10924192040462057,412.76589597618073,0.35848604939551026,228.0,-0.811083257198,13.3708667755,-132.690597534,0
27.6,15.608948649410454,0.24801177093827667,412.818121930721,0.35351194389613216,228.0,-0.811083257198,13.3708667755,-132.690597534,0
27.700000000000003,15.554333306208301,0.605265462281174,412.8703478852613,0.34853783839675406,228.0,-0.811083257198,13.3708667755,-132.690597534,0
27.8,15.49971796300615,0.9625191536240584,412.9225738398016,0.34356373289737613,228.0,-1.1275004459448945,8.942917214886535,-131.93151932584604,0
27.900000000000002,15.447897561449123,1.1097548797534194,412.97659763829273,0.340000003576,228.0,-1.44355237484,4.71181774139,-131.218154907,0
28.0,15.403139400199063,0.7263185821199485,413.0351642171448,0.340000003576,228.0,-1.44355237484,4.71181774139,-131.218154907,0
28.1,15.358381238948999,0.34288228448646385,413.09373079599686,0.340000003576,228.0,-1.44355237484,4.71181774139,-131.218154907,0
28.200000000000003,15.313623077698937,-0.040554013147020784,413.15229737484896,0.340000003576,228.0,-1.9274616576512402,-0.7159647015846407,-131.24972764306364,0
28.3,15.268091496015616,-0.2145081540845207,413.1727554629991,0.340000003576,227.56566118046524,-2.21340751648,-3.78352355957,-131.263549805,0
28.400000000000002,15.221866061877499,-0.20053125207466577,413.15902558728766,0.340000003576,226.74166746795476,-2.21340751648,-3.78352355957,-131.263549805,0
28.5,15.175640627739384,-0.18655435006481136,413.14529571157624,0.340000003576,225.91767375544427,-2.21340751648,-3.78352355957,-131.263549805,0
28.6,15.129415193601266,-0.17257744805495642,413.1315658358648,0.340000003576,225.09368004293378,-3.077405127902864,-8.27290583998452,-131.2362894181056,0
28.700000000000003,15.091932016079458,-0.2594970460070088,413.0312905708542,0.34470053734565387,224.76497343759732,-3.2160320282,-9.06476974487,-131.234069824,0
28.8,15.055570240236506,-0.35935901220718053,412.9199138077846,0.3500040260149578,224.49979914638485,-3.2160320282,-9.06476974487,-131.234069824,0
28.900000000000002,15.019208464393552,-0.45922097840735576,412.80853704471497,0.3553075146842619,224.2346248551724,-3.2160320282,-9.06476974487,-131.234069824,0
29.0,14.987015085131782,-0.5973122095624891,412.6903640079572,0.3607957313600218,223.9469521457419,-4.44967317581,-12.6325387955,-134.134994507,0
29.1,14.98683569928315,-1.0290106857629155,412.5199944354693,0.36770269048668014,223.48648776483515,-4.44967317581,-12.6325387955,-134.134994507,0
29.200000000000003,14.986656313434517,-1.4607091619633419,412.34962486298133,0.3746096496133384,223.02602338392842,-4.44967317581,-12.6325387955,-134.134994507,0
29.3,14.986476927585883,-1.892407638163753,412.1792552904934,0.3815166087399965,222.56555900302166,-4.584058461356025,-12.69257017555724,-134.33763821094414,0
29.400000000000002,14.986297541737251,-2.3241061143641795,412.0088857180055,0.38842356786665483,222.1050946221149,-5.55309057236,-13.0223684311,-135.495056152,0
29.5,14.997335970958488,-2.1904798621236874,411.8082830028435,0.39761020421692417,221.42923391704315,-5.55309057236,-13.0223684311,-135.495056152,0
29.6,15.011691880090599,-1.8896683409123383,411.59873934482954,0.40747101671874364,220.68967337614396,-5.55309057236,-13.0223684311,-135.495056152,0
29.700000000000003,15.026047789222707,-1.588856819700989,411.3891956868156,0.41733182922056306,219.95011283524474,-5.55309057236,-13.0223684311,-135.495056152,0
29.8,15.040403698354815,-1.2880452984896504,411.1796520288016,0.42719264172238214,219.21055229434558,-5.03471326828,-16.022146225,-137.75088501,0
29.900000000000002,15.061624872196758,-1.601275490070952,410.9717858090849,0.43384949825293095,218.2301010457612,-5.03471326828,-16.022146225,-137.75088501,0
30.0,15.085578512395061,-2.158902422713738,410.7645872320456,0.43923113783718803,217.15377210241485,-5.03471326828,-16.022146225,-137.75088501,0
30.1,15.109532152593365,-2.7165293553565437,410.55738865500626,0.44461277742144534,216.07744315906848,-5.03471326828,-16.022146225,-137.75088501,0
30.200000000000003,15.133485792791667,-3.2741562879993498,410.35019007796694,0.4499944170057026,215.0011142157221,-4.5157084465,-11.6361837387,-140.597671509,0
30.3,15.135806141309724,-3.2184153658700945,410.210953644655,0.4532331181029851,215.0,-4.5157084465,-11.6361837387,-140.597671509,0
30.400000000000002,15.138104071837128,-3.162038827347511,410.07178763866045,0.4564695985315098,215.0,-4.5157084465,-11.6361837387,-140.597671509,0
30.5,15.140402002364533,-3.105662288824929,409.932621632666,0.4597060789600344,215.0,-4.453603174916788,-10.88998967404276,-140.95362742937664,0
30.6,15.138037030118065,-2.9166742610494842,409.80430525936714,0.46667386022155666,215.66738516113824,-3.61686229706,-0.0495019033551,-144.267776489,0
30.700000000000003,15.135206283744251,-2.714439763493749,409.67707264836105,0.47401435853801843,216.40143496361816,-3.61686229706,-0.0495019033551,-144.267776489,0
30.8,15.132375537370438,-2.512205265938021,409.5498400373549,0.48135485685448,217.13548476609807,-3.61686229706,-0.0495019033551,-144.267776489,0
30.900000000000002,15.129544790996624,-2.309970768382286,409.42260742634875,0.4886953551709418,217.86953456857802,-2.87823224068,6.46202468872,-144.437744141,0
31.0,15.120976657946114,-2.008400873842873,409.29646630962407,0.49517646291176315,218.51764583115514,-2.87823224068,6.46202468872,-144.437744141,0
31.1,15.111168382400368,-1.685359523042518,409.1705611205992,0.5014718124262503,219.1471813829919,-2.87823224068,6.46202468872,-144.437744141,0
31.200000000000003,15.10136010685462,-1.3623181722421627,409.04465593157437,0.5077671619407375,219.7767169348287,-2.8563014614056668,6.618487845187547,-144.25860205422185,0
31.3,15.103142911313265,-1.277037842851913,408.9432073228924,0.5134075546100316,220.56792677107558,-2.08738946915,14.0581474304,-141.634002686,0
31.400000000000002,15.111296364462014,-1.3224348911546877,408.85520045401967,0.5186879721979425,221.4479954598031,-2.08738946915,14.0581474304,-141.634002686,0
31.5,15.11944981761076,-1.367831939457461,408.76719358514697,0.5239683897858531,222.3280641485306,-2.08738946915,14.0581474304,-141.634002686,0
31.6,15.127603270759508,-1.4132289877602358,408.6791867162742,0.5292488073737641,223.2081328372581,-1.13465297222,21.0572795868,-139.435119629,0
31.700000000000003,15.135756723908257,-1.4586260360630106,408.59117984740146,0.534529224961675,224.08820152598562,-1.13465297222,21.0572795868,-139.435119629,0
31.8,15.143910177057004,-1.5040230843657838,408.5031729785287,0.5398096425495856,224.9682702147131,-1.13465297222,21.0572795868,-139.435119629,0
31.900000000000002,15.179023821551514,-1.5669095397618702,408.46621416021145,0.5430710154767804,225.92129908427705,-1.13465297222,21.0572795868,-139.435119629,0
32.0,15.215145837911587,-1.6304501383660701,408.4311646539355,0.5462568715871587,226.87705682889674,-1.13465297222,21.0572795868,-139.435119629,0
32.1,15.251267854271664,-1.6939907369702722,408.3961151476596,0.5494427276975373,227.83281457351643,-0.8373028028530205,21.796402344350234,-138.63227845733644,0
32.2,15.291114779688327,-1.421972798811682,408.389984131,0.550000011921,229.19575840677163,0.959698677063,26.471660614,-134.865005493,0
32.300000000000004,15.331751424062803,-1.078813006204682,408.389984131,0.550000011921,230.6450298707603,0.959698677063,26.471660614,-134.865005493,0
32.4,15.372388068437276,-0.7356532135977064,408.389984131,0.550000011921,232.09430133474888,1.1762996918136206,26.64183793152814,-134.33986857822595,0
32.5,15.415489356138725,-0.47008531188569813,408.3868623197101,0.5507808929566443,233.624705424297,2.6486093998,27.7876091003,-131.684127808,0
32.6,15.462697221977896,-0.33380068590256684,408.3785389598418,0.5528628746237872,235.29029234648158,2.6486093998,27.7876091003,-131.684127808,0
32.7,15.509905087817069,-0.1975160599194356,408.37021559997356,0.5549448562909302,236.9558792686662,2.6486093998,27.7876091003,-131.684127808,0
32.800000000000004,15.557112953656242,-0.06123143393630437,408.3618922401053,0.5570268379580732,238.62146619085078,2.60432434082,27.8808784485,-126.648757935,0
32.9,15.60432081949541,0.07505319204681715,408.35356888023705,0.559108819625216,240.28705311303528,2.60432434082,27.8808784485,-126.648757935,0
33.0,15.663887554076055,0.02361023470872302,408.350006104,0.5617120658928186,241.68482605664605,2.60432434082,27.8808784485,-126.648757935,0
33.1,15.73270355036089,-0.16832628911630618,408.350006104,0.5647054217090893,242.88216952506082,2.60432434082,27.8808784485,-126.648757935,0
33.2,15.801519546645725,-0.36026281294133544,408.350006104,0.5676987775253601,244.07951299347556,2.60432434082,27.8808784485,-126.648757935,0
33.300000000000004,15.873907031609047,-0.45203720346579107,408.359378325633,0.5695313393046888,245.37492319141322,2.29401540756,29.1366653442,-118.817367554,0
33.4,15.958168933012013,-0.21079447161778175,408.399911128372,0.5675045155346948,246.99638375379533,2.29401540756,29.1366653442,-118.817367554,0
33.5,16.042430834414986,0.030448260230244606,408.440443931111,0.5654776917647008,248.61784431617752,2.29401540756,29.1366653442,-118.817367554,0
33.6,16.126692735817958,0.2716909920782711,408.48097673385007,0.5634508679947067,250.23930487855972,2.386823516523771,29.32044729490085,-117.95737087905437,0
33.7,16.210954637220933,0.5129337239262974,408.52150953658906,0.5614240442247126,251.86076544094195,3.04144525528,30.7483634949,-114.414703369,0
33.800000000000004,16.288241222213557,0.5907462788113741,408.54918162669543,0.5608053813866031,253.48322786241624,3.04144525528,30.7483634949,-114.414703369,0
33.9,16.3490489747495,0.28246330109198203,408.5464709332434,0.5635134275755053,255.1080571253572,3.04144525528,30.7483634949,-114.414703369,0
34.0,16.409856727285447,-0.02581967662743201,408.5437602397914,0.5662214737644076,256.73288638829825,3.04144525528,30.7483634949,-114.414703369,0
34.1,16.470664479821398,-0.33410265434684594,408.5410495463394,0.5689295199533099,258.35771565123935,2.911466059669502,30.95581580049082,-112.53288877681814,0
34.2,16.54203450333024,-0.34033954119873405,408.5154217930841,0.5717542067227932,260.0525293291679,2.42493963242,31.6491088867,-106.644340515,0
34.300000000000004,16.62030902681191,-0.14913051594147836,408.47481328055875,0.5746551408151788,261.79309144439924,2.42493963242,31.6491088867,-106.644340515,0
34.4,16.698583550293574,0.042078509315763735,408.43420476803334,0.5775560749075641,263.5336535596305,2.42493963242,31.6491088867,-106.644340515,0
34.5,16.78179262209373,0.16526794509469883,408.39437230282505,0.5807026677992353,265.21080491926386,2.31087875366,31.0558929443,-100.428436279,0
34.6,16.891388797276225,-0.07527194625967296,408.3586896887202,0.5851629015178186,266.54887232317833,2.31087875366,31.0558929443,-100.428436279,0
34.7,17.000984972458724,-0.31581183761404474,408.3230070746153,0.5896231352364018,267.88693972709285,2.31087875366,31.0558929443,-100.428436279,0
34.800000000000004,17.110581147641224,-0.5563517289684166,408.28732446051043,0.594083368954985,269.2250071310073,2.31087875366,31.0558929443,-100.24061006101846,0
34.9,17.220177322823712,-0.7968916203227713,408.2516418464056,0.5985436026735679,270.56307453492167,2.20762085915,32.0609817505,-94.6152191162,0
35.0,17.34054151129982,-0.7086830530890778,408.2333670304523,0.6022078461107453,272.32469462460847,2.20762085915,32.0609817505,-94.6152191162,0
35.1,17.466126652229153,-0.461078316426305,408.2235325167151,0.6054861476569591,274.2916774282482,2.20762085915,32.0609817505,-94.6152191162,0
35.2,17.591711793158492,-0.2134735797635322,408.21369800297794,0.6087644492031729,276.258660231888,2.20762085915,32.0609817505,-94.6152191162,0
35.300000000000004,17.729724269475117,-0.2123617490556356,408.1877111676505,0.6127849838267502,278.39248608881945,4.09667253494,35.981678009,-88.2164840698,0
35.4,17.875253516717045,-0.36034307879078087,408.15195447438316,0.6172544639275239,280.6272282703682,4.09667253494,35.981678009,-88.2164840698,0
35.5,18.02078276395898,-0.5083244085259367,408.1161977811158,0.621723944028298,282.8619704519171,4.09667253494,35.981678009,-88.2164840698,0
35.6,18.16631201120092,-0.6563057382610925,408.0804410878484,0.6261934241290721,285.09671263346604,3.434447751575599,36.05070774492462,-82.45473219106812,0
35.7,18.32276014623604,-0.7474517233238409,408.0418394746241,0.6321729697089226,287.3802703294749,3.39682650566,36.0551223755,-82.4314804077,0
35.800000000000004,18.541906966738846,-0.5122365014066241,407.98690169741144,0.6468236475782095,289.9441375812777,3.39682650566,36.0551223755,-82.4314804077,0
35.9,18.761053787241636,-0.2770212794894241,407.93196392019877,0.6614743254474954,292.5080048330802,3.39682650566,36.0551223755,-82.4314804077,0
36.0,18.99688937120222,-0.3417627068079665,407.9021191679413,0.6689367977056052,295.16954199712643,3.2534331163166956,36.29696637123136,-81.4219383032995,0
36.1,19.255954923339075,-0.8240295807324687,407.9072027177494,0.6663936282626595,297.96703105233206,1.40275132656,39.6368331909,-72.1351776123,0
36.2,19.515020475475936,-1.306296454656971,407.91228626755753,0.6638504588197138,300.76452010753763,1.40275132656,39.6368331909,-72.1351776123,0
36.300000000000004,19.774086027612796,-1.7885633285814733,407.9173698173656,0.6613072893767681,303.56200916274327,1.6350243301658525,43.85178959355824,-66.25017349256586,0
36.4,19.999720430306144,-1.5450647307133254,407.93457129673095,0.660000026226,306.58047287459846,1.69017994404,44.8668632507,-65.1896514893,0
36.5,20.189993487214704,-0.5338975293438304,407.9645903520517,0.660000026226,309.832669538313,1.69017994404,44.8668632507,-65.1896514893,0
36.6,20.380266544123263,0.4772696720256646,407.9946094073724,0.660000026226,313.0848662020275,1.69017994404,44.8668632507,-65.1896514893,0
36.7,20.570539601031818,1.4884368733951598,408.02462846269316,0.660000026226,316.33706286574204,1.32708132267,42.8165092468,-54.5790786743,0
36.800000000000004,20.73032304018764,1.77112050044654,408.0723441476937,0.6609807660363558,319.3730370439636,1.32708132267,42.8165092468,-54.5790786743,0
36.9,20.858203371870687,1.2915482687303592,408.1385768729259,0.6629877124664971,322.1827647257988,1.32708132267,42.8165092468,-54.5790786743,0
37.0,20.986083703553742,0.8119760370141442,408.2048095981582,0.6649946588966387,324.99249240763413,1.32708132267,42.8165092468,-54.5790786743,0
37.1,21.1139640352368,0.33240380529792946,408.2710423233904,0.6670016053267801,327.80222008946953,-0.04546444878446598,42.626755385644074,-46.826828216178576,0
37.2,21.241844366919857,-0.14716842641828576,408.3372750486227,0.6690085517569216,330.61194777130487,-1.06406354904,42.4908218384,-41.8812332153,0
37.300000000000004,21.339706753767288,-0.29504450337175026,408.4476070054711,0.6687276613086905,333.6540635718828,-1.06406354904,42.4908218384,-41.8812332153,0
37.4,21.40826113284268,-0.11906917960570412,408.60099522849725,0.6662130422897781,336.9230714141217,-1.06406354904,42.4908218384,-41.8812332153,0
37.5,21.476815511918076,0.056906144160354444,408.7543834515233,0.6636984232708654,340.1920792563609,-1.06406354904,42.4908218384,-41.8812332153,0
37.6,21.545369890993474,0.23288146792641307,408.9077716745494,0.6611838042519528,343.4610870986001,-0.00943742659341984,43.88747244045554,-34.73305353632252,0
37.7,21.591745476106773,0.6873390226447351,409.09220304085466,0.6553240888243014,346.8703730283347,1.35403895378,45.740436554,-26.6215591431,0
37.800000000000004,21.618393107938388,1.3895054677290144,409.3042471656073,0.6464889228023968,350.4044357859385,1.35403895378,45.740436554,-26.6215591431,0
37.9,21.64504073977,2.091671912813244,409.5162912903599,0.637653756780493,353.93849854354204,1.35403895378,45.740436554,-26.6215591431,0
38.0,21.663786825960567,2.7537033243236966,409.7345564124803,0.6287939236333152,342.8085439882233,2.19610691071,47.4008636475,-14.6690731049,0
38.1,21.63134253022674,3.155718811035958,409.99312443806724,0.619774283832974,236.6773477904239,2.19610691071,47.4008636475,-14.6690731049,0
38.2,21.598898234492914,3.55773429774822,410.2516924636542,0.6107546440326327,130.54615159262457,2.19610691071,47.4008636475,-14.6690731049,0
38.300000000000004,21.56645393875909,3.959749784460482,410.5102604892411,0.6017350042322914,24.4149553948252,2.19610691071,47.4008636475,-14.6690731049,0
38.400000000000006,21.53371952215594,4.4111281664213555,410.77340421438396,0.5857728164256959,6.13408102765147,3.71593666077,46.6693191528,-3.00986766815,0
38.5,21.5009160077418,4.874263262106686,411.03763772953,0.5681571285758612,8.776434100137173,3.71593666077,46.6693191528,-3.00986766815,0
38.6,21.46811249332766,5.337398357792047,411.301871244676,0.5505414407260253,11.418787172623066,4.037008742526392,46.502116760400384,-1.8101138650042587,0
38.7,21.428341037560422,5.29364019509099,411.53032806361387,0.5379612822601341,14.019367533133664,6.42088079453,45.4380493164,4.41973257065,0
38.800000000000004,21.37818660150505,4.494556686879927,411.7054737663008,0.5328846028972425,16.557702070517582,6.42088079453,45.4380493164,4.41973257065,0
38.900000000000006,21.328032165449677,3.6954731786688644,411.88061946898773,0.527807923534351,19.096036607901496,6.42088079453,45.4380493164,4.41973257065,0
39.0,21.277877729394305,2.8963896704578582,412.0557651716747,0.5227312441714598,21.634371145285236,3.891584979523916,44.934339589589584,11.692575560540192,0
39.1,21.21016739987157,2.6185577240957483,412.1976017564132,0.519999980927,23.921449715282893,3.21840047836,44.805305481,13.0320043564,0
39.2,21.122013036484542,2.947729038608,412.30064950157515,0.519999980927,25.915937907274557,3.21840047836,44.805305481,13.0320043564,0
39.300000000000004,21.033858673097516,3.276900353120252,412.40369724673707,0.519999980927,27.910426099266218,3.21840047836,44.805305481,13.0320043564,0
39.400000000000006,20.93953363676655,3.0824682419782152,412.5164015913756,0.5158215192985136,29.940154062525565,-0.384436011314,44.5820960999,23.1811332703,0
39.5,20.83777872088276,2.2575845704628463,412.64073309105095,0.5066119262362568,32.012312933785694,-0.384436011314,44.5820960999,23.1811332703,0
39.6,20.736023804998965,1.4327008989474188,412.7650645907263,0.4974023331739993,34.08447180504597,-0.384436011314,44.5820960999,23.1811332703,0
39.7,20.634268889115166,0.6078172274319917,412.8893960904016,0.48819274011174185,36.15663067630625,0.2086097511567359,44.7084843416233,26.53589196565964,0
39.800000000000004,20.535507977851204,-0.023744664998847878,413.01635438874246,0.4789935561071714,38.22644750910405,0.909875035286,44.8471298218,29.8933506012,0
39.900000000000006,20.4608699180457,0.9022971047866363,413.16447694100566,0.46987823842356247,40.277394415794866,0.909875035286,44.8471298218,29.8933506012,0
