t_sec,airspeed,climb,altitude,throttle,heading,pitch,roll,yaw,is_boundary
0.0,24.0673675537,4.85201454163,399.809997559,0.119999997318,56.0,1.70197486877,-49.5800170898,68.7900466919,0
0.1,23.244876095215407,6.4360295309513535,400.7196607192808,0.08661775157955534,55.4436292252577,1.70197486877,-49.5800170898,68.7900466919,0
0.2,22.422384636730815,8.020044520272705,401.62932387956164,0.05323550584111067,54.887258450515404,1.70197486877,-49.5800170898,68.7900466919,0
0.30000000000000004,21.599893178246223,9.604059509594059,402.5389870398424,0.019853260102665984,54.330887675773106,1.70197486877,-49.5800170898,68.7900466919,0
0.4,20.858573504551572,10.474157366701242,403.4815541556413,0.0,54.352250883303775,15.3046760559,2.00778961182,56.2866897583,0
0.5,20.236370267211953,10.296609605787074,404.4724065461009,0.0,55.22141623424725,15.3046760559,2.00778961182,56.2866897583,0
0.6000000000000001,19.61416702987233,10.119061844872906,405.4632589365606,0.0,56.09058158519072,15.3046760559,2.00778961182,56.2866897583,0
0.7000000000000001,18.991963792532708,9.94151408395874,406.45411132702026,0.0,56.959746936134195,18.29162661911541,-2.5358081451413925,55.465037379375964,0
0.8,18.47780090139786,9.895800465073824,407.4118315265152,0.0,56.43010203486499,21.5666694641,-7.51349401474,54.556968689,0
0.9,17.968884590659588,9.856488884403962,408.36794278352045,0.0,55.832529079812225,21.5666694641,-7.51349401474,54.556968689,0
1.0,17.459968279921316,9.817177303734098,409.32405404052565,0.0,55.234956124759464,21.5666694641,-7.51349401474,54.556968689,0
1.1,17.0878022422406,9.653335903961851,410.1762238548692,0.0,54.36289115645687,22.9277095795,-11.6767606735,57.9267234802,0
1.2000000000000002,16.80424299700086,9.408805906008357,410.96104522719486,0.0,53.312970186108146,22.9277095795,-11.6767606735,57.9267234802,0
1.3,16.520683751761116,9.164275908054863,411.74586659952047,0.0,52.26304921575943,22.9277095795,-11.6767606735,57.9267234802,0
1.4000000000000001,16.237124506521372,8.91974591010137,412.53068797184613,0.0,51.21312824541071,22.001437278179743,-13.38159611933969,56.85264828174832,0
1.5,16.054412534911364,8.317275505122453,413.1029846489831,0.007309486564841807,50.451788495382964,21.0516796112,-15.1231880188,55.7496643066,0
1.6,15.89738601902129,7.623638902544751,413.62115201303914,0.016480674361052845,49.763949395292215,21.0516796112,-15.1231880188,55.7496643066,0
1.7000000000000002,15.740359503131216,6.9300022999670485,414.1393193770952,0.025651862157263883,49.07611029520147,21.0516796112,-15.1231880188,55.7496643066,0
1.8,15.583332987241143,6.236365697389347,414.6574867411512,0.034823049953474905,48.38827119511071,15.8884906769,-21.0897960663,51.3917236328,0
1.9000000000000001,15.458583584130839,5.554202971207728,415.0674599468591,0.052049069770712844,48.0,15.8884906769,-21.0897960663,51.3917236328,0
2.0,15.375668679794892,4.886911583466576,415.3372022584442,0.07971499053604653,48.0,15.8884906769,-21.0897960663,51.3917236328,0
2.1,15.292753775458944,4.219620195725423,415.6069445700293,0.10738091130138025,48.0,15.8884906769,-21.0897960663,51.3917236328,0
2.2,15.24549427035175,3.5323323184310382,415.73929389122765,0.12798209680883704,47.733930060585394,13.623514488335893,-22.488824217036914,50.72737553522441,0
2.3000000000000003,15.228137303375574,2.828274308021166,415.75641805094006,0.14265841483468514,47.244719539913554,6.41788959503,-26.9356784821,48.608089447,0
2.4000000000000004,15.210780336399397,2.1242162976112935,415.7735422106525,0.15733473286053323,46.75550901924171,6.41788959503,-26.9356784821,48.608089447,0
2.5,15.193423369423222,1.4201582872014242,415.790666370365,0.1720110508863813,46.26629849856986,0.129561319947,-30.8566799164,48.5580329895,0
2.6,15.231245307374136,0.7019881676980712,415.69855851943703,0.1791180083159244,45.02980179972816,0.129561319947,-30.8566799164,48.5580329895,0
2.7,15.334985895186344,-0.03304077093854785,415.4759582879052,0.17718234281772027,42.90057089403602,0.129561319947,-30.8566799164,48.5580329895,0
2.8000000000000003,15.438726482998552,-0.7680697095751667,415.25335805637343,0.17524667731951618,40.77133998834388,0.129561319947,-30.8566799164,48.5580329895,0
2.9000000000000004,15.54246707081076,-1.5030986482117856,415.0307578248416,0.17331101182131206,38.64210908265175,-2.970997505119818,-31.877960998943184,47.63089169245104,0
3.0,15.646207658622966,-2.2381275868484014,414.80815759330983,0.17137534632310797,36.51287817695962,-7.62238788605,-33.4078063965,46.178817749,0
3.1,15.779506511079369,-2.81975468071548,414.5390816452868,0.16570110543011798,34.312176644230284,-7.62238788605,-33.4078063965,46.178817749,0
3.2,15.985358061762573,-3.0248468905163595,414.15592800447456,0.15085028615266802,31.93604577226439,-7.62238788605,-33.4078063965,46.178817749,0
3.3000000000000003,16.19120961244578,-3.229939100317239,413.7727743636623,0.13599946687521805,29.559914900298494,-7.62238788605,-33.4078063965,46.178817749,0
3.4000000000000004,16.39706116312898,-3.4350313101181182,413.38962072285,0.12114864759776808,27.1837840283326,-12.272497729110198,-34.103869961094034,40.06466272912264,0
3.5,16.63647297219387,-3.740365417647592,412.91673723753627,0.09321038453372535,24.808122541389466,-15.5313587189,-34.5794563293,35.752910614,0
3.6,16.87869813147986,-4.054102784828142,412.4363317160393,0.06417500349007925,22.432500402905518,-15.5313587189,-34.5794563293,35.752910614,0
3.7,17.120923290765855,-4.367840152008692,411.9559261945423,0.03513962244643315,20.05687826442157,-15.5313587189,-34.5794563293,35.752910614,0
3.8000000000000003,17.366075526826197,-4.6574405711075775,411.4763337249969,0.009703978933356061,17.733581235233462,-18.0271320343,-34.8024482727,27.7806072235,0
3.9000000000000004,17.63011641012145,-4.7912834434153595,411.0019879410295,0.007497713258614692,15.747942083583224,-18.0271320343,-34.8024482727,27.7806072235,0
4.0,17.894157293416697,-4.9251263157231415,410.52764215706213,0.005291447583873334,13.762302931932995,-18.0271320343,-34.8024482727,27.7806072235,0
4.1000000000000005,18.15819817671195,-5.058969188030925,410.0532963730947,0.0030851819091319557,11.77666378028275,-18.077555838265152,-34.80029540421986,27.411744682491236,0
4.2,18.4222390600072,-5.192812060338707,409.5789505891273,0.0008789162343905976,9.791024628632519,-19.2623920441,-34.7499351501,18.7458553314,0
4.3,18.659833393544023,-5.330310367148673,409.10907312414,0.0,50.541758431275085,-19.2623920441,-34.7499351501,18.7458553314,0
4.4,18.879915909002136,-5.47022915241748,408.64215439629663,0.0,119.59076158684258,-19.2623920441,-34.7499351501,18.7458553314,0
4.5,19.09999842446025,-5.610147937686286,408.17523566845324,0.0,188.63976474240945,-19.2623920441,-34.7499351501,18.7458553314,0
4.6000000000000005,19.320080939918363,-5.7500667229550935,407.70831694060985,0.0,257.68876789797696,-17.574179463879638,-34.11238457639284,12.462235401451968,0
4.7,19.540163455376476,-5.889985508223899,407.24139821276646,0.0,326.7377710535438,-16.8145828247,-33.8288497925,9.63447570801,0
4.800000000000001,19.727614845837454,-5.687385498381144,406.8030151368011,0.0,356.6759422228175,-16.8145828247,-33.8288497925,9.63447570801,0
4.9,19.888069443854718,-5.201408534157885,406.3882405349862,0.0,354.25644832453224,-16.8145828247,-33.8288497925,9.63447570801,0
5.0,20.048524041871982,-4.7154315699346245,405.97346593317127,0.0,351.836954426247,-16.8145828247,-33.8288497925,9.63447570801,0
5.1000000000000005,20.167002394651185,-4.564994966647422,405.6117226595362,0.0,349.10201767801277,-12.7249717712,-33.2571296692,-1.7823497057,0
5.2,20.263280856135427,-4.59201491040499,405.2780259563874,0.0,346.20025331242203,-12.7249717712,-33.2571296692,-1.7823497057,0
5.300000000000001,20.35955931761967,-4.619034854162558,404.9443292532386,0.0,343.2984889468313,-12.7249717712,-33.2571296692,-1.7823497057,0
5.4,20.391746483370078,-4.127142202947939,404.69253659792145,0.0,340.58376483242205,-10.826543323018175,-33.248560903728375,-8.06239117134876,0
5.5,20.416585005474566,-3.575751554381756,404.45013497852864,0.0,337.8904865654971,-10.5796232224,-33.2474555969,-8.899269104,0
5.6000000000000005,20.441423527579058,-3.024360905815568,404.20773335913583,0.0,335.1972082985721,-10.5796232224,-33.2474555969,-8.899269104,0
5.7,20.4506964578499,-2.563072299938645,403.98096979277074,0.0,332.56877267717886,-8.67798519135,-33.578792572,-16.2422447205,0
5.800000000000001,20.391025791993304,-2.500866421388391,403.8234707698735,0.0,330.2275400875209,-8.67798519135,-33.578792572,-16.2422447205,0
5.9,20.33135512613671,-2.438660542838138,403.6659717469763,0.0,327.8863074978629,-8.67798519135,-33.578792572,-16.2422447205,0
6.0,20.271684460280117,-2.3764546642878845,403.50847272407907,0.0,325.545074908205,-8.67798519135,-33.578792572,-16.2422447205,0
6.1000000000000005,20.212013794423523,-2.314248785737631,403.35097370118183,0.0,323.203842318547,-6.37612056732,-33.797492981,-26.3469486237,0
6.2,20.1304231562034,-2.1581023368456527,403.20405606650775,0.0,320.7912415930775,-6.37612056732,-33.797492981,-26.3469486237,0
6.300000000000001,20.025631870832655,-1.9025268380679694,403.06833803785753,0.0,318.30310304715357,-6.37612056732,-33.797492981,-26.3469486237,0
6.4,19.92084058546191,-1.6469513392902884,402.93262000920737,0.0,315.8149645012297,-6.37612056732,-33.797492981,-26.3469486237,0
6.5,19.816049300091166,-1.3913758405126073,402.79690198055715,0.0,313.3268259553059,-5.039896119148609,-35.73635878888639,-36.82775641171392,0
6.6000000000000005,19.70962103078049,-1.156131526786186,402.66169201154867,0.0,310.8713451488978,-4.97098827362,-35.8356018066,-37.3770637512,0
6.7,19.579580365777332,-1.2141509248268294,402.53381046220363,0.0,308.88693033712684,-4.97098827362,-35.8356018066,-37.3770637512,0
6.800000000000001,19.449539700774174,-1.272170322867473,402.40592891285866,0.0,306.9025155253559,-4.97098827362,-35.8356018066,-37.3770637512,0
6.9,19.31949903577102,-1.3301897209081164,402.2780473635136,0.0,304.918100713585,-4.807478157397474,-36.38884764743238,-40.01580763523327,0
7.0,19.189458370767863,-1.3882091189487595,402.15016581416864,0.0,302.93368590181404,-4.31083011627,-38.014629364,-48.0325889587,0
7.1000000000000005,19.05009759581649,-1.477253695259626,402.01471344280117,0.0,300.46881296679146,-4.31083011627,-38.014629364,-48.0325889587,0
7.2,18.902454898497183,-1.593867486881569,401.87253357995553,0.0,297.5770011973643,-4.31083011627,-38.014629364,-48.0325889587,0
7.300000000000001,18.754812201177877,-1.7104812785035128,401.73035371710995,0.0,294.68518942793713,-4.31083011627,-38.014629364,-48.0325889587,0
7.4,18.60716950385857,-1.8270950701254556,401.5881738542643,0.0,291.79337765851005,-3.4677298069,-39.5930671692,-57.8410606384,0
7.5,18.46319777744969,-1.7970453623508653,401.4382328982654,0.003563352720719956,289.04977258656726,-3.4677298069,-39.5930671692,-57.8410606384,0
7.6000000000000005,18.325219525888645,-1.5275429277149022,401.2756206578186,0.012944475570041256,286.5481397708284,-3.4677298069,-39.5930671692,-57.8410606384,0
7.7,18.1872412743276,-1.2580404930789413,401.11300841737176,0.02232559841936247,284.04650695508957,-3.4677298069,-39.5930671692,-57.8410606384,0
7.800000000000001,18.050401861020887,-1.072960717309799,400.94921848166337,0.03044582364503495,281.5541756744009,-3.6411423303245107,-39.240373225400525,-63.16659889119876,0
7.9,17.918683317806856,-1.2674936453576615,400.78013295246734,0.0328963298334895,279.10366943117754,-3.83032655716,-38.8562889099,-69.0180206299,0
8.0,17.786964774592825,-1.4620265734055242,400.6110474232713,0.03534683602194405,276.65316318795414,-3.83032655716,-38.8562889099,-69.0180206299,0
8.1,17.655246231378793,-1.656559501453387,400.4419618940753,0.0377973422103986,274.2026569447308,-3.8974132188121438,-38.82227650235687,-69.57365641763683,0
8.200000000000001,17.523521310098,-1.813320049926209,400.2687496515155,0.040816492318598394,271.7550520307159,-4.86229276657,-38.3343429565,-77.5661468506,0
8.3,17.391739706417344,-1.6343943781999672,400.05886297047755,0.048889227353297225,269.3332314661786,-4.86229276657,-38.3343429565,-77.5661468506,0
8.4,17.25995810273669,-1.4554687064737253,399.8489762894396,0.056961962387996064,266.9114109016412,-4.86229276657,-38.3343429565,-77.5661468506,0
8.5,17.128176499056032,-1.2765430347474835,399.63908960840166,0.0650346974226949,264.4895903371039,-5.0515597996899615,-38.12279639011737,-79.91367546451308,0
8.6,16.996394895375374,-1.0976173630212416,399.4292029273637,0.07310743245739373,262.0677697725665,-5.66980075836,-37.4322624207,-87.639755249,0
8.700000000000001,16.86315385842263,-1.0216014028699596,399.2132312718791,0.08113717398403002,259.58303556678777,-5.66980075836,-37.4322624207,-87.639755249,0
8.8,16.72138926475563,-1.5466110461743665,398.96172142099226,0.08891581968372621,256.7308655902349,-5.66980075836,-37.4322624207,-87.639755249,0
8.9,16.579624671088624,-2.0716206894787734,398.71021157010534,0.09669446538342241,253.87869561368203,-5.66980075836,-37.4322624207,-87.639755249,0
9.0,16.437860077421618,-2.596630332783181,398.4587017192184,0.1044731110831186,251.02652563712914,-5.66980075836,-37.4322624207,-87.639755249,0
9.1,16.295549073404644,-2.9302684397956686,398.206770502051,0.11298887565119516,248.32750295460335,-7.17827606201,-35.9370918274,-100.394706726,0
9.200000000000001,16.151896917356773,-2.79418937442005,397.95380505073507,0.12331388205992573,246.00437689339932,-7.17827606201,-35.9370918274,-100.394706726,0
9.3,16.00824476130891,-2.658110309044433,397.7008395994192,0.13363888846865613,243.68125083219536,-7.17827606201,-35.9370918274,-100.394706726,0
9.4,15.864592605261041,-2.5220312436688164,397.4478741481034,0.1439638948773865,241.3581247709914,-7.0741012107741605,-35.77720127088388,-104.35271968296931,0
9.5,15.718367758567473,-2.501089037893434,397.18300581553166,0.15373346377940347,238.8799626987191,-6.91611146927,-35.5421409607,-110.35949707,0
9.600000000000001,15.568522155166667,-2.642188295340126,396.9013855904561,0.16272132032076772,236.18360584353496,-6.91611146927,-35.5421409607,-110.35949707,0
9.700000000000001,15.418676551765863,-2.783287552786816,396.61976536538054,0.17170917686213177,233.48724898835087,-6.91611146927,-35.5421409607,-110.35949707,0
9.8,15.271070093563857,-2.9083572594683464,396.34165825133135,0.180000007153,230.78778737582255,-6.057584456397782,-38.92400883183382,-115.46209127173591,0
9.9,15.150097313543455,-2.842762288975601,396.1053380962267,0.180000007153,228.0513959974256,-5.3083524704,-41.3519439697,-119.927619934,0
10.0,15.029124533523053,-2.7771673184828556,395.8690179411221,0.180000007153,225.31500461902866,-5.3083524704,-41.3519439697,-119.927619934,0
10.100000000000001,14.908151753502649,-2.711572347990109,395.63269778601745,0.180000007153,222.57861324063165,-5.1321975796814625,-41.15558987717261,-121.05845673870867,0
10.200000000000001,14.786478185329047,-2.662281887329318,395.39795542063905,0.180000007153,219.8435333017421,-3.98540687561,-39.88489151,-128.487518311,0
10.3,14.653351435895287,-2.879460695035883,395.1889993241104,0.180000007153,217.12988659388185,-3.98540687561,-39.88489151,-128.487518311,0
10.4,14.520224686461528,-3.0966395027424474,394.9800432275818,0.180000007153,214.4162398860216,-3.98540687561,-39.88489151,-128.487518311,0
10.5,14.387097937027768,-3.313818310449012,394.77108713105315,0.180000007153,211.70259317816135,-3.98540687561,-39.88489151,-128.487518311,0
10.600000000000001,14.25232453979797,-3.2070650044868243,394.5997867322911,0.18082037779513482,209.58981428773848,-2.9916665554,-30.9556159973,-139.928131104,0
10.700000000000001,14.114778221825587,-2.5548167363696326,394.4918977477152,0.18302223558689518,208.4888843419014,-2.9916665554,-30.9556159973,-139.928131104,0
10.8,13.977231903853204,-1.9025684682524413,394.3840087631394,0.18522409337865553,207.38795439606434,-2.9916665554,-30.9556159973,-139.928131104,0
10.9,13.83968558588082,-1.2503202001352496,394.27611977856355,0.18742595117041586,206.28702445022728,-2.4064375526792596,-28.167756662283164,-143.10648826077386,0
11.0,13.702139267908438,-0.5980719320180583,394.1682307939877,0.1896278089621762,205.1860945043902,-1.13141345978,-22.1013584137,-150.036468506,0
11.100000000000001,13.553546306775141,-0.5870825323508054,394.1367584879339,0.189999997616,204.77940088718125,-1.13141345978,-22.1013584137,-150.036468506,0
11.200000000000001,13.402706253442453,-0.7065370856651875,394.1208307522722,0.189999997616,204.51392782139888,-1.13141345978,-22.1013584137,-150.036468506,0
11.3,13.251866200109763,-0.8259916389795694,394.1049030166105,0.189999997616,204.24845475561654,-1.13141345978,-22.1013584137,-150.036468506,0
11.4,13.10268422855447,-0.9283271290486047,394.09170751243806,0.19057041232755226,203.98098617703707,1.84349453449,-13.8701572418,-154.243545532,0
11.5,12.977709025989821,-0.7807369429744699,394.1184005694883,0.19946846041620886,203.68438458586684,1.84349453449,-13.8701572418,-154.243545532,0
11.600000000000001,12.85273382342517,-0.6331467569003326,394.1450936265386,0.20836650850486563,203.38778299469658,1.84349453449,-13.8701572418,-154.243545532,0
11.700000000000001,12.727758620860522,-0.48555657082619796,394.1717866835889,0.21726455659352223,203.09118140352632,1.84349453449,-13.8701572418,-154.243545532,0
11.8,12.621572160514761,-0.24394948598215913,394.18862221495874,0.22647077096550094,202.78430760332014,3.76797890663,-6.64148664474,-155.23727417,0
11.9,12.523725600476082,0.03938958676119525,394.2010822122724,0.2358137734231838,202.47287420043833,3.76797890663,-6.64148664474,-155.23727417,0
12.0,12.425879040437403,0.3227286595045496,394.21354220958614,0.24515677588086668,202.16144079755654,3.76797890663,-6.64148664474,-155.23727417,0
12.100000000000001,12.35382292522684,0.33981027728713925,394.1991875475834,0.25297307095247906,202.19820472228994,3.738423228527628,0.7869727905395587,-156.1309917250355,0
12.200000000000001,12.309525711685863,0.07031232809029131,394.15597159620665,0.2591461326292972,202.60974215105938,3.73183059692,2.41906809807,-156.332183838,0
12.3,12.265228498144886,-0.19918562110655663,394.11275564482986,0.26531919430611534,203.02127957982884,3.73183059692,2.41906809807,-156.332183838,0
12.4,12.220931284603909,-0.46868357030340463,394.0695396934531,0.2714922559829335,203.4328170085983,3.0664189946169484,4.917044363769454,-157.355241252898,0
12.5,12.176634071062931,-0.7381815195002526,394.02632374207633,0.2776653176597516,203.84435443736777,2.80198049545,5.90835762024,-157.761779785,0
12.600000000000001,12.178204749809845,-0.8743549743076434,393.95472297908526,0.28167450012333306,204.33490010566084,2.80198049545,5.90835762024,-157.761779785,0
12.700000000000001,12.20767445485123,-0.9294341518519202,393.8658572281889,0.28436750867839383,204.87350233033794,2.80198049545,5.90835762024,-157.761779785,0
12.8,12.237144159892615,-0.9845133293961972,393.7769914772925,0.2870605172334546,205.41210455501502,2.80198049545,5.90835762024,-157.761779785,0
12.9,12.266613864934001,-1.0395925069404741,393.6881257263961,0.2897535257885154,205.95070677969213,0.365241795778,9.55722141266,-155.81098938,0
13.0,12.318423282006524,-1.1356345600068884,393.57096517803734,0.2925958067325542,206.5191619633772,0.365241795778,9.55722141266,-155.81098938,0
13.100000000000001,12.372483212225001,-1.2358032325091346,393.45095419841243,0.2954531254475927,207.09062454825883,0.365241795778,9.55722141266,-155.81098938,0
13.200000000000001,12.426543142443476,-1.335971905011379,393.33094321878747,0.2983104441626312,207.66208713314046,0.365241795778,9.55722141266,-155.81098938,0
13.3,12.488249482773321,-1.3834230883411305,393.1983045561646,0.300000011921,208.2868639178187,-1.07778549194,13.7532463074,-153.196350098,0
13.4,12.561019079286039,-1.3545996435069985,393.0473954516001,0.300000011921,208.9887786851508,-1.07778549194,13.7532463074,-153.196350098,0
13.5,12.633788675798758,-1.3257761986728667,392.8964863470356,0.300000011921,209.6906934524829,-1.07778549194,13.7532463074,-153.196350098,0
13.600000000000001,12.70055996189735,-1.4154849068517885,392.74482713847533,0.30154839814687634,210.30967754051474,-1.514459974362674,12.270285394380899,-152.14870862065786,0
13.700000000000001,12.76260562944928,-1.5985762014562057,392.592576979279,0.304316641659425,210.86332677103974,-1.96410417557,10.7537078857,-151.069854736,0
13.8,12.824651297001209,-1.781667496060623,392.4403268200827,0.3070848851719737,211.41697600156476,-1.96410417557,10.7537078857,-151.069854736,0
13.9,12.886696964553138,-1.96475879066504,392.2880766608864,0.30985312868452236,211.97062523208976,-1.82282078266,9.36207389832,-149.187011719,0
14.0,12.93917899328222,-1.9563007646895965,392.15820465392807,0.3141996783076312,212.20998368353582,-1.82282078266,9.36207389832,-149.187011719,0
14.100000000000001,12.991125177352004,-1.937110350935173,392.02958648074406,0.3186346594279711,212.4317326205956,-1.82282078266,9.36207389832,-149.187011719,0
14.200000000000001,13.043071361421786,-1.91791993718075,391.9009683075601,0.3230696405483109,212.65348155765537,-1.82282078266,9.36207389832,-149.187011719,0
14.3,13.09501754549157,-1.898729523426327,391.7723501343761,0.32750462166865074,212.87523049471514,-1.13205504417,9.02902984619,-147.659790039,0
14.4,13.133702050783812,-1.802004632744203,391.6502964024464,0.3312118373910177,213.12118254337358,-1.13205504417,9.02902984619,-147.659790039,0
14.5,13.155324658825917,-1.6055272672152194,391.5366881941992,0.33398274190794,213.3982732593272,-1.13205504417,9.02902984619,-147.659790039,0
14.600000000000001,13.17694726686802,-1.4090499016862326,391.423079985952,0.3367536464248623,213.67536397528085,-1.13205504417,9.02902984619,-147.659790039,0
14.700000000000001,13.198569874910124,-1.212572536157249,391.3094717777048,0.3395245509417846,213.9524546912345,0.20255844295,5.26775598526,-146.09967041,0
14.8,13.202142279552074,-1.2005373881121857,391.2271702334336,0.34285488472951875,213.7145116124064,0.20255844295,5.26775598526,-146.09967041,0
14.9,13.201975979488697,-1.226705409919613,391.15135317963154,0.3463010920506816,213.36989055165947,0.20255844295,5.26775598526,-146.09967041,0
15.0,13.201809679425319,-1.2528734317270407,391.0755361258295,0.34974729937184446,213.02526949091254,0.20255844295,5.26775598526,-146.09967041,0
15.100000000000001,13.15684503577084,-1.1676084041929715,391.045573003567,0.34999999404,212.65133471546085,1.3029974699,2.35231971741,-145.481552124,0
15.200000000000001,13.10833561124411,-1.0735259581970142,391.0192381882106,0.34999999404,212.27508041908828,1.3029974699,2.35231971741,-145.481552124,0
15.3,13.05982618671738,-0.979443512201057,390.99290337285424,0.34999999404,211.89882612271572,1.3029974699,2.35231971741,-145.481552124,0
15.4,13.011316762190651,-0.8853610662050998,390.96656855749785,0.34999999404,211.52257182634318,2.70108032227,1.61173808575,-146.504180908,0
15.5,12.962807337663921,-0.7912786202091426,390.94023374214146,0.34999999404,211.14631752997062,2.70108032227,1.61173808575,-146.504180908,0
15.600000000000001,12.896176397833589,-0.5253580218954935,390.9458841716521,0.3515890498455483,210.68218948293335,2.70108032227,1.61173808575,-146.504180908,0
15.700000000000001,12.81801404699823,-0.15009025655295727,390.9718880317936,0.3541892824371824,210.16214401847867,2.70108032227,1.61173808575,-146.504180908,0
15.8,12.739851696162871,0.2251775087895791,390.99789189193507,0.3567895150288165,209.642098554024,2.70108032227,1.61173808575,-146.504180908,0
15.9,12.661689345327513,0.6004452741321153,391.0238957520765,0.35938974762045056,209.1220530895693,3.9626967177524053,-1.1237666254643612,-148.0256258855044,0
16.0,12.596664105520233,0.5732908983173433,391.06200878464387,0.36457305397230155,209.0,4.61926269531,-2.54717826843,-148.817459106,0
16.1,12.535667648901207,0.42272494796301296,391.10383536048477,0.3705485165384788,209.0,4.61926269531,-2.54717826843,-148.817459106,0
16.2,12.474671192282184,0.272158997608688,391.1456619363257,0.3765239791046558,209.0,4.61926269531,-2.54717826843,-148.817459106,0
16.3,12.413674735663157,0.12159304725435771,391.1874885121666,0.382499441670833,209.0,5.19823265076,-4.85624170303,-150.40234375,0
16.400000000000002,12.352678279044131,-0.02897290309997258,391.2293150880076,0.38847490423701025,209.0,5.19823265076,-4.85624170303,-150.40234375,0
16.5,12.319185743842343,0.21153956093507498,391.2642159636103,0.3960566647441139,209.0,5.19823265076,-4.85624170303,-150.40234375,0
16.6,12.295118406068761,0.5860689605777502,391.29674350156847,0.4041888804023975,209.0,5.19823265076,-4.85624170303,-150.40234375,0
16.7,12.271051068295183,0.960598360220412,391.32927103952665,0.41232109606068074,209.0,5.19823265076,-4.85624170303,-150.40234375,0
16.8,12.24971224320207,1.2838922896296359,391.35904050341725,0.42031494924256535,208.96850376569492,4.7584104538,-6.42336893082,-150.557495117,0
16.900000000000002,12.274591823795596,0.7393061590540478,391.3420908198845,0.42596507387526966,208.40349132487432,4.7584104538,-6.42336893082,-150.557495117,0
17.0,12.299471404389122,0.19472002847847936,391.3251411363517,0.43161519850797375,207.83847888405373,4.7584104538,-6.42336893082,-150.557495117,0
17.1,12.324350984982647,-0.34986610209710856,391.30819145281896,0.4372653231406781,207.27346644323313,4.7584104538,-6.42336893082,-150.557495117,0
17.2,12.349230565576171,-0.8944522326726774,391.29124176928616,0.4429154477733822,206.70845400241254,3.51560378075,-4.72169971466,-150.696151733,0
17.3,12.374110146169697,-1.4390383632482653,391.2742920857534,0.4485655724060865,206.14344156159194,3.51560378075,-4.72169971466,-150.696151733,0
17.400000000000002,12.42934727939871,-1.284076691294858,391.2285968819807,0.44840804431548836,206.0,3.51560378075,-4.72169971466,-150.696151733,0
17.5,12.49491371896907,-0.8910904447158147,391.17312087380446,0.4462744338699174,206.0,3.51560378075,-4.72169971466,-150.696151733,0
17.6,12.560480158539429,-0.4981041981367571,391.11764486562817,0.44414082342434635,206.0,3.51560378075,-4.72169971466,-150.696151733,0
17.7,12.626046598109788,-0.10511795155771364,391.06216885745187,0.44200721297877543,206.0,2.5304065723295968,3.5281551096477486,-152.79666385625734,0
17.8,12.693483845269517,0.26612407102505087,391.0056298078949,0.4398720716511911,206.0895482607684,2.21909737587,5.79506492615,-153.470870972,0
17.900000000000002,12.79063042645651,0.29205724541821165,390.9322091444061,0.4377126191729855,207.60116643714258,2.21909737587,5.79506492615,-153.470870972,0
18.0,12.887777007643498,0.31799041981137155,390.8587884809173,0.43555316669478,209.1127846135167,2.21909737587,5.79506492615,-153.470870972,0
18.1,12.98492358883049,0.34392359420453233,390.78536781742855,0.43339371421657436,210.6244027898909,2.21909737587,5.79506492615,-153.470870972,0
18.2,13.082070170017479,0.3698567685976922,390.7119471539398,0.4312342617383689,212.13602096626502,2.11547255516,15.1222419739,-153.091156006,0
18.3,13.1892028912102,0.20396867602438742,390.6264621487364,0.430000007153,213.72537553659112,2.11547255516,15.1222419739,-153.091156006,0
18.400000000000002,13.30965756134772,-0.21781740351762652,390.52488278231993,0.430000007153,215.41843386740794,2.11547255516,15.1222419739,-153.091156006,0
18.5,13.430112231485236,-0.6396034830596256,390.42330341590355,0.430000007153,217.11149219822468,2.11547255516,15.1222419739,-153.091156006,0
18.6,13.550494512495913,-0.8369342146490024,390.323845641365,0.42878556041228544,218.60722213976092,1.3042501598143053,16.35741830727486,-150.4648120188845,0
18.7,13.670796850356165,-0.7863870061869178,390.22673085321156,0.42622993575294954,219.88503187981965,0.0574587546289,18.2537078857,-146.409118652,0
18.8,13.791099188216425,-0.7358397977248314,390.1296160650581,0.4236743110936136,221.1628416198784,0.0574587546289,18.2537078857,-146.409118652,0
18.900000000000002,13.911401526076682,-0.6852925892627452,390.03250127690467,0.4211186864342776,222.44065135993716,0.38133530559045836,21.34222544777965,-143.34862118429118,0
19.0,14.010091820399468,-0.5562657058333307,389.9789406293968,0.418772204255978,223.9822270415675,0.578358352184,23.1800289154,-141.48588562,0
19.1,14.091956336455722,-0.366139481791313,389.9592884973804,0.4165885472638265,225.72915430133327,0.578358352184,23.1800289154,-141.48588562,0
19.200000000000003,14.173820852511977,-0.17601325774929538,389.939636365364,0.414404890271675,227.476081561099,0.578358352184,23.1800289154,-141.48588562,0
19.3,14.255685368568228,0.014112966292715412,389.9199842333476,0.41222123327952354,229.22300882086466,2.39981471046598,22.732516676564916,-137.69247636128753,0
19.400000000000002,14.337549884624481,0.20423919033473303,389.9003321013312,0.41003757628737203,230.9699360806304,3.00667285919,22.5853557587,-136.40322876,0
19.5,14.399432231179611,0.10077507438925208,389.89700483674636,0.41597228619732507,232.1944573138984,3.00667285919,22.5853557587,-136.40322876,0
19.6,14.460964670832677,-0.007830089245586064,389.8939634362059,0.4220491564774226,233.40983071793082,3.00667285919,22.5853557587,-136.40322876,0
19.700000000000003,14.522497110485741,-0.11643525288042417,389.89092203566554,0.42812602675752004,234.62520412196326,3.0848858947503714,22.795253331203757,-135.7685719163102,0
19.8,14.567908113234164,-0.14475888434424636,389.91042916070404,0.42659236171159637,235.8519109033433,3.93190169334,25.0569972992,-128.568206787,0
19.900000000000002,14.606130905599814,-0.13728666544372517,389.93999020008295,0.42166531868252083,237.08367099983448,3.93190169334,25.0569972992,-128.568206787,0
20.0,14.644353697965464,-0.12981444654320426,389.9695512394618,0.41673827565344546,238.31543109632563,3.93190169334,25.0569972992,-128.568206787,0
20.1,14.682576490331114,-0.12234222764268307,389.99911227884064,0.4118112326243699,239.5471911928168,6.05404376984,27.4196834564,-124.101791382,0
20.200000000000003,14.712737085146083,0.12851530268413702,390.04668470453805,0.41319162451681846,240.95748791420115,6.05404376984,27.4196834564,-124.101791382,0
20.3,14.738211078749513,0.5208540964295629,390.10472725136697,0.4182385641413315,242.47156898932627,6.05404376984,27.4196834564,-124.101791382,0
20.400000000000002,14.763685072352946,0.9131928901750027,390.1627697981959,0.4232855037658447,243.98565006445142,6.05404376984,27.4196834564,-124.101791382,0
20.5,14.789159065956376,1.3055316839204287,390.2208123450248,0.4283324433903577,245.49973113957654,7.682515163127178,25.017418794579207,-120.41288871019792,0
20.6,14.816382902100955,1.244422140989968,390.2593696996772,0.4335230347298405,247.05690928102652,8.06117153168,24.4594535828,-119.553146362,0
20.700000000000003,14.844470203610502,0.9595570747385436,390.28831202430337,0.4387845114647679,248.63535380686727,8.06117153168,24.4594535828,-119.553146362,0
20.8,14.872557505120051,0.674692008487129,390.31725434892957,0.44404598819969504,250.213798332708,8.06117153168,24.4594535828,-119.553146362,0
20.900000000000002,14.900644806629598,0.38982694223570435,390.34619667355577,0.4493074649346224,251.79224285854875,6.671212094404561,20.01206715762502,-112.9059185210704,0
21.0,14.937831383491005,0.15876490993920206,390.34292197793894,0.4517706449268651,252.35413065189184,6.53406953812,19.886341095,-112.715003967,0
21.1,14.9763971511569,-0.06414211585241014,390.334764100272,0.4538096828872969,252.761937417517,6.53406953812,19.886341095,-112.715003967,0
21.200000000000003,15.014962918822798,-0.2870491416440224,390.3266062226051,0.4558487208477287,253.16974418314217,6.53406953812,19.886341095,-112.715003967,0
21.3,15.053528686488692,-0.5099561674356267,390.31844834493825,0.45788775880816046,253.57755094876734,5.16753196716,16.8458080292,-107.261993408,0
21.400000000000002,15.092094454154589,-0.7328631932272389,390.31029046727133,0.45992679676859227,253.9853577143925,5.16753196716,16.8458080292,-107.261993408,0
21.5,15.05830684593662,-0.5600940211696218,390.3740537544379,0.4432882766380789,254.2785288507105,5.16753196716,16.8458080292,-107.261993408,0
21.6,15.021824643348603,-0.3725890217637748,390.44049553951123,0.4259541643218064,254.56743071116452,5.16753196716,16.8458080292,-107.261993408,0
21.700000000000003,14.985342440760588,-0.18508402235792776,390.5069373245845,0.40862005200553386,254.85633257161854,5.16753196716,16.8458080292,-107.261993408,0
21.8,14.912528540359817,0.29711465680970484,390.6229803939321,0.3957069064120166,255.28620662516028,7.93985652924,15.0700731277,-105.385116577,0
21.900000000000002,14.803774942195895,1.0708274248023189,390.78808957559494,0.38716702761862526,255.85553185543185,7.93985652924,15.0700731277,-105.385116577,0
22.0,14.695021344031975,1.8445401927949054,390.9531987572578,0.3786271488252342,256.4248570857034,7.93985652924,15.0700731277,-105.385116577,0
22.1,14.586267745868051,2.6182529607875193,391.1183079389206,0.3700872700318428,256.99418231597497,8.705078552845464,13.188660768709047,-105.10402025405492,0
22.200000000000003,14.477726321233002,2.553200168034722,391.3045077220829,0.375507978967596,257.55079794522806,10.0858974457,9.79500865936,-104.59664917,0
22.3,14.36918708708956,2.4794879118266504,391.4909252458172,0.38107281780676006,258.10728235983584,10.0858974457,9.79500865936,-104.59664917,0
22.400000000000002,14.260647852946114,2.405775655618576,391.67734276955156,0.38663765664592425,258.6637667744436,10.090093651697789,9.596965015816759,-104.52179218824918,0
22.5,14.156620479090535,2.22248956891855,391.85145061568807,0.3937255784578499,259.0,10.2030553818,4.37904500961,-102.46938324,0
22.6,14.05948086527103,1.8719291868035373,392.0067666331763,0.40313862324835004,259.0,10.2030553818,4.37904500961,-102.46938324,0
22.700000000000003,13.962341251451527,1.5213688046885245,392.16208265066456,0.41255166803885024,259.0,10.2030553818,4.37904500961,-102.46938324,0
22.8,13.865201637632026,1.1708084225735245,392.31739866815275,0.4219647128293501,259.0,9.644207110812982,1.3705603177364973,-101.09820769468247,0
22.900000000000002,13.774893367724182,0.8719654110249183,392.46201636560795,0.43092571677316044,258.9074290416621,9.23971748352,-0.632857501507,-100.095962524,0
23.0,13.724426752946933,0.874747624177844,392.5442394914026,0.43725033529242513,258.27496721486546,9.23971748352,-0.632857501507,-100.095962524,0
23.1,13.673960138169683,0.8775298373307698,392.62646261719726,0.44357495381169,257.6425053880688,9.23971748352,-0.632857501507,-100.095962524,0
23.200000000000003,13.623493523392433,0.8803120504836955,392.7086857429919,0.4498995723309549,257.0100435612721,9.124827965932273,-0.9436243658352583,-100.15215953036261,0
23.3,13.573026908615185,0.8830942636366212,392.7909088687866,0.4562241908502196,256.3775817344755,8.04396629333,-3.8644323349,-100.681617737,0
23.400000000000002,13.535964142888265,0.7989760110648674,392.86188425526757,0.4613679705603322,255.5896109440123,8.04396629333,-3.8644323349,-100.681617737,0
23.5,13.518757963554494,0.5861226019878476,392.9161971363316,0.46476244469842004,254.57126773139203,8.04396629333,-3.8644323349,-100.681617737,0
23.6,13.501551784220723,0.37326919291082017,392.97051001739567,0.46815691883650795,253.5529245187717,8.04396629333,-3.8644323349,-100.681617737,0
23.700000000000003,13.492573837234472,0.3386142339419205,393.0073700152525,0.46894679153266944,252.68403751606743,6.5045393361679436,-6.7088680988652705,-103.72110606239356,0
23.8,13.493371155984697,0.5156617561457079,393.02349572122097,0.4666423579237693,251.99270677407526,6.40922689438,-6.88345193863,-103.913490295,0
23.900000000000002,13.494168474734922,0.6927092783495016,393.0396214271895,0.46433792431486903,251.30137603208306,6.40922689438,-6.88345193863,-103.913490295,0
24.0,13.494965793485145,0.8697568005532891,393.05574713315804,0.4620334907059689,250.61004529009085,5.811263947737329,-8.342539365231932,-105.18224515332784,0
24.1,13.49941227575256,0.9685708729427865,393.06809794955774,0.4603758712382424,249.92482734965935,5.16149663925,-9.92496109009,-106.597557068,0
24.200000000000003,13.531245639243634,0.48024485481890433,393.05211831385094,0.46357257577508915,249.28548583255,5.16149663925,-9.92496109009,-106.597557068,0
24.3,13.563079002734707,-0.00808116330496067,393.03613867814414,0.46676928031193576,248.64614431544067,5.16149663925,-9.92496109009,-106.597557068,0
24.400000000000002,13.59491236622578,-0.4964071814288429,393.0201590424374,0.4699659848487825,248.0068027983313,5.16149663925,-9.92496109009,-106.597557068,0
24.5,13.652248717525739,-0.5018386266401632,392.97646758275533,0.469999998808,247.709845319609,3.48726630211,-8.44331359863,-109.766525269,0
24.6,13.709859347186468,-0.5020766595001268,392.93247808922285,0.469999998808,247.41657009700137,3.48726630211,-8.44331359863,-109.766525269,0
24.700000000000003,13.767469976847199,-0.5023146923600905,392.88848859569043,0.469999998808,247.12329487439374,3.48726630211,-8.44331359863,-109.766525269,0
24.8,13.837132039271834,-0.5489032159434388,392.83035601847416,0.469999998808,246.8761306521666,2.69980478287,-5.64707756042,-111.412223816,0
24.900000000000002,13.915535582135265,-0.6291119667582175,392.76196478639196,0.469999998808,246.66241294337362,2.69980478287,-5.64707756042,-111.412223816,0
25.0,13.993939124998692,-0.7093207175729933,392.6935735543097,0.469999998808,246.44869523458067,2.69980478287,-5.64707756042,-111.412223816,0
25.1,14.072342667862122,-0.789529468387772,392.6251823222275,0.469999998808,246.23497752578768,2.00994324684,-1.54212653637,-112.521720886,0
25.200000000000003,14.150746210725552,-0.8697382192025507,392.5567910901452,0.469999998808,246.02125981699473,2.00994324684,-1.54212653637,-112.521720886,0
25.3,14.24663462508156,-0.6826315681091385,392.49810884923465,0.469999998808,246.30520093911417,2.00994324684,-1.54212653637,-112.521720886,0
25.400000000000002,14.344454501767514,-0.4659959822895952,392.44049910981306,0.469999998808,246.64411583015604,2.00994324684,-1.54212653637,-112.521720886,0
25.5,14.442274378453464,-0.2493603964700596,392.3828893703914,0.469999998808,246.98303072119788,2.00994324684,-1.54212653637,-112.521720886,0
25.6,14.532337273001522,-0.45813428076956064,392.33886158085346,0.46725756097330184,247.54848809003272,2.20971393585,4.73033857346,-113.553627014,0
25.700000000000003,14.621991308451781,-0.6893308713556812,392.2955496758795,0.4643705732815929,248.12588617903907,2.20971393585,4.73033857346,-113.553627014,0
25.8,14.711645343902036,-0.9205274619417934,392.25223777090554,0.4614835855898841,248.7032842680454,2.20971393585,4.73033857346,-113.553627014,0
25.900000000000002,14.808626199917606,-0.896558789954026,392.2046020258278,0.4610574854947997,249.42299126332665,2.25208926201,8.43354797363,-112.449928284,0
26.0,14.913352405337292,-0.6028490895337284,392.1523954505963,0.4632328458981957,250.29313625454233,2.25208926201,8.43354797363,-112.449928284,0
26.1,15.018078610756982,-0.3091393891134201,392.10018887536484,0.46540820630159185,251.16328124575807,2.25208926201,8.43354797363,-112.449928284,0
26.200000000000003,15.12280481617667,-0.01542968869311201,392.04798230013336,0.46758356670498796,252.03342623697378,2.4971831118911014,10.47077218709682,-110.29197466763075,0
26.3,15.227531021596356,0.27828001172718575,391.9957757249019,0.46975892710838396,252.9035712281895,2.52417016029,10.6822919846,-110.053451538,0
26.400000000000002,15.307836714673961,-0.09920870655510966,391.9318170627513,0.474155245674681,253.20776223188,2.52417016029,10.6822919846,-110.053451538,0
26.5,15.385098862905185,-0.5603493343274238,391.86639373011894,0.47882836374772164,253.4414180101874,2.52417016029,10.6822919846,-110.053451538,0
26.6,15.462361011136412,-1.0214899620997544,391.8009703974866,0.4835014818207625,253.67507378849479,2.52417016029,10.6822919846,-110.053451538,0
26.700000000000003,15.53962315936764,-1.482630589872085,391.7355470648542,0.48817459989380335,253.90872956680218,3.5561747551,15.4109401703,-106.717933655,0
26.8,15.599695254161034,-1.74141211052732,391.6709718655393,0.485963619056392,254.5381853760305,3.5561747551,15.4109401703,-106.717933655,0
26.900000000000002,15.648748352422473,-1.8704794154823192,391.6069403281808,0.47933986182510396,255.4213529717777,3.5561747551,15.4109401703,-106.717933655,0
27.0,15.697801450683912,-1.999546720437314,391.54290879082237,0.47271610459381613,256.3045205675249,3.5561747551,15.4109401703,-106.717933655,0
27.1,15.74685454894535,-2.1286140253923134,391.4788772534639,0.4660923473625281,257.1876881632721,4.71750354767,9.97249698639,-105.794433594,0
27.200000000000003,15.793163394834657,-2.1647976584915773,391.41772186931826,0.460000008345,258.0502473929941,4.71750354767,9.97249698639,-105.794433594,0
27.3,15.808011302111437,-1.1361348044255262,391.3895395748875,0.460000008345,258.6765460859639,4.71750354767,9.97249698639,-105.794433594,0
27.400000000000002,15.822859209388216,-0.10747195035943813,391.3613572804568,0.460000008345,259.3028447789336,4.71750354767,9.97249698639,-105.794433594,0
27.5,15.837707116664996,0.9211909037066128,391.33317498602605,0.460000008345,259.92914347190333,4.795302355742706,9.694704788888066,-104.99912485739985,0
27.6,15.821500444264867,0.8743358425144356,391.3452463634051,0.4569491611601338,260.3050841002032,5.11993217468,8.54483413696,-101.664337158,0
27.700000000000003,15.8013322078414,0.6902793403794953,391.3624528126386,0.45350912414967615,260.6490871040925,5.11993217468,8.54483413696,-101.664337158,0
27.8,15.781163971417932,0.5062228382445616,391.37965926187206,0.45006908713921867,260.99309010798174,5.11993217468,8.54483413696,-101.664337158,0
27.900000000000002,15.718734174708738,0.5858142586493367,391.45013478381856,0.44758153469957757,261.0,6.20282840729,8.10707759857,-99.5813751221,0
28.0,15.65543808080208,0.6708100572850412,391.52170224009234,0.44511350673344746,261.0,6.20282840729,8.10707759857,-99.5813751221,0
28.1,15.592141986895422,0.7558058559207486,391.5932696963661,0.44264547876731725,261.0,6.20282840729,8.10707759857,-99.5813751221,0
28.200000000000003,15.528845892988763,0.8408016545564561,391.66483715263996,0.4401774508011871,261.0,7.5447063446,5.97251653671,-98.8525390625,0
28.3,15.447310734956996,0.7304678083712324,391.7724145397085,0.439999997616,261.6608544276217,7.5447063446,5.97251653671,-98.8525390625,0
28.400000000000002,15.364362577860206,0.6050015736155417,391.88278165316854,0.439999997616,262.3729059277433,7.5447063446,5.97251653671,-98.8525390625,0
28.5,15.282046075517197,0.5270586840393129,391.9912200329403,0.44044957974484544,263.04495825576123,7.7731346160214825,5.636207546960153,-98.75049664443473,0
28.6,15.204391990125389,0.7998986371738904,392.0854219004584,0.4442176508519571,263.42176572583367,8.99878883362,3.94130825996,-98.1979980469,0
28.700000000000003,15.126737904733579,1.072738590308468,392.1796237679765,0.4479857219590688,263.79857319590616,8.99878883362,3.94130825996,-98.1979980469,0
28.8,15.057124076212114,1.2752454167767868,392.2842737876336,0.45164515829319885,263.8354833119896,8.99878883362,3.94130825996,-98.1979980469,0
28.900000000000002,14.996744579402469,1.396973801406816,392.40092363567715,0.4551798262840626,263.4820172292376,9.34011077881,2.37418723106,-96.8172988892,0
29.0,14.936365082592827,1.5187021860368408,392.51757348372064,0.4587144942749263,263.1285511464856,9.34011077881,2.37418723106,-96.8172988892,0
29.1,14.887753981462419,1.4688326590278513,392.605810040003,0.46111737488480514,262.88826323945614,9.2848367691,1.28815948963,-95.8141021729,0
29.200000000000003,14.84586915997344,1.3208855714890153,392.6778068511979,0.46287337731123057,262.71266282934346,9.2848367691,1.28815948963,-95.8141021729,0
29.3,14.803984338484463,1.1729384839501844,392.74980366239276,0.46462937973765595,262.53706241923084,9.2848367691,1.28815948963,-95.8141021729,0
29.400000000000002,14.762099516995484,1.0249913964113482,392.8218004735877,0.4663853821640813,262.36146200911816,8.80163192749,0.975070357323,-96.2327270508,0
29.5,14.720214695506508,0.8770443088725174,392.8937972847826,0.4681413845905067,262.18586159900553,8.80163192749,0.975070357323,-96.2327270508,0
29.6,14.678329874017528,0.7290972213336813,392.96579409597746,0.4698973870169321,262.0102611888929,8.80163192749,0.975070357323,-96.2327270508,0
29.700000000000003,14.661401250774203,0.4990199497401253,393.0167711443339,0.469999998808,261.75384567120426,8.80163192749,0.975070357323,-96.2327270508,0
29.8,14.646021444940068,0.26384556128479836,393.0664436761009,0.469999998808,261.4924146521838,8.80163192749,0.975070357323,-96.2327270508,0
29.900000000000002,14.630641639105932,0.028671172829462965,393.11611620786795,0.469999998808,261.23098363316336,8.566428954424133,0.22470472332953273,-96.43998488949751,0
30.0,14.616474976815772,-0.15880533181078502,393.16304580517635,0.469999998808,260.923933652855,7.3059630394,-3.78472018242,-97.5513076782,0
30.1,14.611511610488398,0.01556960621501327,393.18916662206124,0.469999998808,260.27080360285345,7.3059630394,-3.78472018242,-97.5513076782,0
30.200000000000003,14.606548244161024,0.18994454424081156,393.2152874389462,0.469999998808,259.6176735528519,7.3059630394,-3.78472018242,-97.5513076782,0
30.3,14.601470858810877,0.3500678446833337,393.24163775029047,0.46986270032897204,258.9725402780061,7.186784261532713,-3.6752525989691986,-97.69224299390787,0
30.400000000000002,14.59440719335552,0.26191902780795173,393.27198599345223,0.46733357958435323,258.46671564667736,6.49963331223,-3.21868515015,-98.508895874,0
30.5,14.587343527900162,0.1737702109325729,393.30233423661406,0.4648044588397345,257.96089101534864,6.49963331223,-3.21868515015,-98.508895874,0
30.6,14.580279862444804,0.08562139405719094,393.3326824797759,0.4622753380951157,257.45506638402,6.422901789246092,-3.2490060088318544,-98.80599772454438,0
30.700000000000003,14.574066150434927,0.0327743413440889,393.3647868611488,0.4597175883641655,256.9717580591517,5.98735618591,-3.42039442062,-100.517860413,0
30.8,14.575472584145764,0.2964206078177489,393.4126356684611,0.45690316922521307,256.69031671562544,5.98735618591,-3.42039442062,-100.517860413,0
30.900000000000002,14.576879017856601,0.5600668742914182,393.4604844757735,0.4540887500862605,256.4088753720992,5.98735618591,-3.42039442062,-100.517860413,0
31.0,14.578285451567437,0.8237131407650783,393.50833328308585,0.45127433094730807,256.127434028573,5.98735618591,-3.42039442062,-100.517860413,0
31.1,14.585885542819527,0.9182538454085811,393.5562655975038,0.4515452535257538,256.0,5.68430709839,-2.54460382462,-102.120872498,0
31.200000000000003,14.598610603183136,0.872867410846619,393.6042670102427,0.45436915564735847,256.0,5.68430709839,-2.54460382462,-102.120872498,0
31.3,14.611335663546745,0.8274809762846584,393.65226842298165,0.4571930577689631,256.0,5.68430709839,-2.54460382462,-102.120872498,0
31.400000000000002,14.624142491997283,0.7827657926055359,393.7001273876285,0.460000008345,256.0,5.451307257616284,0.07363654339683068,-102.9045700365984,0
31.5,14.650489028540221,0.8492008308763654,393.72439884208427,0.460000008345,256.0,5.37166166306,0.9653185606,-103.17791748,0
31.6,14.676835565083161,0.9156358691471973,393.74867029654,0.460000008345,256.0,5.37166166306,0.9653185606,-103.17791748,0
31.700000000000003,14.705389915826196,0.9559050065024687,393.769989014,0.4602316733224481,256.0,5.37166166306,0.9653185606,-103.17791748,0
31.8,14.749884652456183,0.80725672605329,393.769989014,0.462135956012409,256.0,4.7578868866,2.69133901596,-103.837104797,0
31.900000000000002,14.794379389086172,0.6586084456041061,393.769989014,0.4640402387023699,256.0,4.7578868866,2.69133901596,-103.837104797,0
32.0,14.83887412571616,0.5099601651549274,393.769989014,0.4659445213923308,256.0,4.7578868866,2.69133901596,-103.837104797,0
32.1,14.883368862346147,0.3613118847057434,393.769989014,0.4678488040822917,256.0,4.03423881531,3.7116818428,-103.521324158,0
32.2,14.927863598976137,0.2126636042565594,393.769989014,0.46975308677225264,256.0,4.03423881531,3.7116818428,-103.521324158,0
32.300000000000004,14.963278752157459,0.17547312862045242,393.7886460328854,0.46533673777363654,256.0,4.03423881531,3.7116818428,-103.521324158,0
32.4,14.997341245674297,0.15488743201573626,393.81008254017456,0.45997875267601784,256.0,4.03423881531,3.7116818428,-103.521324158,0
32.5,15.03140373919114,0.13430173541101864,393.8315190474637,0.4546207675783988,256.0,4.03423881531,3.7116818428,-103.521324158,0
32.6,15.06144804295731,0.13129122499779758,393.8558435799445,0.44890527754874476,256.0364903495586,3.79580879211,4.67649364471,-103.309623718,0
32.7,15.066306470667431,0.23844138109042268,393.89827015564356,0.44094895882100543,256.3017009632789,3.79580879211,4.67649364471,-103.309623718,0
32.800000000000004,15.071164898377553,0.34559153718304775,393.94069673134254,0.4329926400932661,256.5669115769992,3.79580879211,4.67649364471,-103.309623718,0
32.9,15.076023326087673,0.45274169327566516,393.9831233070415,0.42503632136552727,256.8321221907194,3.8297600154339966,3.9803082621280375,-103.38324492185167,0
33.0,15.074228447558527,0.5849550765572784,394.03203041692205,0.4189500420847074,257.2099891607252,4.00459957123,0.440041333437,-103.76260376,0
33.1,15.060958070276923,0.7603970475510079,394.09211503152585,0.4160891720317857,257.7821637169924,4.00459957123,0.440041333437,-103.76260376,0
33.2,15.04768769299532,0.9358390185447374,394.1521996461297,0.41322830197886407,258.3543382732596,4.00459957123,0.440041333437,-103.76260376,0
33.300000000000004,15.034417315713716,1.111280989538467,394.21228426073355,0.4103674319259424,258.9265128295268,3.736243104612665,0.3204460043820744,-102.37921202658256,0
33.4,15.007239102698094,1.1868269720561937,394.296812693651,0.40797866978216396,259.40426571387496,3.69728136063,0.303594648838,-102.174682617,0
33.5,14.9780114143506,1.2476521620617258,394.38494319691273,0.40565947802534374,259.8681045075557,3.69728136063,0.303594648838,-102.174682617,0
33.6,14.948783726003107,1.3084773520672581,394.4730737001745,0.40334028626852353,260.33194330123644,3.69728136063,0.303594648838,-102.174682617,0
33.7,14.919556037655612,1.3693025420727902,394.56120420343626,0.40102109451170326,260.7957820949172,4.44875144958,0.29376283288,-100.665969849,0
33.800000000000004,14.89180322159214,1.391039021791884,394.6587400325279,0.39836843824789625,261.0,4.44875144958,0.29376283288,-100.665969849,0
33.9,14.865210540715534,1.382028304818916,394.7636740950513,0.39545347865632524,261.0,4.44875144958,0.29376283288,-100.665969849,0
34.0,14.838617859838925,1.3730175878459472,394.86860815757467,0.39253851906475395,261.0,4.44875144958,0.29376283288,-100.665969849,0
34.1,14.81240739624829,1.3719041158395229,394.971948023617,0.3905313746149044,261.0,5.08236265182,4.81258630753,-98.8667755127,0
34.2,14.788774519655316,1.424047879155101,395.0645369888705,0.39464633031977553,261.0,5.08236265182,4.81258630753,-98.8667755127,0
34.300000000000004,14.765141643062343,1.4761916424706791,395.1571259541239,0.39876128602464667,261.0,5.08236265182,4.81258630753,-98.8667755127,0
34.4,14.741508766469373,1.5283354057862535,395.24971491937737,0.4028762417295175,261.0,5.08236265182,4.81258630753,-98.8667755127,0
34.5,14.7178758898764,1.5804791691018316,395.34230388463084,0.4069911974343886,261.0,5.41394853592,3.24198365211,-98.5812072754,0
34.6,14.705770511608101,1.5608729189769888,395.4252224363558,0.4106617378278603,261.06617420349636,5.41394853592,3.24198365211,-98.5812072754,0
34.7,14.725020478232212,1.3461032123852763,395.48183700235046,0.4131234473916131,261.3123453946451,5.41394853592,3.24198365211,-98.5812072754,0
34.800000000000004,14.74427044485632,1.1313335057935638,395.5384515683452,0.4155851569553659,261.5585165857939,5.41394853592,3.24198365211,-98.5812072754,0
34.9,14.76352041148043,0.9165637992018666,395.59506613433985,0.41804686651911854,261.80468777694256,4.800022739024725,2.7686820924205473,-98.44296534624975,0
35.0,14.78600826326001,0.6962580952731076,395.6471108122233,0.419999986887,261.9451814342753,4.31414031982,2.39793539047,-98.32862854,0
35.1,14.820930471682129,0.4546926610093395,395.68160588106775,0.419999986887,261.67984471731154,4.31414031982,2.39793539047,-98.32862854,0
35.2,14.855852680104249,0.2131272267455715,395.71610094991223,0.419999986887,261.4145080003478,4.31414031982,2.39793539047,-98.32862854,0
35.300000000000004,14.890774888526368,-0.02843820751819659,395.7505960187567,0.419999986887,261.149171283384,3.9037961741346523,2.828794919737823,-98.21780156166291,0
35.4,14.930601009840592,-0.024658680949762923,395.76607993163174,0.42130306997583955,261.0,2.77568173409,4.01137971878,-97.6426391602,0
35.5,14.976724382903264,0.2941751741855284,395.75715108722454,0.42427947851725284,261.0,2.77568173409,4.01137971878,-97.6426391602,0
35.6,15.022847755965936,0.6130090293208197,395.74822224281735,0.42725588705866613,261.0,2.77568173409,4.01137971878,-97.6426391602,0
35.7,15.071862647065107,0.8570933916086216,395.73687886684877,0.42968888879488226,260.96888822723935,2.3916912530125383,3.8964614466812253,-97.84213667483586,0
35.800000000000004,15.155036244061419,0.21813088719638352,395.6970116247161,0.4257023997975377,260.57024013540513,1.80447363853,3.72072815895,-98.1475524902,0
35.9,15.238209841057722,-0.4208316172158092,395.65714438258334,0.4217159108001934,260.1715920435709,1.80447363853,3.72072815895,-98.1475524902,0
36.0,15.308231184780526,-0.624965184385332,395.63446935935957,0.4172410881643226,260.0,1.748010777508788,3.604651057776457,-98.17183576741596,0
36.1,15.368313035439725,-0.5004874394320071,395.6247869342131,0.41239721934967766,260.0,1.11839294434,2.31332921982,-98.7770080566,0
36.2,15.428394886098921,-0.3760096944786824,395.6151045090666,0.4075533505350327,260.0,1.11839294434,2.31332921982,-98.7770080566,0
36.300000000000004,15.48847673675812,-0.25153194952535757,395.6054220839202,0.4027094817203878,260.0,0.9809093195189049,1.2472540331176079,-99.57838223002791,0
36.4,15.545067367309711,-0.1752037846564567,395.5840312847608,0.40099840835317563,260.0998403345253,0.922158896923,0.793928444386,-99.9209060669,0
36.5,15.597226116752594,-0.1599984386851239,395.547777452048,0.40326421886409575,260.32642160168524,0.922158896923,0.793928444386,-99.9209060669,0
36.6,15.649384866195478,-0.14479309271379107,395.51152361933526,0.40553002937501587,260.5530028688451,0.922158896923,0.793928444386,-99.9209060669,0
36.7,15.701543615638359,-0.12958774674245824,395.4752697866225,0.407795839885936,260.77958413600504,0.15407551825,-0.496451497078,-99.8139648438,0
36.800000000000004,15.753768494044426,-0.12023096572504056,395.43857234007544,0.409999996424,260.98899963680543,0.15407551825,-0.496451497078,-99.8139648438,0
36.9,15.808357511853083,-0.31996294386252966,395.38601550462033,0.409999996424,260.5847314705303,0.15407551825,-0.496451497078,-99.8139648438,0
37.0,15.862946529661743,-0.519694922000033,395.3334586691652,0.409999996424,260.1804633042551,0.15407551825,-0.496451497078,-99.8139648438,0
37.1,15.917535547470404,-0.7194269001375364,395.2809018337101,0.409999996424,259.7761951379799,0.13152182304416365,-0.29973067970886497,-99.68518637556896,0
37.2,15.972124565279064,-0.9191588782750397,395.22834499825507,0.409999996424,259.3719269717048,-0.106214560568,1.76458108425,-98.323097229,0
37.300000000000004,16.02237695065813,-1.0848378560121585,395.1803739884487,0.40942771334443917,259.0190761018941,-0.106214560568,1.76458108425,-98.323097229,0
37.4,16.02275762943018,-0.8589039238178202,395.18514043218966,0.40227411762116794,259.25752928319525,-0.106214560568,1.76458108425,-98.323097229,0
37.5,16.02313830820223,-0.6329699916234659,395.1899068759306,0.3951205218978962,259.4959824644964,-0.106214560568,1.76458108425,-98.323097229,0
37.6,16.02351898697428,-0.4070360594291115,395.19467331967155,0.38796692617462447,259.7344356457976,-0.09995146069966077,1.7816661633463142,-98.32821409433586,0
37.7,16.02389966574633,-0.18110212723475716,395.19943976341244,0.38081333045135274,259.9728888270988,2.06414175034,4.67315006256,-100.256416321,0
37.800000000000004,15.996437694851497,-0.11200420053845243,395.2472834120526,0.3754955448387758,260.22522273444486,2.06414175034,4.67315006256,-100.256416321,0
37.9,15.96540403986574,-0.06302535993574519,395.3006530493921,0.3704132588587693,260.4793372757815,2.06414175034,4.67315006256,-100.256416321,0
38.0,15.93437038487998,-0.014046519333034468,395.35402268673164,0.3653309728787625,260.7334518171182,2.1868976641889937,4.697994485317251,-100.19201635829111,0
38.1,15.903336729894221,0.03493232126967624,395.4073923240711,0.36024868689875567,260.9875663584549,3.54596138,4.96923923492,-99.4829025269,0
38.2,15.860871300474257,0.2357812428111814,395.4682375167552,0.360000014305,261.58236224387196,3.54596138,4.96923923492,-99.4829025269,0
38.300000000000004,15.817817746028018,0.4444433516978628,395.5294673007562,0.360000014305,262.19468499929434,3.54596138,4.96923923492,-99.4829025269,0
38.400000000000006,15.77476419158178,0.6531054605845441,395.59069708475715,0.360000014305,262.80700775471666,3.5760815149032275,4.9667298692205675,-99.44817923585926,0
38.5,15.731710637135546,0.8617675694712107,395.6519268687581,0.360000014305,263.419330510139,4.31810426712,4.90856027603,-98.5411148071,0
38.6,15.689131887918927,1.052804145155801,395.71367960119505,0.3598728403395212,264.0,4.31810426712,4.90856027603,-98.5411148071,0
38.7,15.655263295634835,0.920505697060854,395.7850256629829,0.35741269881608306,264.0,4.31810426712,4.90856027603,-98.5411148071,0
38.800000000000004,15.621394703350745,0.7882072489659069,395.8563717247707,0.35495255729264485,264.0,4.31810426712,4.90856027603,-98.5411148071,0
38.900000000000006,15.587526111066655,0.6559088008709597,395.92771778655856,0.3524924157692067,264.0,4.31810426712,4.90856027603,-98.5411148071,0
39.0,15.553657518782567,0.5236103527760221,395.9990638483464,0.3500322742457687,264.0,4.31199026108,4.62644529343,-95.9744567871,0
39.1,15.519231599896376,0.9180021165919694,396.0799133202237,0.34999999404,264.0,4.31199026108,4.62644529343,-95.9744567871,0
39.2,15.48479827094221,1.3193966149929257,396.160889146943,0.34999999404,264.0,4.31199026108,4.62644529343,-95.9744567871,0
39.300000000000004,15.45211186488746,1.6347413517162188,396.23777591627356,0.34962882145431295,264.11135188189127,4.31754640392,4.606471400137684,-95.9490975560198,0
39.400000000000006,15.429581305969894,1.4498303381238549,396.2908906909788,0.3470998134867567,264.8700549956574,4.38036823273,4.38147783279,-95.6633148193,0
39.5,15.407050747052327,1.2649193245315042,396.344005465684,0.34457080551920066,265.62875810942353,4.38036823273,4.38147783279,-95.6633148193,0
39.6,15.384520188134761,1.0800083109391405,396.39712024038926,0.3420417975516445,266.3874612231897,4.38036823273,4.38147783279,-95.6633148193,0
39.7,15.366022972919197,0.9178107035970288,396.44038536540774,0.3407674453975494,266.96162792950724,3.46199798584,2.68517112732,-95.0703735352,0
39.800000000000004,15.36442850887491,0.8507993938941844,396.4423730318011,0.3447510470870625,266.76244795188165,3.46199798584,2.68517112732,-95.0703735352,0
39.900000000000006,15.362834044830626,0.78378808419134,396.44436069819443,0.3487346487765756,266.5632679742561,3.46199798584,2.68517112732,-95.0703735352,0
40.0,15.36123958078634,0.7167767744885004,396.44634836458783,0.3527182504660884,266.3640879966306,2.870988266898438,2.349189653845582,-94.11586413222614,0
40.1,15.359645116742055,0.6497654647856561,396.4483360309812,0.3567018521556015,266.164908019005,1.85305333138,1.77485132217,-92.469909668,0
40.2,15.36090571511071,0.5646900651748186,396.44426277576406,0.35961873713453824,265.92374472043895,1.85305333138,1.77485132217,-92.469909668,0
40.300000000000004,15.375904153556338,0.392694822002127,396.4110258947619,0.3574028504056076,265.4805682727499,1.85305333138,1.77485132217,-92.469909668,0
40.400000000000006,15.390902592001966,0.22069957882943542,396.37778901375975,0.35518696367667696,265.03739182506087,1.85305333138,1.77485132217,-92.469909668,0
40.5,15.405901030447593,0.048704335656756026,396.3445521327576,0.3529710769477465,264.5942153773718,1.540765628855773,1.0200041968964206,-92.79851839424144,0
40.6,15.420899468893221,-0.12329090751593552,396.3113152517554,0.3507551902188159,264.1510389296828,1.04506790638,-0.15634046495,-93.3227767944,0
