t_sec,airspeed,climb,altitude,throttle,heading,pitch,roll,yaw,is_boundary
0.0,23.7301902771,2.3603656292,435.489990234,0.540000021458,95.0,-2.55307769775,26.2017917633,91.6387939453,0
0.1,23.591751682605256,1.1213298608173354,435.3681508046676,0.5465860171934056,96.31720040329515,-2.55307769775,26.2017917633,91.6387939453,0
0.2,23.453313088110512,-0.11770590756532906,435.24631137533515,0.5531720129288112,97.6344008065903,-2.55307769775,26.2017917633,91.6387939453,0
0.30000000000000004,23.314874493615765,-1.356741675947994,435.12447194600276,0.559758008664217,98.95160120988545,-2.55307769775,26.2017917633,91.6387939453,0
0.4,23.20736126975154,-1.5282187190668217,434.9957004572897,0.5659186008330344,100.77558122799333,-2.13628983498,38.4285583496,95.857170105,0
0.5,23.101027702743686,-1.6589734379528824,434.8666645432452,0.5720629658645913,102.61889249533421,-2.13628983498,38.4285583496,95.857170105,0
0.6000000000000001,22.99469413573583,-1.7897281568389436,434.73762862920074,0.5782073308961483,104.4622037626751,-2.13628983498,38.4285583496,95.857170105,0
0.7000000000000001,22.900722381400247,-1.7386151730724593,434.5931946099652,0.585851489810107,106.31658825604822,-1.73507809639,39.3210258484,99.9190063477,0
0.8,22.8118429746737,-1.6125832769007578,434.4424174672548,0.5941134765454035,108.17553427430482,-1.73507809639,39.3210258484,99.9190063477,0
0.9,22.722963567947147,-1.4865513807290565,434.2916403245444,0.6023754632807,110.03448029256143,-1.73507809639,39.3210258484,99.9190063477,0
1.0,22.6340841612206,-1.3605194845573552,434.140863181834,0.6106374500159966,111.89342631081801,-2.013086326428673,40.60493657202776,104.86697856383823,0
1.1,22.54520475449405,-1.2344875883856536,433.9900860391236,0.6188994367512931,113.75237232907462,-2.03947281837,40.7477531433,105.334846497,0
1.2000000000000002,22.473293140199992,-1.6215923365492044,433.89216802015653,0.6131322883349292,115.37354186756228,-2.03947281837,40.7477531433,105.334846497,0
1.3,22.403989139061807,-2.087556009340317,433.8023734000954,0.6052091401011133,116.95816987719344,-2.03947281837,40.7477531433,105.334846497,0
1.4000000000000001,22.33468513792362,-2.5535196821314305,433.7125787800343,0.5972859918672974,118.5427978868246,-2.03947281837,40.7477531433,105.334846497,0
1.5,22.261422758918183,-2.921490368644228,433.6336707318697,0.5897708199746867,120.13749241071453,-1.74430251122,40.7912368774,114.210342407,0
1.6,22.142893626816697,-2.1688443622173175,433.6792580650536,0.5869211360485357,121.84730439705281,-1.74430251122,40.7912368774,114.210342407,0
1.7000000000000002,22.024364494715208,-1.4161983557904068,433.7248453982375,0.5840714521223846,123.5571163833911,-1.74430251122,40.7912368774,114.210342407,0
1.8,21.905835362613722,-0.6635523493634978,433.7704327314214,0.5812217681962337,125.26692836972938,-1.636737497438311,40.33527458385181,114.52736642379757,0
1.9000000000000001,21.776025916834772,-0.2600684684308357,433.84827707576386,0.5812403841984701,126.99232165635324,0.30312871933,29.2047309875,120.190704346,0
2.0,21.637750272350992,-0.1186407695477362,433.9503312314556,0.5834117415014483,128.7294091553961,0.30312871933,29.2047309875,120.190704346,0
2.1,21.499474627867208,0.022786929335363637,434.05238538714735,0.5855830988044264,130.46649665443897,0.30312871933,29.2047309875,120.190704346,0
2.2,21.361198983383428,0.1642146282184634,434.1544395428391,0.5877544561074045,132.20358415348184,0.20162599403466616,29.48747463269182,124.69746156116132,0
2.3000000000000003,21.222923338899648,0.3056423271015633,434.2564936985308,0.5899258134103827,133.94067165252468,0.171947658062,29.5776500702,126.314186096,0
2.4000000000000004,21.07386454972933,0.22970795405677133,434.3554896250142,0.589999973774,135.46933522887838,0.171947658062,29.5776500702,126.314186096,0
2.5,20.924424450670617,0.14608729748359575,434.45437740743824,0.589999973774,136.99062858949168,0.171947658062,29.5776500702,126.314186096,0
2.6,20.774984351611902,0.062466640910419785,434.55326518986226,0.589999973774,138.51192195010498,0.171947658062,29.5776500702,126.314186096,0
2.7,20.626540328288705,-0.01157008312773828,434.6513434029521,0.5899517769331043,140.04337719817502,0.0224818885326,37.6765632629,134.224243164,0
2.8000000000000003,20.52272146143704,0.34376264109829174,434.71315212675813,0.5877443149984817,142.03009483406794,0.0224818885326,37.6765632629,134.224243164,0
2.9000000000000004,20.418902594585372,0.6990953653243218,434.7749608505642,0.5855368530638592,144.01681246996083,0.0224818885326,37.6765632629,134.224243164,0
3.0,20.315083727733704,1.0544280895503502,434.83676957437024,0.5833293911292367,146.00353010585374,0.0224818885326,37.6765632629,134.224243164,0
3.1,20.21126486088204,1.4097608137763802,434.8985782981763,0.581121929194614,147.99024774174663,0.20252456274414052,39.3502472325957,140.1280611103486,0
3.2,20.121814933158554,1.4711347921988769,434.95143745829307,0.5814296922800372,149.71485516627592,0.229032471776,39.6218605042,140.997772217,0
3.3000000000000003,20.047216165021133,1.2286847926155073,434.9950467080727,0.5843370911377562,151.16855598152995,0.229032471776,39.6218605042,140.997772217,0
3.4000000000000004,19.972617396883717,0.986234793032138,435.0386559578524,0.5872444899954754,152.62225679678397,0.229032471776,39.6218605042,140.997772217,0
3.5,19.898271517847107,0.7574960908646038,435.0823650455353,0.5898301007440026,154.1189112344039,-0.43220879299881937,39.8620866863755,146.8178790722004,0
3.6,19.82851262134533,0.77745724003637,435.12788502469976,0.5865790169411906,156.39467206676537,-0.681672811508,39.9625244141,149.032241821,0
3.7,19.75875372484355,0.797418389208136,435.1734050038642,0.5833279331383786,158.67043289912684,-0.681672811508,39.9625244141,149.032241821,0
3.8000000000000003,19.68899482834177,0.8173795383799022,435.2189249830286,0.5800768493355667,160.9461937314883,-0.664264780803734,39.97321129807331,149.259277284557,0
3.9000000000000004,19.63604096607434,0.5427745676214957,435.24212776564065,0.579999983311,163.52958611922247,-0.265033960342,40.464466095,154.872116089,0
4.0,19.58349405010503,0.26103646101896794,435.2647901208787,0.579999983311,166.12042803195607,-0.265033960342,40.464466095,154.872116089,0
4.1000000000000005,19.530947134135726,-0.020701645583562245,435.28745247611664,0.579999983311,168.7112699446897,-0.265033960342,40.464466095,154.872116089,0
4.2,19.480472282287483,-0.11387829529493265,435.2787742497426,0.582241283816588,170.79304211449463,-2.59632897377,40.1582527161,161.354476929,0
4.3,19.430257307988782,-0.1834056337436799,435.2661652987023,0.5847636874392372,172.81096693710893,-2.59632897377,40.1582527161,161.354476929,0
4.4,19.38004233369008,-0.25293297219242783,435.25355634766197,0.5872860910618866,174.82889175972326,-2.965611009751833,40.27916204115171,163.73168140471287,0
4.5,19.32982735939138,-0.3224603106411751,435.24094739662166,0.5898084946845358,176.8468165823376,-3.82001590729,40.5866737366,169.22442627,0
4.6000000000000005,19.285762797669122,-0.2750848626592271,435.2486337466364,0.589999973774,179.01690163582597,-3.82001590729,40.5866737366,169.22442627,0
4.7,19.24220347555595,-0.21810616979187125,435.2579873002483,0.589999973774,181.19948623704556,-3.82001590729,40.5866737366,169.22442627,0
4.800000000000001,19.198644153442782,-0.1611274769245149,435.2673408538602,0.589999973774,183.38207083826518,-3.3499686813032885,40.741726546958354,172.03994721992962,0
4.9,19.165211788141526,-0.17793564078351337,435.28255547375636,0.589999973774,185.50834341773108,-2.48063755035,41.0511131287,177.24949646,0
5.0,19.13577886052846,-0.2238844380199019,435.3000848037699,0.589999973774,187.61237669803901,-2.48063755035,41.0511131287,177.24949646,0
5.1000000000000005,19.1063459329154,-0.2698332352562908,435.3176141337834,0.589999973774,189.71640997834697,-2.48063755035,41.0511131287,177.24949646,0
5.2,19.083581002575517,-0.04064390635408055,435.32698760745177,0.5923370140760192,192.10332574088596,-2.24308276176,42.22813797,-175.555541992,0
5.300000000000001,19.061854817871946,0.23140664702093816,435.33509055567714,0.5950381202761117,194.53430914952145,-2.24308276176,42.22813797,-175.555541992,0
5.4,19.04012863316838,0.5034572003959544,435.3431935039025,0.5977392264762041,196.9652925581569,-2.1916332851606666,42.27127511847465,-174.9233872131843,0
5.5,19.020806602150067,0.6734391163541479,435.3517350579029,0.5996482565167622,199.38694212041972,-1.74615776539,42.7192077637,-169.186599731,0
5.6000000000000005,19.013828871075866,0.31934227524855463,435.36252866478844,0.597490314569702,201.76066637742335,-1.74615776539,42.7192077637,-169.186599731,0
5.7,19.00685114000166,-0.0347545658570354,435.373322271674,0.5953323726226419,204.13439063442692,-1.74615776539,42.7192077637,-169.186599731,0
5.800000000000001,18.99987340892746,-0.38885140696262865,435.38411587855956,0.5931744306755817,206.50811489143052,-1.8387589580578003,42.708888611769886,-166.8186103717499,0
5.9,18.99289567785326,-0.7429482480682187,435.39490948544517,0.5910164887285215,208.8818391484341,-2.07453727722,42.6828117371,-160.49395752,0
6.0,18.99605076300908,-0.7963155366005673,435.4208415814479,0.589999973774,211.1119217976129,-2.07453727722,42.6828117371,-160.49395752,0
6.1000000000000005,19.00822977987194,-0.5818636045821963,435.46025548634174,0.589999973774,213.21408225518428,-2.07453727722,42.6828117371,-160.49395752,0
6.2,19.0204087967348,-0.36741167256382723,435.4996693912355,0.589999973774,215.31624271275567,-2.07453727722,42.6828117371,-160.49395752,0
6.300000000000001,19.032587813597655,-0.15295974054545625,435.5390832961293,0.589999973774,217.41840317032705,-2.44342374802,43.1017837524,-149.073654175,0
6.4,19.06686215463356,-0.00988957891453339,435.6151586484356,0.5867413843836552,219.7922258738459,-2.44342374802,43.1017837524,-149.073654175,0
6.5,19.109587684593013,0.10587793612398187,435.7052565521137,0.5822364247501592,222.269956035156,-2.44342374802,43.1017837524,-149.073654175,0
6.6000000000000005,19.152313214552464,0.22164545116249817,435.7953544557918,0.5777314651166632,224.7476861964662,-2.44342374802,43.1017837524,-149.073654175,0
6.7,19.19503874451192,0.33741296620101346,435.8854523594699,0.5732265054831672,227.2254163577763,-0.368098437786,42.4544410706,-141.088027954,0
6.800000000000001,19.23941614608527,0.4993429549455653,435.99449546749514,0.5687097441947395,229.51609995310872,-0.368098437786,42.4544410706,-141.088027954,0
6.9,19.287962500025593,0.7777766431320752,436.1513520095919,0.5641631981840319,231.33472009180977,-0.368098437786,42.4544410706,-141.088027954,0
7.0,19.336508853965917,1.0562103313185849,436.30820855168867,0.5596166521733243,233.15334023051082,-0.368098437786,42.4544410706,-141.088027954,0
7.1000000000000005,19.38505520790624,1.334644019505097,436.4650650937854,0.5550701061626168,234.9719603692119,-0.09508835016511635,42.706238656570214,-136.85144164395714,0
7.2,19.433601561846565,1.613077707691607,436.6219216358822,0.5505235601519092,236.79058050791298,0.289902031422,43.0859146118,-130.871154785,0
7.300000000000001,19.510464897435014,1.6481915884846097,436.79615712797647,0.5444223692603215,239.23105254293188,0.289902031422,43.0859146118,-130.871154785,0
7.4,19.59101337193182,1.6516401138191237,436.9726542963192,0.5381188587002608,241.7524516572148,0.289902031422,43.0859146118,-130.871154785,0
7.5,19.671561846428624,1.655088639153638,437.14915146466194,0.5318153481402,244.2738507714977,0.45011929132295025,43.226054499129376,-128.94820336979777,0
7.6000000000000005,19.72952709411636,1.7946252221080685,437.2764016932761,0.5315920263421872,246.4328422830137,1.01196026802,43.7776107788,-122.20690918,0
7.7,19.778357795769928,1.989207199484627,437.3837323399016,0.5338280414942443,248.44524584416305,1.01196026802,43.7776107788,-122.20690918,0
7.800000000000001,19.8271884974235,2.1837891768611875,437.4910629865271,0.5360640566463016,250.4576494053124,1.01196026802,43.7776107788,-122.20690918,0
7.9,19.876019199077067,2.3783711542377457,437.5983936331526,0.5383000717983588,252.47005296646174,-0.735532879829,43.8214530945,-114.933998108,0
8.0,19.931603171744314,2.266492890066266,437.6823796459787,0.5368172635741304,254.556982330884,-0.735532879829,43.8214530945,-114.933998108,0
8.1,20.008602849998987,1.1827800447036536,437.69233608062234,0.5235414699363281,256.88024497118516,-0.735532879829,43.8214530945,-114.933998108,0
8.200000000000001,20.085602528253663,0.09906719934102215,437.702292515266,0.5102656762985256,259.2035076114864,-0.735532879829,43.8214530945,-114.933998108,0
8.3,20.161873596125247,-0.6809602089675592,437.70857383439034,0.5,261.5673598946561,-1.484012508933042,44.469637754517706,-111.22647388495557,0
8.4,20.235659817893662,-0.4253016150414153,437.7023215735814,0.5,264.0696387199823,-2.6177315712,45.5234985352,-105.616989136,0
8.5,20.309446039662074,-0.1696430211152714,437.6960693127725,0.5,266.5719175453085,-2.6177315712,45.5234985352,-105.616989136,0
8.6,20.383047526158737,0.0758801052141144,437.68911731336965,0.49991954553518214,269.06436363323786,-3.3070040893593973,44.265417161509035,-102.85155695275945,0
8.700000000000001,20.450603535386513,-0.010280796007334295,437.6592663097674,0.49720621195842635,271.2350325648095,-4.45017147064,42.0213165283,-98.1522064209,0
8.8,20.518159544614285,-0.09644169722878145,437.62941530616513,0.4944928783816706,273.405701496381,-4.45017147064,42.0213165283,-98.1522064209,0
8.9,20.58571555384206,-0.18260259845022858,437.59956430256284,0.49177954480491487,275.5763704279526,-4.4814593627211226,42.018930889161176,-97.88564153482544,0
9.0,20.667472482773018,-0.13833500365455131,437.5757425712191,0.490000009537,277.7425415112291,-5.35840702057,41.8861923218,-90.5027313232,0
9.1,20.776292040977754,0.15448959366093004,437.5634107970987,0.490000009537,279.90014106509176,-5.35840702057,41.8861923218,-90.5027313232,0
9.200000000000001,20.885111599182494,0.44731419097641656,437.55107902297834,0.490000009537,282.0577406189544,-5.35840702057,41.8861923218,-90.5027313232,0
9.3,20.99486657332576,0.6920804799043709,437.5450025881047,0.490000009537,284.1758489057267,-5.427026884589505,39.748905487450784,-84.03145120517225,0
9.4,21.113058525846185,0.5033851481706809,437.5953461475811,0.490000009537,285.93776594879256,-5.43747138977,39.4789276123,-82.7370910645,0
9.5,21.231250478366608,0.31468981643699095,437.64568970705744,0.490000009537,287.69968299185837,-5.43747138977,39.4789276123,-82.7370910645,0
9.600000000000001,21.34944243088703,0.12599448470329766,437.6960332665338,0.490000009537,289.46160003492423,-5.404266926983579,39.59410465289967,-82.13583736326004,0
9.700000000000001,21.456220792452672,-0.01413826244864088,437.7514477452064,0.4880438659258736,291.25150409719384,-5.02073097229,41.6005554199,-75.1423568726,0
9.8,21.484442884027132,0.1799704680366088,437.84176381611775,0.4726241816757033,293.2340342878685,-5.02073097229,41.6005554199,-75.1423568726,0
9.9,21.512664975601595,0.3740791985218584,437.9320798870291,0.45720449742553293,295.21656447854315,-5.02073097229,41.6005554199,-75.1423568726,0
10.0,21.540887067176055,0.5681879290071081,438.02239595794043,0.44178481317536256,297.19909466921774,-4.624235401643147,41.40996338450155,-74.34776386486867,0
10.100000000000001,21.569109158750518,0.7622966594923613,438.11271202885183,0.4263651289251919,299.18162485989245,-1.77236390114,39.3453979492,-68.5890197754,0
10.200000000000001,21.582557591964118,0.9150435489261023,438.1698100023243,0.41669717127967304,300.990845627118,-1.77236390114,39.3453979492,-68.5890197754,0
10.3,21.58562047153082,1.0387139829090448,438.2035563912013,0.41107254966885953,302.6782337195397,-1.77236390114,39.3453979492,-68.5890197754,0
10.4,21.588683351097522,1.1623844168919872,438.23730278007827,0.405447928058046,304.36562181196143,-1.77236390114,39.3453979492,-68.5890197754,0
10.5,21.590812946233207,1.2668682899166235,438.2708239346584,0.39977233316174016,306.0379454648689,-4.18638563156,31.9110126495,-59.0635490417,0
10.600000000000001,21.564167923964067,0.7798005067245773,438.2974007639048,0.39252515222031775,307.2458089071136,-4.18638563156,31.9110126495,-59.0635490417,0
10.700000000000001,21.53752290169493,0.2927327235325399,438.3239775931512,0.38527797127889546,308.45367234935816,-4.18638563156,31.9110126495,-59.0635490417,0
10.8,21.510877879425795,-0.1943350596594975,438.3505544223976,0.37803079033747317,309.6615357916028,-4.18638563156,31.9110126495,-59.0635490417,0
10.9,21.48423285715666,-0.6814028428515351,438.37713125164396,0.37078360939605093,310.8693992338474,-4.37120437622,25.8363513947,-53.0915718079,0
11.0,21.43993339644248,0.05872223062427684,438.41465644703,0.370000004768,311.6932005185745,-4.37120437622,25.8363513947,-53.0915718079,0
11.100000000000001,21.39349361912949,0.9476246922476841,438.45350895564957,0.370000004768,312.47044044632224,-4.37120437622,25.8363513947,-53.0915718079,0
11.200000000000001,21.345327640654723,1.4507605964578647,438.49478564889637,0.3683551958307599,313.1644808054965,-4.37120437622,25.8363513947,-53.0915718079,0
11.3,21.293470912276074,1.1290981421604043,438.54124543399695,0.36319365978116624,313.68063413359124,-4.02877283096,16.1730213165,-48.9166946411,0
11.4,21.24161418389743,0.8074356878629438,438.58770521909753,0.3580321237315726,314.196787461686,-4.02877283096,16.1730213165,-48.9166946411,0
11.5,21.189757455518784,0.4857732335654834,438.6341650041981,0.35287058768197893,314.71294078978065,-4.009046058425769,13.971125230228822,-47.712181091675454,0
11.600000000000001,21.14063750409004,0.4069941468561827,438.6618828026569,0.34999999404,315.18830483588823,-3.99292635918,12.3693265915,-46.7251586914,0
11.700000000000001,21.09494678531499,0.632552457902304,438.66611654166786,0.34999999404,315.6125591495364,-3.99292635918,12.3693265915,-46.7251586914,0
11.8,21.051245102845563,0.8170676112158574,438.6675402857962,0.3501744873298001,316.017449293619,-3.99292635918,12.3693265915,-46.7251586914,0
11.9,21.028476900988696,0.5696267744642882,438.63939042524385,0.3521854236692911,316.2185425200527,-4.730548113625532,6.824104585488731,-44.70825464653706,0
12.0,21.00570869913183,0.322185937712719,438.61124056469157,0.35419636000878213,316.4196357464864,-4.77857255936,6.35538053513,-44.5764160156,0
12.100000000000001,20.982940497274964,0.0747451009611454,438.58309070413924,0.35620729634827314,316.62072897292006,-4.832675715779223,6.378058842821785,-44.447979005348145,0
12.200000000000001,20.9601722954181,-0.17269573579042374,438.55494084358696,0.35821823268776415,316.82182219935373,-5.23271560669,6.56979131699,-43.3913497925,0
12.3,20.93880365056758,-0.4230158507391374,438.5254810467209,0.360000014305,317.0645322806376,-5.23271560669,6.56979131699,-43.3913497925,0
12.4,20.928317194491708,-0.6957236560312698,438.4858359025029,0.360000014305,317.63083223259724,-5.23271560669,6.56979131699,-43.3913497925,0
12.5,20.917830738415834,-0.9684314613234022,438.4461907582849,0.360000014305,318.1971321845569,-5.23271560669,6.56979131699,-43.3913497925,0
12.600000000000001,20.907344282339963,-1.2411392666155396,438.4065456140669,0.360000014305,318.76343213651654,-5.420831687986901,8.068397274832765,-43.0557085418127,0
12.700000000000001,20.900785154837628,-1.3366631137020395,438.363708173941,0.3620211639259436,319.80846061940633,-5.75579166412,10.9619121552,-42.4410209656,0
12.8,20.897043707998808,-1.3050654827729735,438.3185804058521,0.3654923970065126,321.1969551758412,-5.75579166412,10.9619121552,-42.4410209656,0
12.9,20.893302261159988,-1.2734678518439075,438.2734526377632,0.36896363008708155,322.58544973227606,-5.75579166412,10.9619121552,-42.4410209656,0
13.0,20.904094368074794,-1.216754490367604,438.22462575614423,0.3729462461672126,323.2946244208898,-6.340673524245027,11.839766763941663,-41.1133686595395,0
13.100000000000001,20.92107254607127,-1.149350853335373,438.1742243814849,0.37714652763317247,323.71465296804604,-6.77105474472,12.5223903656,-40.1325492859,0
13.200000000000001,20.93805072406774,-1.081947216303143,438.12382300682555,0.3813468090991322,324.13468151520226,-6.77105474472,12.5223903656,-40.1325492859,0
13.3,20.95502890206421,-1.0145435792709132,438.0734216321662,0.38554709056509195,324.5547100623584,-7.26602458954,18.0313434601,-36.3656082153,0
13.4,20.97200708006068,-0.9471399422386833,438.02302025750686,0.38974737203105175,324.97473860951465,-7.26602458954,18.0313434601,-36.3656082153,0
13.5,20.98159237021132,-0.8250127064954402,437.9809660532356,0.39557532933138095,325.83630109682343,-7.26602458954,18.0313434601,-36.3656082153,0
13.600000000000001,20.99070458497174,-0.6993836743832655,437.9394459894749,0.4015074425984385,326.72611760954,-7.26602458954,18.0313434601,-36.3656082153,0
13.700000000000001,20.99981679973216,-0.5737546422710931,437.8979259257142,0.4074395558654959,327.61593412225653,-7.26602458954,18.0313434601,-36.3656082153,0
13.8,21.028033695263787,-0.5952320945374256,437.83627894586726,0.4112859505967297,328.7715732394872,-5.94097614288,27.7567462921,-34.1240653992,0
13.9,21.07075864176364,-0.7284218752471929,437.7593476318872,0.41354845543283836,330.12907743580416,-5.94097614288,27.7567462921,-34.1240653992,0
14.0,21.113483588263495,-0.8616116559569602,437.6824163179071,0.4158109602689471,331.48658163212116,-5.94097614288,27.7567462921,-34.1240653992,0
14.100000000000001,21.156208534763348,-0.9948014366667298,437.605485003927,0.41807346510505583,332.84408582843815,-5.61067342758,31.9301567078,-31.6484012604,0
14.200000000000001,21.2000145907826,-1.0915428115072097,437.5214408548804,0.4214259812838984,334.28519886804776,-5.61067342758,31.9301567078,-31.6484012604,0
14.3,21.250019712534403,-0.9792895750005746,437.3966118164851,0.4310286061164798,336.2057237582552,-5.61067342758,31.9301567078,-31.6484012604,0
14.4,21.30002483428621,-0.8670363384939395,437.2717827780899,0.44063123094906126,338.12624864846265,-5.61067342758,31.9301567078,-31.6484012604,0
14.5,21.350079546182315,-0.7710938613194257,437.145678133516,0.4502955838710981,340.053207229892,-5.705022654845542,32.078821654807285,-31.033692991904758,0
14.600000000000001,21.402120842855897,-1.3285615859846394,436.9684726129082,0.46243276853376497,342.2378999482976,-6.51448965073,33.7149276733,-25.7793121338,0
14.700000000000001,21.454162139529476,-1.8860293106498431,436.7912670923004,0.4745699531964317,344.42259266670317,-6.51448965073,33.7149276733,-25.7793121338,0
14.8,21.50620343620306,-2.443497035315047,436.6140615716926,0.48670713785909836,346.60728538510875,-6.720535332663228,34.01266729944653,-24.741284897237282,0
14.9,21.558244732876638,-3.000964759980251,436.43685605108476,0.4988443225217651,348.7919781035143,-7.67457580566,35.4897575378,-19.8561820984,0
15.0,21.62036405301292,-2.8726433889131506,436.2542234239331,0.5081856827024429,277.57995673446754,-7.67457580566,35.4897575378,-19.8561820984,0
15.100000000000001,21.68354396934473,-2.672150593701235,436.07101965616306,0.5172328144741543,198.64377437160158,-7.67457580566,35.4897575378,-19.8561820984,0
15.200000000000001,21.746723885676538,-2.471657798489323,435.88781588839294,0.5262799462458654,119.70759200873704,-7.67457580566,35.4897575378,-19.8561820984,0
15.3,21.809903802008346,-2.2711650032774107,435.70461212062287,0.5353270780175765,40.771409645872495,-8.8296880722,39.1381835938,-10.2758722305,0
15.4,21.866543452107766,-2.2544735535359295,435.54937103887374,0.5413470597190108,1.2123355911141807,-8.8296880722,39.1381835938,-10.2758722305,0
15.5,21.916196138712582,-2.4341369990589237,435.4240024821102,0.5441331383525556,3.7198087526816543,-8.8296880722,39.1381835938,-10.2758722305,0
15.600000000000001,21.9658488253174,-2.613800444581921,435.2986339253466,0.5469192169861005,6.227281914249173,-8.8296880722,39.1381835938,-10.2758722305,0
15.700000000000001,22.015501511922217,-2.793463890104915,435.1732653685831,0.5497052956196453,8.734755075816647,-6.9254822731,40.5609283447,0.533121287823,0
15.8,22.01637732410633,-2.271737412280741,435.09764188412714,0.550000011921,11.078599065265973,-6.9254822731,40.5609283447,0.533121287823,0
15.9,22.011483064296023,-1.667039846170644,435.02790300486555,0.550000011921,13.403086502768877,-6.9254822731,40.5609283447,0.533121287823,0
16.0,22.00658880448572,-1.062342280060547,434.95816412560396,0.550000011921,15.72757394027178,-6.432690189351514,40.22733197477647,2.4353691724079534,0
16.1,22.001694544675416,-0.4576447139504394,434.8884252463424,0.550000011921,18.052061377774727,-4.67983436584,38.9660568237,9.20171546936,0
16.2,21.96868698420404,-0.30386231301770533,434.836497658829,0.551957397451537,20.370171178108173,-4.67983436584,38.9660568237,9.20171546936,0
16.3,21.916319642808745,-0.46059552597005854,434.7968355363484,0.5552627056437248,22.683889119232404,-4.67983436584,38.9660568237,9.20171546936,0
16.400000000000002,21.86395230141345,-0.6173287389224117,434.75717341386786,0.5585680138359126,24.997607060356636,-4.67983436584,38.9660568237,9.20171546936,0
16.5,21.79285696128735,-0.7834538384787557,434.739990234,0.560000002384,27.43280590878489,-3.05910968781,38.9733505249,19.8413467407,0
16.6,21.70744570887389,-0.9567582115265332,434.739990234,0.560000002384,29.96086625504604,-3.05910968781,38.9733505249,19.8413467407,0
16.7,21.62203445646044,-1.1300625845743044,434.739990234,0.560000002384,32.4889266013071,-3.05910968781,38.9733505249,19.8413467407,0
16.8,21.536468526049582,-1.2978016341129877,434.7402728147752,0.560000002384,35.01507158788918,-1.9798055217761,39.04142616610382,26.58655909059926,0
16.900000000000002,21.42803752214136,-0.6428539847812613,434.78232753057915,0.560000002384,37.25808102467851,-1.93571376801,39.0455169678,26.8638896942,0
17.0,21.31960651823314,0.012093664550441696,434.82438224638315,0.560000002384,39.50109046146776,-1.93571376801,39.0455169678,26.8638896942,0
17.1,21.21117551432492,0.667041313882168,434.8664369621871,0.560000002384,41.7440998982571,-1.93571376801,39.0455169678,26.8638896942,0
17.2,21.08544109361804,1.037508063368932,434.9389561344877,0.5582509963005453,44.136855038464226,-1.09656465054,38.9635734558,35.5203094482,0
17.3,20.937691520033567,1.0460295061157938,435.05023526240336,0.5542767281917277,46.72013177286673,-1.09656465054,38.9635734558,35.5203094482,0
17.400000000000002,20.789941946449094,1.0545509488626557,435.16151439031904,0.55030246008291,49.30340850726923,-1.09656465054,38.9635734558,35.5203094482,0
17.5,20.642192372864624,1.063072391609517,435.2727935182347,0.5463281919740924,51.88668524167164,-0.2045003882939247,40.06855410379167,41.46690550633868,0
17.6,20.49444279928015,1.0715938343563787,435.38407264615034,0.5423539238652747,54.469961976074146,0.0615310408175,40.3025398254,43.2330589294,0
17.7,20.35133936688725,1.077846542481238,435.5007640052199,0.5358546995911371,56.82906392862123,0.0615310408175,40.3025398254,43.2330589294,0
17.8,20.214985375638985,1.0808034638074053,435.62531770297613,0.5256874759325691,58.86250756949397,0.0615310408175,40.3025398254,43.2330589294,0
17.900000000000002,20.078631384390718,1.0837603851335726,435.7498714007324,0.5155202522740012,60.89595121036672,0.0615310408175,40.3025398254,43.2330589294,0
18.0,19.942277393142458,1.0867173064597397,435.87442509848864,0.5053530286154337,62.92939485123939,-0.536154508591,39.7438850403,56.5853157043,0
18.1,19.815892794585952,1.1558336890841505,435.9779624587491,0.5,64.77470967863542,-0.536154508591,39.7438850403,56.5853157043,0
18.2,19.70059342292186,1.2985144965683795,436.05813120701976,0.5,66.41083918784102,-0.536154508591,39.7438850403,56.5853157043,0
18.3,19.585294051257762,1.4411953040526133,436.13829995529034,0.5,68.0469686970467,-0.536154508591,39.7438850403,56.5853157043,0
18.400000000000002,19.469994679593665,1.5838761115368474,436.218468703561,0.5,69.68309820625235,-0.06495420585268485,37.63207101158468,60.69789165801487,0
18.5,19.35469530792957,1.726556919021076,436.29863745183155,0.5,71.31922771545797,0.372594833374,35.5596694946,64.5162353516,0
18.6,19.239395936265474,1.8692377265053102,436.3788062001022,0.5,72.95535722466364,0.372594833374,35.5596694946,64.5162353516,0
18.7,19.136206634184063,1.7262218755703516,436.4212215369797,0.502923829185879,74.877149592272,0.372594833374,35.5596694946,64.5162353516,0
18.8,19.05440529564261,1.0786284355438807,436.3969594216038,0.5110115223444389,77.30345985373124,0.372594833374,35.5596694946,64.5162353516,0
18.900000000000002,18.972603957101153,0.43103499551740976,436.3726973062279,0.519099215502999,79.72977011519046,0.372594833374,35.5596694946,64.5162353516,0
19.0,18.890802618559704,-0.21655844450903805,436.348435190852,0.5271869086615587,82.1560803766496,-0.5905095847805519,40.265511356472736,73.36768250834739,0
19.1,18.817787214861625,-0.8215801966463052,436.26686118086275,0.5341790588123896,84.67163158131088,-0.71970051527,41.0428390503,74.5500259399,0
19.200000000000003,18.749457520649706,-1.403897641804238,436.1547216257099,0.5405869346252784,87.23477671212463,-0.71970051527,41.0428390503,74.5500259399,0
19.3,18.68112782643779,-1.9862150869621498,436.0425820705571,0.546994810438167,89.79792184293828,-0.71970051527,41.0428390503,74.5500259399,0
19.400000000000002,18.603310487758172,-2.113085173522711,435.9039827629658,0.5540315160098754,92.34383597786339,-3.54828715324,43.1593856812,83.6029510498,0
19.5,18.517113774369932,-1.8377095719433967,435.7420145168426,0.561623596542673,94.87453190223627,-3.54828715324,43.1593856812,83.6029510498,0
19.6,18.43091706098169,-1.5623339703640724,435.5800462707193,0.5692156770754709,97.40522782660923,-3.54828715324,43.1593856812,83.6029510498,0
19.700000000000003,18.344720347593448,-1.286958368784748,435.41807802459607,0.5768077576082687,99.9359237509822,-4.94606637955,43.1006240845,91.2774810791,0
19.8,18.264437952774706,-1.5871923908887422,435.2553980935264,0.5847290552461742,102.41872011482525,-4.94606637955,43.1006240845,91.2774810791,0
19.900000000000002,18.188446572200945,-2.305048336085534,435.09220181383495,0.5928892096976102,104.86676392110036,-4.94606637955,43.1006240845,91.2774810791,0
20.0,18.112455191627188,-3.0229042812823,434.9290055341434,0.6010493641490458,107.31480772737538,-4.94606637955,43.1006240845,91.2774810791,0
20.1,18.036463811053427,-3.7407602264790913,434.7658092544519,0.6092095186004816,109.76285153365049,-3.5201732690263126,44.732846646870506,99.7911279260297,0
20.200000000000003,17.962765747635387,-3.1747449730039374,434.61422149275165,0.613085869407253,112.46868643618862,-3.37046265602,44.9447021484,101.46862793,0
20.3,17.889313673539643,-2.4710171465919024,434.4638789018149,0.616502724259544,115.20217292494755,-3.37046265602,44.9447021484,101.46862793,0
20.400000000000002,17.8158615994439,-1.7672893201798425,434.3135363108781,0.6199195791118353,117.93565941370659,-3.0457741467063015,44.90934562737294,103.33490905415813,0
20.5,17.750643026918713,-1.7420363119573499,434.1756457876513,0.6174650622683697,121.04193390064862,-1.80618548393,44.7628936768,110.471511841,0
20.6,17.68562292549164,-1.7331381487612425,434.03805542536224,0.6148690141969175,124.15719455741538,-1.80618548393,44.7628936768,110.471511841,0
20.700000000000003,17.620602824064566,-1.7242399855651354,433.9004650630732,0.6122729661254653,127.27245521418214,-1.80618548393,44.7628936768,110.471511841,0
20.8,17.55560883191147,-1.7144578399019639,433.7719460514834,0.6094035579074939,130.2684048349419,-1.1922031641,44.7868309021,119.476593018,0
20.900000000000002,17.490798516051832,-1.6984569604972601,433.70724314120366,0.6046110866989252,132.42501250832456,-1.1922031641,44.7868309021,119.476593018,0
21.0,17.425988200192197,-1.682456081092557,433.6425402309239,0.5998186154903566,134.58162018170714,-1.1922031641,44.7868309021,119.476593018,0
21.1,17.361177884332562,-1.6664552016878533,433.57783732064416,0.5950261442817878,136.73822785508983,-0.879787349805313,44.21817656901224,120.82191369783352,0
21.200000000000003,17.296367568472924,-1.6504543222831496,433.5131344103644,0.5902336730732191,138.8948355284725,1.23078334332,39.9460525513,130.184265137,0
21.3,17.20639780244047,-1.0084331883982502,433.517570994767,0.584938608091635,140.77147967819934,1.23078334332,39.9460525513,130.184265137,0
21.400000000000002,17.115138271095983,-0.334319969697918,433.5255519222026,0.5796177783174967,142.63377187512268,1.23078334332,39.9460525513,130.184265137,0
21.5,17.023878739751503,0.33979324900239005,433.53353284963816,0.5742969485433587,144.49606407204595,1.4419871633613828,39.050367058756244,131.47974762584238,0
21.6,16.929582515805194,0.8420037165986942,433.5499460732266,0.568892575908265,146.27685449871987,2.77735853195,32.3936195374,139.666625977,0
21.700000000000003,16.822542016115733,0.6227792718295372,433.6017476358438,0.563137593779228,147.71560140311206,2.77735853195,32.3936195374,139.666625977,0
21.8,16.715501516426276,0.4035548270603879,433.6535491984611,0.5573826116501912,149.15434830750416,2.77735853195,32.3936195374,139.666625977,0
21.900000000000002,16.608461016736815,0.1843303822912309,433.70535076107836,0.5516276295211542,150.59309521189635,3.123940378380127,30.3975267122633,141.730202073474,0
22.0,16.486560293167802,0.45684572539806256,433.78508012633046,0.5461717920290509,151.76564242677716,4.01659488678,25.2295227051,147.072021484,0
22.1,16.358799471281966,0.9232776290224509,433.8758227623474,0.540833921601077,152.83321434888407,4.01659488678,25.2295227051,147.072021484,0
22.200000000000003,16.231038649396133,1.3897095326468394,433.9665653983644,0.5354960511731031,153.90078627099095,4.01659488678,25.2295227051,147.072021484,0
22.3,16.103277827510304,1.8561414362712112,434.0573080343814,0.5301581807451294,154.96835819309783,5.17932605743,19.9153614044,151.406066895,0
22.400000000000002,15.98084915069207,1.6560034620898405,434.1987470630016,0.5263960401821374,155.720786928951,5.17932605743,19.9153614044,151.406066895,0
22.5,15.858583340752723,1.435505547550753,434.341734579731,0.5226820292558708,156.46358982257826,5.17932605743,19.9153614044,151.406066895,0
22.6,15.736317530813372,1.2150076330116577,434.48472209646036,0.5189680183296043,157.20639271620556,5.365478113438548,18.687252201735124,152.2590346571647,0
22.700000000000003,15.61405172087402,0.9945097184725623,434.6277096131898,0.5152540074033376,157.94919560983288,6.06313848495,13.4664745331,155.490158081,0
22.8,15.491785910934674,0.7740118039334749,434.7706971299192,0.5115399964770712,158.69199850346016,6.06313848495,13.4664745331,155.490158081,0
22.900000000000002,15.37606091762156,1.015614218940199,434.9118125937777,0.5081403202446185,159.37193439839012,6.06313848495,13.4664745331,155.490158081,0
23.0,15.264969261098463,1.5845559525531947,435.0516019462445,0.5049633101690774,160.00733701948184,6.06313848495,13.4664745331,155.490158081,0
23.1,15.15387760457536,2.1534976861662107,435.19139129871127,0.5017863000935361,160.64273964057358,6.06313848495,13.4664745331,155.490158081,0
23.200000000000003,15.049291834474786,2.2960441881962512,435.3311237960819,0.49739852526860784,161.39022100037477,5.8213634491,15.3319149017,159.449401855,0
23.3,14.953062562620051,1.8909065203307664,435.47078326581567,0.4914555813479915,162.28166211025365,5.8213634491,15.3319149017,159.449401855,0
23.400000000000002,14.856833290765312,1.485768852465267,435.6104427355494,0.48551263742737494,163.17310322013253,5.8213634491,15.3319149017,159.449401855,0
23.5,14.762842939908467,1.128143228287568,435.74800021624714,0.479999989271,164.03482665671314,4.7661113739,16.9025859833,161.798400879,0
23.6,14.697536077798102,1.379208652934852,435.8586284846517,0.479999989271,164.51582806316128,4.7661113739,16.9025859833,161.798400879,0
23.700000000000003,14.632229215687737,1.6302740775821358,435.96925675305624,0.479999989271,164.9968294696094,4.7661113739,16.9025859833,161.798400879,0
23.8,14.566922353577374,1.881339502229411,436.0798850214608,0.479999989271,165.47783087605748,4.708338284138208,16.92401157028566,161.84519948230906,0
23.900000000000002,14.501615491467007,2.1324049268766947,436.1905132898654,0.479999989271,165.9588322825056,3.57438135147,17.2532978058,164.136138916,0
24.0,14.475690969076016,1.7065366902479318,436.2709977129096,0.479999989271,166.67627232422572,3.57438135147,17.2532978058,164.136138916,0
24.1,14.453452569591372,1.2173085645752812,436.3486607210846,0.479999989271,167.4158426374237,3.57438135147,17.2532978058,164.136138916,0
24.200000000000003,14.437781847603496,0.7833989537749568,436.4158138586857,0.479999989271,168.29052165609286,3.57438135147,17.2532978058,164.136138916,0
24.3,14.44679733837598,0.5574174314652419,436.44346309232645,0.479999989271,169.6730395950926,2.10531926155,23.8482208252,166.405487061,0
24.400000000000002,14.455812829148467,0.3314359091555189,436.4711123259673,0.479999989271,171.0555575340924,2.10531926155,23.8482208252,166.405487061,0
24.5,14.46482831992095,0.105454386845804,436.49876155960806,0.479999989271,172.43807547309214,1.5742213695704315,25.05893801302959,167.24289413368828,0
24.6,14.473843810693436,-0.12052713546391902,436.5264107932489,0.479999989271,173.8205934120919,0.826275408268,26.8204917908,168.428085327,0
24.700000000000003,14.507483706371426,0.0664631097662512,436.4990634744195,0.4825780414490722,175.54682817204133,0.826275408268,26.8204917908,168.428085327,0
24.8,14.544795565130267,0.3150352323924424,436.46351513262044,0.48554052981777385,177.32431759100226,0.826275408268,26.8204917908,168.428085327,0
24.900000000000002,14.58210742388911,0.5636073550186425,436.42796679082136,0.48850301818647557,179.10180700996327,0.495149836452402,26.7921595937386,169.0425353118782,0
25.0,14.621932794306286,0.41893802767837635,436.37496260264135,0.4916684552448223,180.83422364951022,-2.48004674911,26.4871406555,174.567565918,0
25.1,14.664325693121885,-0.12742372343747288,436.30412743239566,0.4950412024711398,182.52059887096505,-2.48004674911,26.4871406555,174.567565918,0
25.200000000000003,14.706718591937484,-0.6737854745533222,436.23329226215003,0.49841394969745734,184.20697409241987,-2.48004674911,26.4871406555,174.567565918,0
25.3,14.756061478807244,-0.9349910560285556,436.1603591932597,0.5029351163229981,186.02729169272607,-3.82779431343,27.8579521179,-179.154022217,0
25.400000000000002,14.811573867907233,-0.9430635945617081,436.08556382039615,0.5084757344914095,187.9665099010055,-3.82779431343,27.8579521179,-179.154022217,0
25.5,14.867086257007221,-0.9511361330948602,436.01076844753254,0.5140163526598207,189.90572810928487,-3.82779431343,27.8579521179,-179.154022217,0
25.6,14.922598646107213,-0.9592086716280127,435.93597307466894,0.519556970828232,191.8449463175643,-4.05542612076,30.38854599,-173.809051514,0
25.700000000000003,14.983061959011355,-1.400671462035252,435.8947323129182,0.519999980927,193.45178262961798,-4.05542612076,30.38854599,-173.809051514,0
25.8,15.043955534347111,-1.8797982422323354,435.8564076309014,0.519999980927,195.02973313196162,-4.05542612076,30.38854599,-173.809051514,0
25.900000000000002,15.104849109682869,-2.358925022429436,435.8180829488846,0.519999980927,196.60768363430535,-4.05542612076,30.38854599,-173.809051514,0
26.0,15.165742685018625,-2.838051802626519,435.77975826686776,0.519999980927,198.185634136649,-3.23025774956,32.4804611206,-167.645004272,0
26.1,15.226912949091352,-2.6298958998566695,435.7583561482013,0.519999980927,200.13853254179486,-3.23025774956,32.4804611206,-167.645004272,0
26.200000000000003,15.28837830273327,-1.6887504542132454,435.7550020064181,0.519999980927,202.4913142827028,-3.23025774956,32.4804611206,-167.645004272,0
26.3,15.349843656375185,-0.7476050085698547,435.75164786463495,0.519999980927,204.84409602361063,-3.23025774956,32.4804611206,-167.645004272,0
26.400000000000002,15.40376613271773,-0.24938621547523404,435.7589856470413,0.519999980927,206.89860126222732,-2.3283288179456205,31.300802423505708,-161.75265404193286,0
26.5,15.45040395383295,-0.17893097026131607,435.77664932742357,0.519999980927,208.6650411651155,-2.12095856667,30.9836673737,-160.400695801,0
26.6,15.497041774948173,-0.10847572504739558,435.79431300780584,0.519999980927,210.4314810680037,-2.12095856667,30.9836673737,-160.400695801,0
26.700000000000003,15.5425541009005,-0.06249660544163975,435.8178775014859,0.5194746305524134,212.21014035023498,-2.15694093704,31.4369564056,-153.731552124,0
26.8,15.579146904768239,-0.21049019234248412,435.8882057985675,0.5147858911000711,214.08563791974012,-2.15694093704,31.4369564056,-153.731552124,0
26.900000000000002,15.615739708635981,-0.35848377924333374,435.9585340956491,0.5100971516477287,215.96113548924535,-2.15694093704,31.4369564056,-153.731552124,0
27.0,15.65233251250372,-0.5064773661441782,436.0288623927307,0.5054084121953866,217.8366330587505,-2.109823200800637,31.470894166488314,-153.19955187368626,0
27.1,15.688925316371463,-0.6544709530450279,436.0991906898123,0.5007196727430441,219.71213062825572,-1.5900028944,31.8806686401,-147.36781311,0
27.200000000000003,15.694534343215812,0.1092551485869796,436.1820939138273,0.5,220.99457155065446,-1.5900028944,31.8806686401,-147.36781311,0
27.3,15.694525379375333,1.038294624165689,436.26727722855946,0.5,222.16947920761223,-1.5900028944,31.8806686401,-147.36781311,0
27.400000000000002,15.694516415534856,1.967334099744432,436.35246054329167,0.5,223.34438686457003,-1.3465432398919495,31.6835369053021,-146.27628825848743,0
27.5,15.69933956019683,2.305787815846107,436.4551344468609,0.4988746612823141,224.78773785364572,0.00028932254645,30.4461460114,-139.610351562,0
27.6,15.710263277221305,1.8986226866499332,436.57989034689376,0.4963285741944119,226.57000051492116,0.00028932254645,30.4461460114,-139.610351562,0
27.700000000000003,15.721186994245778,1.4914575574537594,436.70464624692664,0.49378248710650974,228.3522631761966,0.00028932254645,30.4461460114,-139.610351562,0
27.8,15.732110711270252,1.0842924282576,436.8294021469595,0.49123640001860763,230.13452583747198,1.85117340088,34.7936668396,-135.073150635,0
27.900000000000002,15.767092432937241,0.8470560907579109,436.94458241819217,0.48785894008193204,231.85642732259674,1.85117340088,34.7936668396,-135.073150635,0
28.0,15.824785588537491,0.7702373183605917,437.0507230261569,0.4836966407618833,233.52134615747053,1.85117340088,34.7936668396,-135.073150635,0
28.1,15.882478744137742,0.6934185459632698,437.1568636341217,0.47953434144183443,235.18626499234438,1.85117340088,34.7936668396,-135.073150635,0
28.200000000000003,15.940171899737994,0.6165997735659479,437.2630042420864,0.4753720421217855,236.85118382721822,0.4600225697138711,35.95364419529745,-129.23724157686738,0
28.3,15.997865055338243,0.5397810011686288,437.3691448500512,0.4712097428017368,238.516102662092,0.169529989362,36.2377052307,-128.016647339,0
28.400000000000002,16.048656093875437,0.7923989594701486,437.48459932384907,0.4615391114134197,239.8460887058401,0.169529989362,36.2377052307,-128.016647339,0
28.5,16.096619143183535,1.1799963041789563,437.6038699473901,0.4496115632534812,241.03884347444185,0.169529989362,36.2377052307,-128.016647339,0
28.6,16.1401514642559,1.534483157819913,437.7139500456641,0.43939270735023406,242.42510359145746,0.24202666765671352,36.0052456362212,-126.99251226678204,0
28.700000000000003,16.165295807506027,1.7515580685372754,437.78588851895137,0.43626510002947666,244.61443080394903,0.689505159855,34.3948326111,-120.692474365,0
28.8,16.190440150756153,1.96863297925463,437.85782699223864,0.4331374927087193,246.80375801644053,0.689505159855,34.3948326111,-120.692474365,0
28.900000000000002,16.21558449400628,2.1857078899719924,437.929765465526,0.43000988538796187,248.9930852289321,0.5183321497338232,33.9227540651242,-120.037921862176,0
29.0,16.286236177854065,1.572412379047245,437.9201175299382,0.43246826403259964,250.7277814635049,-0.238479569554,31.5814418793,-117.033828735,0
29.1,16.357032047482765,0.9564859165854354,437.9102110953935,0.43494434135481375,252.46103724206085,-0.238479569554,31.5814418793,-117.033828735,0
29.200000000000003,16.42782791711147,0.34055945412362565,437.9003046608488,0.4374204186770279,254.19429302061678,-0.6794328145091071,31.611521229411586,-116.177248501264,0
29.3,16.498623786740165,-0.2753670083381623,437.8903982263041,0.43989649599924197,255.92754879917265,-3.43842148781,31.7551174164,-110.548568726,0
29.400000000000002,16.589330248623128,-0.10643026338723627,437.8176518499695,0.44289328609789014,257.446645620611,-3.43842148781,31.7551174164,-110.548568726,0
29.5,16.680905293322724,0.09674547790605403,437.7421641341036,0.44591279185281985,258.95639993792855,-3.43842148781,31.7551174164,-110.548568726,0
29.6,16.772480338022323,0.29992121919935155,437.66667641823767,0.4489322976077497,260.4661542552462,-3.43842148781,31.7551174164,-110.548568726,0
29.700000000000003,16.86910601999073,0.2234413142990771,437.5919020443951,0.4512020610208296,261.9616564045708,-4.869848426455494,32.04204827547141,-103.9209600627178,0
29.8,16.96849452348776,-0.006017036445370161,437.5175178860034,0.45306169712269323,263.449362271077,-5.08836746216,32.0819206238,-102.911186218,0
29.900000000000002,17.067883026984795,-0.23547538718982558,437.44313372761167,0.45492133322455697,264.9370681375833,-5.08836746216,32.0819206238,-102.911186218,0
30.0,17.167271530481823,-0.4649337379342728,437.36874956922,0.45678096932642065,266.42477400408956,-4.54856109619,31.7606315613,-98.6215133667,0
30.1,17.26666003397886,-0.694392088678728,437.2943654108283,0.4586406054282844,267.9124798705958,-4.54856109619,31.7606315613,-98.6215133667,0
30.200000000000003,17.369122818664216,-0.8763179777269158,437.2120353942283,0.46114104386658417,269.6846219658745,-4.54856109619,31.7606315613,-98.6215133667,0
30.3,17.47994008069793,-0.9290725742918853,437.10811220239555,0.46538288729570104,272.22973045061457,-4.54856109619,31.7606315613,-98.6215133667,0
30.400000000000002,17.590757342731642,-0.9818271708568566,437.00418901056275,0.4696247307248181,274.77483893535475,-4.54856109619,31.7606315613,-98.6215133667,0
30.5,17.701574604765355,-1.0345817674218258,436.90026581873,0.47386657415393496,277.3199474200948,-4.95088481903,32.108182450326865,-90.2266616821,0
30.6,17.812391866799068,-1.0873363639867972,436.79634262689723,0.478108417583052,279.865055904835,-4.95088481903,32.1143417358,-90.2266616821,0
30.700000000000003,17.928410955775572,-1.1585834026967003,436.70272874133957,0.484726826814463,282.26048996150666,-4.95088481903,32.1143417358,-90.2266616821,0
30.8,18.04861663662492,-1.244713733150972,436.61741210564054,0.4932579700108104,284.5354613901404,-4.95088481903,32.1143417358,-90.2266616821,0
30.900000000000002,18.168822317474277,-1.3308440636052463,436.53209546994157,0.5017891132071581,286.8104328187743,-4.95088481903,32.1143417358,-90.2266616821,0
31.0,18.288149786092745,-1.4086678718961498,436.4491191062031,0.509999990463,289.0862617905452,-5.7835152382409145,33.110399092242304,-83.37216396082727,0
31.1,18.384961926290757,-1.2735316826340712,436.4261418974888,0.509999990463,291.3840761830252,-6.46214580536,33.9409294128,-77.7374725342,0
31.200000000000003,18.481774066488768,-1.1383954933719926,436.40316468877444,0.509999990463,293.6818905755052,-6.46214580536,33.9409294128,-77.7374725342,0
31.3,18.57858620668678,-1.003259304109919,436.3801874800601,0.509999990463,295.97970496798507,-5.860772164492808,34.73225548893686,-75.88885975832785,0
31.400000000000002,18.672798507044227,-0.9474517118461291,436.36343576822657,0.5106900309370419,298.3105185094448,-4.1998591423,37.0880393982,-70.7818756104,0
31.5,18.748084403473975,-1.4691431817876084,436.3920046437534,0.5164034519033855,300.8815603961736,-4.1998591423,37.0880393982,-70.7818756104,0
31.6,18.823370299903726,-1.9908346517291062,436.42057351928025,0.5221168728697294,303.45260228290243,-4.1998591423,37.0880393982,-70.7818756104,0
31.700000000000003,18.898656196333473,-2.512526121670604,436.4491423948071,0.5278302938360733,306.02364416963127,-3.648172506434078,37.253399464296216,-64.71842304217847,0
31.8,18.958870681385065,-2.0824803578425475,436.4732303758076,0.52999997139,308.51286123235434,-3.38219738007,37.3312988281,-61.7746009827,0
31.900000000000002,19.009857606998075,-1.0697279267905773,436.4945749030238,0.52999997139,310.9519805697803,-3.38219738007,37.3312988281,-61.7746009827,0
32.0,19.060844532611082,-0.05697549573864302,436.51591943024,0.52999997139,313.3910999072062,-3.38219738007,37.3312988281,-61.7746009827,0
32.1,19.113278653811502,0.7524804079908365,436.534831192609,0.5283891028543113,315.88597853954224,-1.87349736691,42.4229812622,-52.413898468,0
32.2,19.168517327098535,1.1679635102120278,436.549028446595,0.5236564968338495,318.4889143330859,-1.87349736691,42.4229812622,-52.413898468,0
32.300000000000004,19.223756000385567,1.5834466124332192,436.56322570058103,0.5189238908133877,321.09185012662965,-1.87349736691,42.4229812622,-52.413898468,0
32.4,19.2789946736726,1.998929714654381,436.57742295456706,0.5141912847929263,323.69478592017316,-1.8018513441605473,41.91105049766871,-48.427131623490084,0
32.5,19.33126025881616,2.3162978881058165,436.5934537667371,0.5093712839292034,326.28291821002756,-1.73476886749,41.444694519,-44.5940437317,0
32.6,19.360505673333513,1.8739770472170016,436.623681541867,0.5038745980475337,328.7564292157664,-1.73476886749,41.444694519,-44.5940437317,0
32.7,19.389751087850865,1.4316562063281868,436.6539093169968,0.4983779121658639,331.2299402215052,-1.73476886749,41.444694519,-44.5940437317,0
32.800000000000004,19.418996502368216,0.9893353654393722,436.68413709212666,0.4928812262841942,333.70345122724405,-1.832607297715361,41.25795472369202,-44.03409373693324,0
32.9,19.4432680732385,0.5016859440967243,436.7149487049116,0.490000009537,336.0476271666485,-2.80526709557,38.6254768372,-33.3992271423,0
33.0,19.462060427617583,-0.03589771787939855,436.74640347681753,0.490000009537,338.2493268083175,-2.80526709557,38.6254768372,-33.3992271423,0
33.1,19.480852781996667,-0.5734813798555214,436.7778582487235,0.490000009537,340.45102644998656,-2.80526709557,38.6254768372,-33.3992271423,0
33.2,19.497148249284077,-0.6670356597083278,436.80356876548626,0.4911937144778242,342.59685303963084,-2.266053626771977,37.26907287423085,-24.85078126963399,0
33.300000000000004,19.50751839489091,0.2931288823620263,436.8156476848686,0.4952201809758999,344.6100882086911,-2.22067213058,37.1225395203,-24.0795078278,0
33.4,19.517888540497736,1.2532934244323122,436.8277266042509,0.4992466474739754,346.6233233777512,-2.22067213058,37.1225395203,-24.0795078278,0
33.5,19.539916568736192,1.061850728543176,436.8427526178359,0.5,348.91498478335274,-2.0779271153449894,37.576167538954074,-22.452168500626414,0
33.6,19.56462782016932,0.6053496725990354,436.8584569459804,0.5,351.27072984458033,-1.68497002125,38.9017906189,-17.948633194,0
33.7,19.589339071602453,0.1488486166548948,436.8741612741248,0.5,353.6264749058079,-1.68497002125,38.9017906189,-17.948633194,0
33.800000000000004,19.614050323035585,-0.3076524392892457,436.88986560226925,0.5,355.9822199670355,-1.20921313763,40.9486427307,-11.7819843292,0
33.9,19.639247278425977,0.10305819779227865,436.8710496102723,0.5054092919394554,261.06683592954596,-1.20921313763,40.9486427307,-11.7819843292,0
34.0,19.664447927555265,0.5203639089244666,436.8519710940619,0.5108597211020242,165.41171290495564,-1.20921313763,40.9486427307,-11.7819843292,0
34.1,19.689648576684558,0.9376696200566546,436.8328925778515,0.5163101502645929,69.75658988036531,-1.20921313763,40.9486427307,-11.7819843292,0
34.2,19.717978920112042,0.979768731607471,436.8103976257401,0.519999980927,5.766521639382631,-2.23716068268,41.0694732666,-3.98502826691,0
34.300000000000004,19.75286842054459,0.235516601949334,436.7807425687311,0.519999980927,8.13950554039543,-2.23716068268,41.0694732666,-3.98502826691,0
34.4,19.787757920977135,-0.5087355277087502,436.75108751172206,0.519999980927,10.512489441408057,-2.23716068268,41.0694732666,-3.98502826691,0
34.5,19.822647421409684,-1.252987657366887,436.721432454713,0.519999980927,12.885473342420854,-2.4401243734175857,43.240992342425194,2.2433825771777376,0
34.6,19.856329659249234,-0.9078134810303786,436.67287273608315,0.519999980927,15.094329463651734,-2.52803754807,44.2250366211,5.10250711441,0
34.7,19.889950676647267,-0.5073943564589094,436.6233543596286,0.519999980927,17.294862644039274,-2.52803754807,44.2250366211,5.10250711441,0
34.800000000000004,19.9235716940453,-0.10697523188744018,436.5738359831741,0.519999980927,19.495395824426815,-2.4705393961836077,44.051106254806214,5.938298300912256,0
34.9,19.953523823219726,0.17505044788122517,436.52080747651377,0.5208713639222079,21.87138382624666,-1.98858094215,42.4087791443,13.0042076111,0
35.0,19.97554378617783,0.2011085358718956,436.4601900397645,0.5236266840489964,24.626706580786497,-1.98858094215,42.4087791443,13.0042076111,0
35.1,19.99756374913593,0.22716662386256598,436.39957260301526,0.526382004175785,27.382029335326333,-1.98858094215,42.4087791443,13.0042076111,0
35.2,20.019583712094033,0.2532247118532364,436.338955166266,0.5291373243025734,30.13735208986617,-2.36161354758081,41.963558255187884,18.366757351019675,0
35.300000000000004,20.03068924312519,-0.04244565019997376,436.28535856893285,0.531573526811028,32.7309022968492,-2.60041356087,41.6712265015,21.8683261871,0
35.4,20.036820168021592,-0.4847541819742973,436.2349619467395,0.5338642811209414,35.25071942153354,-2.60041356087,41.6712265015,21.8683261871,0
35.5,20.042951092917992,-0.9270627137486522,436.1845653245461,0.536155035430855,37.77053654621806,-2.60041356087,41.6712265015,21.8683261871,0
35.6,20.049082017814396,-1.3693712455230074,436.1341687023527,0.5384457897407685,40.290353670902576,-3.59227824211,41.1080551147,31.5525817871,0
35.7,20.052248080068455,-1.5940182048571634,436.0906497701502,0.540000021458,42.93270578747801,-3.59227824211,41.1080551147,31.5525817871,0
35.800000000000004,20.049157601651874,-1.3593492886563403,436.0616443423958,0.540000021458,45.83363486117574,-3.59227824211,41.1080551147,31.5525817871,0
35.9,20.046067123235293,-1.1246803724555337,436.0326389146415,0.540000021458,48.73456393487327,-3.59227824211,41.1080551147,31.5525817871,0
36.0,20.04297664481871,-0.8900114562547106,436.00363348688717,0.540000021458,51.635493008571004,-2.467027856665693,41.87016128206017,41.64644831887514,0
36.1,20.03399300718545,-0.6232085203990899,435.96917261974585,0.540000021458,54.561384604402726,-2.41301560402,41.8836746216,42.2029037476,0
36.2,20.01977561442359,-0.3278671412421718,435.92986673945956,0.540000021458,57.509445587389585,-2.41301560402,41.8836746216,42.2029037476,0
36.300000000000004,20.005558221661733,-0.03252576208525371,435.89056085917326,0.540000021458,60.457506570376445,-2.41301560402,41.8836746216,42.2029037476,0
36.4,19.96876423260545,0.18974385561514437,435.8687910491233,0.540000021458,62.96231460117359,-3.99297380447,40.6826972961,53.7746009827,0
36.5,19.907194307761454,0.3318232955699274,435.8662656169448,0.540000021458,64.98068940094072,-3.99297380447,40.6826972961,53.7746009827,0
36.6,19.845624382917453,0.4739027355247105,435.86374018476636,0.540000021458,66.99906420070785,-3.99297380447,40.6826972961,53.7746009827,0
36.7,19.784054458073456,0.6159821754794935,435.86121475258795,0.540000021458,69.01743900047498,-4.445525350452073,40.31604578763034,60.91684762686126,0
36.800000000000004,19.725286055204407,0.4833368552548253,435.87953973883793,0.5354876354444799,70.90247627029564,-4.55506467819,40.213432312,62.6496696472,0
36.9,19.669175143702297,0.09009080264653002,435.9176431910311,0.5266948522102912,72.66103110025313,-4.55506467819,40.213432312,62.6496696472,0
37.0,19.613064232200188,-0.3031552499617932,435.9557466432243,0.5179020689761019,74.41958593021076,-4.55506467819,40.213432312,62.6496696472,0
37.1,19.55528258065815,-0.6186880345490707,435.9949111934819,0.5096924378278126,76.24604234280054,0.745520591736,40.6424331665,70.2292709351,0
37.2,19.482678599495657,-0.24477084668943716,436.0434895034472,0.5066563658386515,78.67490225053308,0.745520591736,40.6424331665,70.2292709351,0
37.300000000000004,19.410074618333166,0.1291463411701964,436.0920678134124,0.5036202938494905,81.10376215826562,0.745520591736,40.6424331665,70.2292709351,0
37.4,19.33747063717068,0.5030635290298033,436.14064612337773,0.5005842218603296,83.53262206599798,0.7453484723419028,40.25137683080536,70.79377978418385,0
37.5,19.2564127946067,0.6586133752438563,436.1645658667993,0.502081490315763,85.87334307079395,0.743486702442,35.5852890015,76.9397964478,0
37.6,19.17334058314763,0.7621310955660168,436.1826100171535,0.5046589539091065,88.19306251711963,0.743486702442,35.5852890015,76.9397964478,0
37.7,19.09026837168856,0.8656488158881772,436.2006541675077,0.5072364175024502,90.51278196344532,0.743486702442,35.5852890015,76.9397964478,0
37.800000000000004,19.00719616022949,0.9691665362103377,436.2186983178619,0.5098138810957938,92.832501409771,-0.697166025639,34.8721618652,84.757194519,0
37.9,18.913641271295994,0.6301341542897756,436.21572480374124,0.509999990463,94.70889799374216,-0.697166025639,34.8721618652,84.757194519,0
38.0,18.819270558236536,0.25665989897994845,436.2111155703311,0.509999990463,96.55079256354965,-0.697166025639,34.8721618652,84.757194519,0
38.1,18.724899845177074,-0.11681435632987869,436.206506336921,0.509999990463,98.39268713335714,-0.7522820101293771,35.02544747785881,85.44300959196816,0
38.2,18.630529132117612,-0.49028861163970583,436.2018971035109,0.509999990463,100.23458170316464,-1.38419306278,37.0997467041,93.2977218628,0
38.300000000000004,18.529727986094976,-0.560181870875672,436.18684771706074,0.509999990463,102.3134506513691,-1.38419306278,37.0997467041,93.2977218628,0
38.400000000000006,18.42435454138804,-0.41421672728323033,436.1643749582993,0.509999990463,104.56081799536766,-1.38419306278,37.0997467041,93.2977218628,0
38.5,18.318981096681117,-0.26825158369079904,436.1419021995378,0.509999990463,106.80818533936608,-1.38419306278,37.0997467041,93.2977218628,0
38.6,18.213607651974183,-0.12228644009835743,436.11942944077634,0.509999990463,109.05555268336464,-1.3229385600676902,38.1492444147034,99.96885038263842,0
38.7,18.108377313217495,0.048419869409585634,436.08123598464744,0.5116912981225791,111.35304741792928,-1.30587828159,38.4259681702,101.97328186,0
38.800000000000004,18.00325070763542,0.23706030170986486,436.0316470705223,0.514608583545296,113.68687798164366,-1.30587828159,38.4259681702,101.97328186,0
38.900000000000006,17.898124102053345,0.42570073401014413,435.98205815639716,0.5175258689680129,116.02070854535805,-1.30587828159,38.4259681702,101.97328186,0
39.0,17.792694500549413,0.47379744511828636,435.9336241189933,0.5204251327908623,118.2976065885311,-1.30199718475,37.5073661804,110.986999512,0
39.1,17.685573358610036,-0.26272164282347343,435.8916374313091,0.52322378712465,120.25666649053782,-1.30199718475,37.5073661804,110.986999512,0
39.2,17.57845221667066,-0.9992407307652332,435.84965074362486,0.5260224414584376,122.21572639254455,-1.30199718475,37.5073661804,110.986999512,0
39.300000000000004,17.47133107473128,-1.7357598187069931,435.8076640559407,0.5288210957922251,124.17478629455128,-1.192208426127151,37.60354197344283,112.28000534065488,0
39.400000000000006,17.375459079170767,-2.1059900475622273,435.7662037666138,0.5311321307637793,126.35858444637458,-0.697219312191,38.0831375122,118.111801147,0
39.5,17.287774216745788,-2.209635101471364,435.7251265902173,0.5330882761727289,128.70594718433836,-0.697219312191,38.0831375122,118.111801147,0
39.6,17.200089354320802,-2.3132801553805082,435.68404941382084,0.5350444215816786,131.05330992230233,-0.697219312191,38.0831375122,118.111801147,0
39.7,17.11240449189582,-2.4169252092896523,435.6429722374243,0.5370005669906285,133.40067266026628,-0.167418390512,37.8111190796,125.73009491,0
39.800000000000004,17.024719629470834,-2.5205702631987967,435.60189506102785,0.5389567123995782,135.74803539823026,-0.167418390512,37.8111190796,125.73009491,0
39.900000000000006,16.950722200735015,-2.334342466473538,435.5731036668216,0.540000021458,137.91775804320116,-0.167418390512,37.8111190796,125.73009491,0
40.0,16.892368565704604,-1.8168099723811677,435.55835407522494,0.540000021458,139.88445030046736,-0.167418390512,37.8111190796,125.73009491,0
