t_sec,airspeed,climb,altitude,throttle,heading,pitch,roll,yaw,is_boundary
0.0,17.6018390656,-0.387511253357,409.66998291,0.5,266.0,-1.69193923473,6.43778514862,-95.8139648438,0
0.1,17.703755583310798,-1.1182601739289246,409.67626080568095,0.4843205688041578,266.0,-1.69193923473,6.43778514862,-95.8139648438,0
0.2,17.8056721010216,-1.8490090945008493,409.6825387013619,0.46864113760831566,266.0,-0.472388863564,16.0665798187,-93.1274261475,0
0.30000000000000004,17.907588618732397,-2.579758015072774,409.6888165970429,0.45296170641247346,266.0,-0.472388863564,16.0665798187,-93.1274261475,0
0.4,17.995470596566253,-2.022937235194413,409.65554225420397,0.40907945334093765,266.0,-0.472388863564,16.0665798187,-93.1274261475,0
0.5,18.080084191593766,-1.1662654656988607,409.61305693206225,0.3586292886088007,266.0,-2.27001690865,-5.07297563553,-93.6686782837,0
0.6000000000000001,18.164697786621275,-0.30959369620330746,409.5705716099205,0.3081791238766637,266.0,-2.27001690865,-5.07297563553,-93.6686782837,0
0.7000000000000001,18.246171210489283,0.5144817806952698,409.5234493220626,0.25797734236681696,265.98073668385507,-2.27001690865,-5.07297563553,-93.6686782837,0
0.8,18.26102700385405,0.6470383353113129,409.3779554318159,0.21304492385830384,265.55280886758356,-2.27001690865,-5.07297563553,-93.6686782837,0
0.9,18.275882797218816,0.7795948899273559,409.2324615415692,0.16811250534979078,265.124881051312,-5.21502399445,-18.5281047821,-93.0230407715,0
1.0,18.290738590583583,0.9121514445433991,409.08696765132254,0.12318008684127768,264.6969532350405,-5.21502399445,-18.5281047821,-93.0230407715,0
1.1,18.30559438394835,1.0447079991594423,408.9414737610758,0.07824766833276453,264.26902541876893,-5.21502399445,-18.5281047821,-93.0230407715,0
1.2000000000000002,18.310341560351006,1.0189692007622118,408.792619010304,0.05084389963311165,263.4936605615605,-5.21502399445,-18.5281047821,-93.0230407715,0
1.3,18.297974615417875,0.7252327238977779,408.63807424525675,0.05311653877497784,262.13007679196994,-5.21502399445,-18.5281047821,-93.0230407715,0
1.4000000000000001,18.285607670484744,0.4314962470333433,408.4835294802095,0.05538917791684403,260.76649302237934,-5.75887298584,-21.2624759674,-95.9053955078,0
1.5,18.273240725551613,0.1377597701689095,408.3289847151623,0.05766181705871022,259.4029092527888,-5.75887298584,-21.2624759674,-95.9053955078,0
1.6,18.260873780618482,-0.1559767066955251,408.174439950115,0.059934456200576414,258.03932548319824,-5.75887298584,-21.2624759674,-95.9053955078,0
1.7000000000000002,18.27385327977016,-0.7058649540549904,407.9784960246645,0.05705401952639009,257.1162060758699,-5.75887298584,-21.2624759674,-95.9053955078,0
1.8,18.287585472842082,-1.2633599441853407,407.78132270008274,0.054020555909872536,256.2061668010623,-7.90377187729,-22.1486797333,-101.614578247,0
1.9000000000000001,18.301317665914002,-1.8208549343156926,407.584149375501,0.05098709229335498,255.29612752625462,-7.90377187729,-22.1486797333,-101.614578247,0
2.0,18.318682300812448,-2.011562274456207,407.34592065193516,0.0500000007451,254.6013694204186,-7.90377187729,-22.1486797333,-101.614578247,0
2.1,18.33779908659396,-2.025345293294456,407.08788837554727,0.0500000007451,254.01045470928386,-8.659847195567687,-22.515419873707927,-102.86959605508872,0
2.2,18.356915872375474,-2.0391283121327044,406.82985609915943,0.0500000007451,253.41953999814913,-9.48891544342,-22.9166564941,-104.307510376,0
2.3000000000000003,18.37603265815699,-2.0529113309709532,406.57182382277153,0.0500000007451,252.8286252870144,-9.48891544342,-22.9166564941,-104.307510376,0
2.4000000000000004,18.395149443938504,-2.066694349809202,406.31379154638364,0.0500000007451,252.2377105758797,-9.48891544342,-22.9166564941,-104.307510376,0
2.5,18.429985999408345,-2.2758460901662696,405.9974729238483,0.046730453948750215,251.50956801526277,-9.48891544342,-22.9166564941,-104.307510376,0
2.6,18.47540214648634,-2.616483299309215,405.64192689844396,0.0412604633459746,250.68906948292542,-11.13743288514194,-20.025253583530443,-106.63116590730225,0
2.7,18.520818293564332,-2.9571205084521606,405.28638087303966,0.03579047274319899,249.86857095058807,-12.0657463074,-18.4012203217,-107.93724823,0
2.8000000000000003,18.566234440642326,-3.297757717595106,404.9308348476353,0.03032048214042338,249.0480724182507,-12.0657463074,-18.4012203217,-107.93724823,0
2.9000000000000004,18.620411783860842,-3.571778650076841,404.5582624401397,0.02602556619081418,248.40383501588545,-12.0657463074,-18.4012203217,-107.93724823,0
3.0,18.67513438555465,-3.8416536772667156,404.1846303851952,0.021803781740998486,247.77056733425704,-13.7660913467,-13.4379291534,-110.567993164,0
3.1,18.729856987248457,-4.111528704456592,403.81099833025075,0.01758199729118277,247.1372996526286,-13.7660913467,-13.4379291534,-110.567993164,0
3.2,18.784579588942265,-4.381403731646468,403.43736627530626,0.01336021284136706,246.5040319710002,-13.7660913467,-13.4379291534,-110.567993164,0
3.3000000000000003,18.84919036470977,-4.595354447415984,403.0423971389011,0.009408561286343377,245.94085614966434,-13.7660913467,-13.4379291534,-110.567993164,0
3.4000000000000004,18.952365991041653,-4.591194853155803,402.56421128807744,0.006510454566041793,245.65104547115635,-13.7660913467,-13.4379291534,-110.567993164,0
3.5,19.055541617373535,-4.587035258895622,402.08602543725385,0.003612347845740221,245.36123479264833,-14.8174791336,-8.31015777588,-113.227394104,0
3.6,19.158717243705418,-4.5828756646354405,401.6078395864302,0.000714241125438636,245.07142411414034,-14.8174791336,-8.31015777588,-113.227394104,0
3.7,19.23722448814807,-4.666358950031128,401.18776389552806,0.0,245.0,-14.8174791336,-8.31015777588,-113.227394104,0
3.8000000000000003,19.307663849253597,-4.778506155564273,400.78669334217625,0.0,245.0,-14.41306086433133,-6.438316698896136,-113.85701177338011,0
3.9000000000000004,19.37810321035912,-4.890653361097417,400.3856227888244,0.0,245.0,-14.1244707108,-5.24577713013,-114.305374146,0
4.0,19.44854257146465,-5.002800566630561,399.98455223547256,0.0,245.0,-14.1244707108,-5.24577713013,-114.305374146,0
4.1000000000000005,19.513500231681974,-5.034856819573319,399.606964424185,0.0007864673319760059,245.0,-14.1244707108,-5.24577713013,-114.305374146,0
4.2,19.566561102900888,-4.893093817674893,399.28034058067675,0.0032797837046938754,245.0,-13.983335141908325,-5.094326621774953,-114.31463036562249,0
4.3,19.619621974119802,-4.751330815776467,398.9537167371686,0.005773100077411745,245.0,-12.1150712967,-3.08388233185,-114.433662415,0
4.4,19.67268284533872,-4.60956781387804,398.62709289366035,0.008266416450129637,245.0,-12.1150712967,-3.08388233185,-114.433662415,0
4.5,19.70880223363343,-4.410990089969116,398.3235762878448,0.012388071234275735,244.92039761629414,-12.1150712967,-3.08388233185,-114.433662415,0
4.6000000000000005,19.706264000726243,-4.082770704111226,398.0727865209807,0.020225321033282312,244.65915595048781,-12.1150712967,-3.08388233185,-114.433662415,0
4.7,19.70372576781905,-3.75455131825334,397.82199675411664,0.028062570832288816,244.3979142846815,-9.859340547900505,-0.9137590766974149,-114.15865540602015,0
4.800000000000001,19.70118753491186,-3.426331932395451,397.5712069872526,0.03589982063129539,244.13667261887514,-9.29874324799,-0.375266760588,-114.090423584,0
4.9,19.673621036506685,-3.214751172333791,397.3708192341538,0.04300782088446135,244.0,-9.29874324799,-0.375266760588,-114.090423584,0
5.0,19.61859443725156,-3.131142062070303,397.2257307338597,0.049315715110496774,244.0,-9.284955184509396,-0.3680718147927748,-114.09617818567138,0
5.1000000000000005,19.563567837996434,-3.047532951806814,397.0806422335655,0.055623609336532265,244.0,-6.47157907486,0.995557069778,-115.095077515,0
5.2,19.49907484924312,-2.8253040546069017,396.9492431518102,0.06361619282688515,244.090404847801,-6.47157907486,0.995557069778,-115.095077515,0
5.300000000000001,19.41313298617289,-2.2889914839638084,396.8488614518947,0.07542593261534863,244.385648321616,-6.339579938447045,0.9294614436874569,-115.09730150028304,0
5.4,19.32719112310266,-1.7526789133207197,396.74847975197923,0.08723567240381203,244.680891795431,-4.83295869827,0.17434681952,-115.122589111,0
5.5,19.241249260032433,-1.216366342677631,396.64809805206374,0.0990454121922754,244.97613526924596,-4.83295869827,0.17434681952,-115.122589111,0
5.6000000000000005,19.12943995772872,-1.155091423955355,396.56992854812216,0.11225991560144948,245.17514162941796,-4.83295869827,0.17434681952,-115.122589111,0
5.7,19.01535590293098,-1.1355907633538405,396.49371235883746,0.12559795228814982,245.36568500984538,-3.67907834053,0.818714499474,-114.517883301,0
5.800000000000001,18.90127184813324,-1.1160901027523258,396.41749616955275,0.1389359889748503,245.55622839027276,-3.67907834053,0.818714499474,-114.517883301,0
5.9,18.787187793335505,-1.0965894421508111,396.34127998026804,0.15227402566155063,245.74677177070018,-3.67907834053,0.818714499474,-114.517883301,0
6.0,18.673103738537765,-1.0770887815492967,396.26506379098333,0.165612062348251,245.9373151511276,-3.67907834053,0.818714499474,-114.517883301,0
6.1000000000000005,18.574210199353836,-1.0173973134970387,396.1970599550809,0.17804924517811255,246.0,-3.67907834053,0.818714499474,-114.517883301,0
6.2,18.48276407227425,-0.9380016093608055,396.13308236697264,0.19004476887748578,246.0,-3.4156553904438574,1.389236651177955,-114.24849435074509,0
6.300000000000001,18.39131794519466,-0.8586059052245716,396.0691047788644,0.20204029257685913,246.0,-2.80455756187,2.71246218681,-113.624694824,0
6.4,18.299871818115072,-0.7792102010883384,396.00512719075624,0.2140358162762324,246.0,-2.80455756187,2.71246218681,-113.624694824,0
6.5,18.208425691035483,-0.6998144969521052,395.941149602648,0.22603133997560565,246.0,-2.80455756187,2.71246218681,-113.624694824,0
6.6000000000000005,18.14062331748651,-0.7742639827519021,395.88899550544807,0.23326179364426877,246.1630895076339,-2.80455756187,2.71246218681,-113.624694824,0
6.7,18.084510960197385,-0.9247780735021174,395.8426872144475,0.23813628695045475,246.40681422378418,-2.3340461802478183,0.687361660757996,-113.24481632636476,0
6.800000000000001,18.02839860290826,-1.075292164252334,395.79637892344687,0.24301078025664075,246.65053893993445,-2.09390473366,-0.320396065712,-113.055740356,0
6.9,17.972286245619134,-1.2258062550025492,395.7500706324463,0.24788527356282672,246.89426365608475,-2.09390473366,-0.320396065712,-113.055740356,0
7.0,17.9232909616037,-1.036615806668713,395.7006438092959,0.25488964243240353,246.83701192539596,-2.09390473366,-0.320396065712,-113.055740356,0
7.1000000000000005,17.879749277012245,-0.5871199761321295,395.64882734865245,0.26352607095613645,246.5491309860433,-1.9362716541142,0.2898285823197943,-113.00528076832197,0
7.2,17.83620759242079,-0.13762414559555003,395.597010888009,0.27216249947986926,246.2612500466907,-1.81754767895,0.74968868494,-112.967445374,0
7.300000000000001,17.794266481717614,0.22282469904159696,395.5432958160946,0.28083653237826095,246.0,-1.81754767895,0.74968868494,-112.967445374,0
7.4,17.768027060340163,-0.29028069722518995,395.4709552970549,0.2898794655895372,246.0,-1.81754767895,0.74968868494,-112.967445374,0
7.5,17.741787638962712,-0.803386093491977,395.3986147780152,0.2989223988008134,246.0,-2.37088108063,1.11656367779,-113.520614624,0
7.6000000000000005,17.71554821758526,-1.3164914897587683,395.32627425897556,0.3079653320120897,246.0,-2.37088108063,1.11656367779,-113.520614624,0
7.7,17.702749383008847,-1.32271620503816,395.2461610917714,0.310000002384,246.25534586891433,-2.37088108063,1.11656367779,-113.520614624,0
7.800000000000001,17.693852680012252,-1.1817810424223176,395.16379133441166,0.310000002384,246.58482489835333,-2.5532913208,0.307910680771,-113.345497131,0
7.9,17.684955977015658,-1.0408458798064768,395.0814215770519,0.310000002384,246.91430392779233,-2.5532913208,0.307910680771,-113.345497131,0
8.0,17.675069131030767,-0.9840362498781111,395.0018969940246,0.310000002384,247.0,-2.5532913208,0.307910680771,-113.345497131,0
8.1,17.66483422394274,-0.9567989403677561,394.92337256403425,0.310000002384,247.0,-2.518093318508703,1.0640095100598501,-113.0816131349964,0
8.200000000000001,17.65459931685471,-0.9295616308574006,394.84484813404384,0.310000002384,247.0,-2.49425077438,1.57048869133,-112.90422821,0
8.3,17.644613480712447,-0.9029340811220289,394.76628662120515,0.31016096814099126,247.0,-2.49425077438,1.57048869133,-112.90422821,0
8.4,17.639714590040224,-0.8887600703396871,394.6869677401116,0.3136094471237436,247.0,-2.49425077438,1.57048869133,-112.90422821,0
8.5,17.634815699368005,-0.8745860595573453,394.607648859018,0.3170579261064959,247.0,-2.29791903496,1.14499044418,-112.825469971,0
8.6,17.629732492889996,-0.8836346268864776,394.53373323009413,0.3195538857843187,247.0,-2.29791903496,1.14499044418,-112.825469971,0
8.700000000000001,17.623578480146445,-1.0275977341706504,394.49120848624915,0.3165160626406999,247.0,-2.29791903496,1.14499044418,-112.825469971,0
8.8,17.617424467402895,-1.1715608414548206,394.44868374240417,0.3134782394970812,247.0,-1.69285845757,0.613097548485,-112.616073608,0
8.9,17.61127045465934,-1.315523948738991,394.4061589985592,0.3104404163534625,247.0,-1.69285845757,0.613097548485,-112.616073608,0
9.0,17.585464744222197,-0.9624301373835902,394.37203664156107,0.31399348018592677,247.0,-1.69285845757,0.613097548485,-112.616073608,0
9.1,17.556326912579802,-0.5250558773545777,394.33933898444496,0.31866408788644884,247.0,-1.24997615814,0.359089285135,-112.555473328,0
9.200000000000001,17.527189080937408,-0.08768161732555746,394.30664132732886,0.323334695586971,247.0,-1.24997615814,0.359089285135,-112.555473328,0
9.3,17.498051249295013,0.349692642703455,394.2739436702128,0.328005303287493,247.0,-1.24997615814,0.359089285135,-112.555473328,0
9.4,17.47213318868525,0.365768097593995,394.250171256239,0.3314016178485679,247.2803212144559,-1.24997615814,0.359089285135,-112.555473328,0
9.5,17.448615260372996,0.0677923796312675,394.23305203720105,0.33384802880174924,247.76960387172107,-0.855123056066222,0.7607090854295495,-112.39767638542696,0
9.600000000000001,17.425097332060744,-0.23018333833146531,394.2159328181631,0.3362944397549307,248.2588865289862,-0.517616987228,1.10419118404,-112.263473511,0
9.700000000000001,17.401579403748492,-0.5281590562941927,394.1988135991252,0.33874085070811205,248.74816918625137,-0.517616987228,1.10419118404,-112.263473511,0
9.8,17.383426236765803,-0.5740189396318072,394.18276285521625,0.3414473893193523,249.0,-0.517616987228,1.10419118404,-112.263473511,0
9.9,17.370962695903444,-0.3524960355700625,394.16784528828015,0.34442980769988546,249.0,-0.515928118076462,1.093028733339062,-112.25337545988774,0
10.0,17.358499155041084,-0.1309731315083178,394.15292772134404,0.3474122260804186,249.0,-0.239526301622,-0.747876226902,-110.765411377,0
10.100000000000001,17.345572146085786,0.03964133909335392,394.13884479387315,0.35113937758504105,249.0,-0.239526301622,-0.747876226902,-110.765411377,0
10.200000000000001,17.329606123822725,-0.12355661260704698,394.1302346928613,0.3597498293844126,249.0,-0.239526301622,-0.747876226902,-110.765411377,0
10.3,17.31364010155966,-0.28675456430744783,394.1216245918494,0.36836028118378406,249.0,0.062471723386600064,-0.937941855805152,-110.54524038147001,0
10.4,17.2976740792966,-0.4499525160078488,394.11301449083754,0.3769707329831556,249.0,0.31309491396,-1.09564983845,-110.362884521,0
10.5,17.30354487032521,-0.537851894850282,394.0766970835493,0.38459134429117614,248.54086499829535,0.31309491396,-1.09564983845,-110.362884521,0
10.600000000000001,17.321267871987548,-0.5848820070094217,394.0253411802271,0.39167470697044454,247.83252858259183,0.2920248084062835,-1.3618629754722384,-110.44417373714727,0
10.700000000000001,17.33899087364988,-0.6319121191685607,393.9739852769049,0.3987580696497129,247.1241921668883,0.240752637386,-2.00920891762,-110.641349792,0
10.8,17.356713875312213,-0.6789422313276997,393.92262937358277,0.4058414323289812,246.41585575118478,0.240752637386,-2.00920891762,-110.641349792,0
10.9,17.374436876974546,-0.7259723434868387,393.8712734702606,0.4129247950082495,245.70751933548127,0.240752637386,-2.00920891762,-110.641349792,0
11.0,17.39218443286868,-0.7730260996166962,393.8199535084961,0.4199825100837951,245.00029128018653,0.240752637386,-2.00920891762,-110.641349792,0
11.100000000000001,17.431193785701943,-0.8405534469503708,393.799755762551,0.4048316646672444,245.25280548585295,0.240752637386,-2.00920891762,-110.641349792,0
11.200000000000001,17.470203138535204,-0.9080807942840442,393.77955801660596,0.389680819250694,245.50531969151936,-0.174661070108,-0.964496791363,-114.313690186,0
11.3,17.509212491368466,-0.9756081416177176,393.75936027066086,0.37452997383414355,245.75783389718578,-0.174661070108,-0.964496791363,-114.313690186,0
11.4,17.54600129997823,-1.0183052298688453,393.7410803616555,0.3599091664536195,245.98183046654447,-0.174661070108,-0.964496791363,-114.313690186,0
11.5,17.53082497561506,-0.4799250752882298,393.76768163562195,0.3576922989412323,245.5384578625616,-0.174661070108,-0.964496791363,-114.313690186,0
11.600000000000001,17.51564865125189,0.05845507929239524,393.7942829095884,0.355475431428845,245.09508525857873,0.14210742712,1.69730222225,-113.851791382,0
11.700000000000001,17.500472326888723,0.5968352338730107,393.8208841835549,0.3532585639164578,244.65171265459588,0.14210742712,1.69730222225,-113.851791382,0
11.8,17.485296002525555,1.1352153884536262,393.8474854575213,0.3510416964040707,244.20834005061303,0.14210742712,1.69730222225,-113.851791382,0
11.9,17.45943270167814,1.2510082543588597,393.83808143506934,0.35584127499850965,244.29206410885735,0.14210742712,1.69730222225,-113.851791382,0
12.0,17.42409613770311,0.9922068104600803,393.796761215603,0.3668604462240999,244.84302278508062,0.37891535515249314,4.679320411336292,-115.26515557304897,0
12.100000000000001,17.388759573728077,0.7334053665612963,393.75544099613666,0.3778796174496904,245.3939814613039,0.468679577112,5.80992937088,-115.79750061,0
12.200000000000001,17.353423009753048,0.47460392266251683,393.7141207766703,0.38889878867528066,245.94494013752717,0.468679577112,5.80992937088,-115.79750061,0
12.3,17.339770763023793,0.22038366742136486,393.63525728897594,0.389999985695,246.3396988700981,0.468679577112,5.80992937088,-115.79750061,0
12.4,17.328526135535125,-0.03332793643676929,393.5522253557679,0.389999985695,246.71711465451654,-0.1539248070381432,6.048645338453686,-114.38880557493725,0
12.5,17.31728150804646,-0.2870395402949034,393.4691934225599,0.389999985695,247.09453043893495,-0.497487545013,6.17327594757,-113.60559082,0
12.600000000000001,17.30603688055779,-0.5407511441530422,393.3861614893519,0.389999985695,247.4719462233534,-0.497487545013,6.17327594757,-113.60559082,0
12.700000000000001,17.294792253069122,-0.7944627480111763,393.30312955614386,0.389999985695,247.84936200777182,-0.497487545013,6.17327594757,-113.60559082,0
12.8,17.28111769475442,-0.7350005229426473,393.25125634141665,0.3884388676236817,247.5316641319526,-0.497487545013,6.17327594757,-113.60559082,0
12.9,17.265829045847553,-0.4675114167924327,393.22008042137173,0.3858407710650816,246.75223442103044,0.2560397758341449,4.722240607235424,-112.14090940739626,0
13.0,17.250540396940686,-0.2000223106422181,393.1889045013268,0.3832426745064815,245.9728047101083,0.356659978628,4.53498697281,-111.948005676,0
13.100000000000001,17.235251748033814,0.06746679550800128,393.1577285812819,0.3806445779478813,245.19337499918615,0.356659978628,4.53498697281,-111.948005676,0
13.200000000000001,17.21173419554741,0.08603780412973822,393.1741541189293,0.3818584023418075,244.8141591117828,0.356659978628,4.53498697281,-111.948005676,0
13.3,17.185501428608966,0.02247563313007174,393.20628626494994,0.38433001068718226,244.5669980415278,1.385703012760519,2.335119611171152,-113.82862392379546,0
13.4,17.159268661670517,-0.041086537869594736,393.2384184109706,0.386801619032557,244.31983697127282,1.65585637093,1.75915002823,-114.408714294,0
13.5,17.133035894732068,-0.1046487088692612,393.2705505569912,0.38927322737793174,244.07267590101785,1.65585637093,1.75915002823,-114.408714294,0
13.600000000000001,17.102008404088735,-0.01955575992305386,393.3153856160157,0.3920817778426416,243.79182120711016,1.65585637093,1.75915002823,-114.408714294,0
13.700000000000001,17.068983833310128,0.1274544558614386,393.3655116441932,0.39503067016116394,243.49693257284974,2.084255948885083,0.05165446223036896,-115.13751803951631,0
13.8,17.03595926253152,0.2744646716459311,393.41563767237074,0.39797956247968624,243.20204393858933,2.47547316551,-1.48603737354,-115.809654236,0
13.9,17.00347630330615,0.37899515268759376,393.47228446267314,0.40000000596,242.84069377964352,2.47547316551,-1.48603737354,-115.809654236,0
14.0,16.97217197179463,0.3910833799673692,393.54312140625024,0.40000000596,242.334713406607,2.4818102058249627,-1.5506531163658872,-115.86308787862689,0
14.100000000000001,16.940867640283113,0.40317160724714485,393.61395834982727,0.40000000596,241.82873303357047,2.51003336906,-1.83732938766,-116.096878052,0
14.200000000000001,16.90956330877159,0.4152598345269203,393.68479529340436,0.40000000596,241.32275266053398,2.51003336906,-1.83732938766,-116.096878052,0
14.3,16.878888929834464,0.4692929890249163,393.7666415790859,0.39777823436926757,241.0,2.51003336906,-1.83732938766,-116.096878052,0
14.4,16.84932420219745,0.5972114563431394,393.86788064332916,0.39164284795349724,241.0,2.51003336906,-1.83732938766,-116.096878052,0
14.5,16.819759474560435,0.7251299236613625,393.9691197075724,0.38550746153772697,241.0,2.73082947731,-3.32096004486,-118.756446838,0
14.600000000000001,16.790058346716894,0.8318995618713221,394.0681079824623,0.379999995232,241.0279661534191,2.73082947731,-3.32096004486,-118.756446838,0
14.700000000000001,16.759160857219175,0.7531735265770623,394.147354659135,0.379999995232,241.30122250409892,2.73082947731,-3.32096004486,-118.756446838,0
14.8,16.728263367721453,0.6744474912828023,394.22660133580763,0.379999995232,241.5744788547787,2.3923728466,-1.79719138145,-118.308326721,0
14.9,16.697365878223735,0.5957214559885424,394.3058480124803,0.379999995232,241.8477352054585,2.3923728466,-1.79719138145,-118.308326721,0
15.0,16.67011595494768,0.683725185918081,394.3675673499096,0.3829269902245551,242.1463496711258,2.3923728466,-1.79719138145,-118.308326721,0
15.100000000000001,16.64745640094238,0.9815540826281544,394.40722897691757,0.38953753393232793,242.47687667921974,2.2852133079186077,-1.1797038883510518,-118.11259265387388,0
15.200000000000001,16.62479684693708,1.2793829793382225,394.44689060392545,0.3961480776401007,242.8074036873137,1.84528875351,1.35920739174,-117.299507141,0
15.3,16.62233716863243,1.26957665713044,394.46807717713386,0.4028832560919505,243.19221666781954,1.84528875351,1.35920739174,-117.299507141,0
15.4,16.64808311609635,0.8302110650232639,394.4634665394462,0.40979246536464786,243.65283060101564,1.8205059443437148,1.4743974828163768,-117.28046194209443,0
15.5,16.673829063560266,0.39084547291608773,394.45885590175857,0.41670167463734525,244.1134445342117,1.18989849091,4.42437458038,-116.810935974,0
15.600000000000001,16.699575011024187,-0.04852011919109622,394.45424526407095,0.42361088391004276,244.57405846740778,1.18989849091,4.42437458038,-116.810935974,0
15.700000000000001,16.72953547973943,-0.45421485485728036,394.44576994733984,0.4303828902700529,245.01914417411044,1.18989849091,4.42437458038,-116.810935974,0
15.8,16.81127025913598,-0.4462717706325477,394.3898180415612,0.43546939410101154,245.27346960820853,1.18989849091,4.42437458038,-116.810935974,0
15.9,16.893005038532536,-0.438328686407815,394.3338661357826,0.4405558979319702,245.52779504230665,-0.635898411274,2.2581911087,-114.660652161,0
16.0,16.974739817929088,-0.4303856021830823,394.277914230004,0.44564240176292885,245.78212047640474,-0.635898411274,2.2581911087,-114.660652161,0
16.1,17.06073059769652,-0.43544654316474535,394.2227464044198,0.44965549512422354,246.0,-0.635898411274,2.2581911087,-114.660652161,0
16.2,17.172164433226133,-0.5182476414836479,394.17226593653544,0.4472515677957949,246.0,-0.635898411274,2.2581911087,-114.660652161,0
16.3,17.28359826875575,-0.6010487398025534,394.1217854686511,0.4448476404673662,246.0,-1.9510383606,0.691965639591,-113.818153381,0
16.400000000000002,17.39503210428537,-0.6838498381214588,394.0713050007668,0.4424437131389375,246.0,-1.9510383606,0.691965639591,-113.818153381,0
16.5,17.506465939814984,-0.7666509364403614,394.0208245328825,0.44003978581050884,246.0,-1.9510383606,0.691965639591,-113.818153381,0
16.6,17.607763515806404,-0.8185804614130244,393.9621227667977,0.439999997616,246.2893135777574,-1.9510383606,0.691965639591,-113.818153381,0
16.7,17.708890499695052,-0.8699904212943292,393.903282637193,0.439999997616,246.58349627034005,-2.46869015694,-1.26340532303,-114.009140015,0
16.8,17.810017483583703,-0.9214003811756359,393.8444425075883,0.439999997616,246.8776789629227,-2.46869015694,-1.26340532303,-114.009140015,0
16.900000000000002,17.892279984598655,-0.7387013854362029,393.79160131929035,0.43645246431824575,246.82262343026593,-2.46869015694,-1.26340532303,-114.009140015,0
17.0,17.961115854162557,-0.3893773786877197,393.74302982524046,0.43038000508066176,246.5190006312652,-2.4471093145228164,-2.2312792060743667,-113.40179969338999,0
17.1,18.02995172372646,-0.04005337193922398,393.6944583311906,0.4243075458430775,246.21537783226444,-2.43276619911,-2.87504935265,-113.000923157,0
17.2,18.08932328018584,0.18168702389951863,393.6522956935456,0.4207707382555789,245.84585003868452,-2.43276619911,-2.87504935265,-113.000923157,0
17.3,18.12559546547754,0.092036497779854,393.6257750313109,0.42342264800767704,245.3154691631348,-2.43276619911,-2.87504935265,-113.000923157,0
17.400000000000002,18.161867650769242,0.002385971660189362,393.59925436907616,0.42607455775977515,244.78508828758504,-1.49569571018,1.46784543991,-113.147285461,0
17.5,18.19813983606094,-0.0872645544594721,393.57273370684146,0.4287264675118731,244.25470741203534,-1.49569571018,1.46784543991,-113.147285461,0
17.6,18.221322308123884,-0.12051433069792644,393.57030416238246,0.42742292236146445,244.0,-1.49569571018,1.46784543991,-113.147285461,0
17.7,18.23241059114782,-0.10165285598042892,393.59013351141095,0.42246475021578345,244.0,-0.42738581888452254,4.565186745209903,-114.66108389467567,0
17.8,18.243498874171756,-0.08279138126293074,393.60996286043945,0.4175065780701023,244.0,0.241965100169,6.51150131226,-115.602348328,0
17.900000000000002,18.25458715719569,-0.06392990654543255,393.6297922094679,0.4125484059244211,244.0,0.241965100169,6.51150131226,-115.602348328,0
18.0,18.252701300389653,0.077729625995239,393.66743162408136,0.40905355993512166,244.5678624348406,0.241965100169,6.51150131226,-115.602348328,0
18.1,18.237094830365738,0.34925246179751335,393.72390581498667,0.4071062332778497,245.73625954338726,0.32585687888184817,6.800956827778348,-115.5447063504321,0
18.2,18.221488360341823,0.620775297599778,393.78038000589197,0.40515890662057785,246.9046566519339,0.996551573277,9.02690887451,-115.10622406,0
18.3,18.205881890317908,0.8922981334020523,393.8368541967973,0.40321157996330587,248.07305376048055,0.996551573277,9.02690887451,-115.10622406,0
18.400000000000002,18.190275420293997,1.1638209692043266,393.8933283877026,0.40126425330603394,249.2414508690272,0.996551573277,9.02690887451,-115.10622406,0
18.5,18.168433039364803,1.2860539299893805,393.94434053798767,0.40089672595541825,250.26901625515939,0.996551573277,9.02690887451,-115.10622406,0
18.6,18.13504919658425,1.1319802816075157,393.9852435102543,0.4034531007752352,251.03592943243288,0.996551573277,9.02690887451,-115.10622406,0
18.7,18.101665353803703,0.9779066332256563,394.02614648252086,0.40600947559505207,251.80284260970635,0.0132952835411,15.3319597244,-109.121963501,0
18.8,18.068281511023155,0.8238329848437914,394.0670494547875,0.40856585041486904,252.56975578697984,0.0132952835411,15.3319597244,-109.121963501,0
18.900000000000002,18.041870104412574,0.6295910022230418,394.08871793968,0.4151085995752286,253.12771510542527,0.0132952835411,15.3319597244,-109.121963501,0
19.0,18.024369083466542,0.38401612234143223,394.08580581940316,0.42674571344709095,253.41864301291668,0.02118181427240401,16.597899983933452,-108.40627684190652,0
19.1,18.00686806252051,0.13844124245981393,394.0828936991263,0.4383828273189536,253.70957092040808,0.0451797805727,18.9706668854,-106.261474609,0
19.200000000000003,17.989428169541924,-0.10672559290146783,394.0798887847419,0.44999573610205224,254.00297638670202,0.0451797805727,18.9706668854,-106.261474609,0
19.3,18.007578385579908,-0.1143195206561787,394.0228570060314,0.4475158853210157,255.73887358895274,0.0451797805727,18.9706668854,-106.261474609,0
19.400000000000002,18.025728601617896,-0.12191344841088984,393.96582522732086,0.44503603453997914,257.4747707912035,0.481669217348,17.5459022522,-105.338394165,0
19.5,18.04387881765588,-0.1295073761656007,393.90879344861037,0.4425561837589426,259.21066799345425,0.481669217348,17.5459022522,-105.338394165,0
19.6,18.062029033693868,-0.13710130392031186,393.8517616698999,0.44007633297790605,260.946565195705,0.481669217348,17.5459022522,-105.338394165,0
19.700000000000003,18.068380466544877,-0.24071962972563454,393.7550278987388,0.43736183295174536,262.3190835901373,0.481669217348,17.5459022522,-105.338394165,0
19.8,18.074357171454693,-0.3473876789147354,393.65703319705153,0.43463988049365737,263.6800611171456,-2.04643034935,18.9122009277,-98.6335220337,0
19.900000000000002,18.08033387636451,-0.45405572810384,393.55903849536423,0.4319179280355693,265.0410386441539,-2.04643034935,18.9122009277,-98.6335220337,0
20.0,18.07522378320813,-0.5775865030522219,393.46539342080195,0.42915186445272313,266.42407049071716,-2.04643034935,18.9122009277,-98.6335220337,0
20.1,18.043667463088255,-0.7413412876732379,393.3821238600233,0.4262805790727446,267.8597102712389,-2.04643034935,18.9122009277,-98.6335220337,0
20.200000000000003,18.012111142968376,-0.9050960722942538,393.2988542992447,0.423409293692766,269.2953500517606,-1.32764983177,22.1644325256,-93.1742172241,0
20.3,17.980554822848497,-1.068850856915264,393.215584738466,0.42053800831278754,270.73098983228226,-1.32764983177,22.1644325256,-93.1742172241,0
20.400000000000002,17.93256185052658,-1.012754183176329,393.1756365990512,0.419999986887,271.6086520157862,-1.32764983177,22.1644325256,-93.1742172241,0
20.5,17.88077879220216,-0.9059625184674244,393.1456778364693,0.419999986887,272.3576515583722,-0.42740260014405795,20.34222354018875,-90.65836160540194,0
20.6,17.82899573387774,-0.799170853758516,393.1157190738875,0.419999986887,273.1066511009582,0.287183105946,19.1352748871,-88.670249939,0
20.700000000000003,17.77721267555332,-0.6923791890496076,393.0857603113056,0.419999986887,273.85565064354415,0.287183105946,19.1352748871,-88.670249939,0
20.8,17.700875368389948,-0.5006644321063667,393.1030849464194,0.4161501048302787,274.769977145633,0.287183105946,19.1352748871,-88.670249939,0
20.900000000000002,17.618676175958925,-0.28867581435324774,393.13169764227473,0.41138113267805043,275.72377248566556,2.19421315193,16.1252441406,-85.0180435181,0
21.0,17.536476983527905,-0.07668719660013634,393.16031033813005,0.40661216052582233,276.6775678256981,2.19421315193,16.1252441406,-85.0180435181,0
21.1,17.454277791096878,0.1353014211529826,393.18892303398536,0.40184318837359406,277.6313631657307,2.19421315193,16.1252441406,-85.0180435181,0
21.200000000000003,17.36203532086284,0.2039811460436531,393.2562058834841,0.3972573853584501,278.2742619130409,2.19421315193,16.1252441406,-85.0180435181,0
21.3,17.263465809154525,0.18237945817668721,393.3478500690643,0.39278697482272107,278.72130272682114,3.0872311590847494,14.110832253642364,-82.63028219696616,0
21.400000000000002,17.16489629744621,0.16077777030972057,393.4394942546445,0.38831656428699185,279.1683435406013,3.56611347198,13.0312871933,-81.3617095947,0
21.5,17.066326785737893,0.1391760824427547,393.5311384402247,0.3838461537512628,279.61538435438155,3.56611347198,13.0312871933,-81.3617095947,0
21.6,16.966957524702266,0.1782674114636132,393.6279086726144,0.3791465318725139,280.0,3.56611347198,13.0312871933,-81.3617095947,0
21.700000000000003,16.86266082633786,0.5913022085155636,393.75626164416497,0.37303468682681906,280.0,3.56611347198,13.0312871933,-81.3617095947,0
21.8,16.758364127973454,1.0043370055674992,393.8846146157156,0.36692284178112444,280.0,4.72805023193,8.25595474243,-79.557220459,0
21.900000000000002,16.654067429609043,1.4173718026194497,394.01296758726613,0.3608109967354296,280.0,4.72805023193,8.25595474243,-79.557220459,0
22.0,16.571554382312506,1.534760810225422,394.1384755218751,0.36258289653277503,280.25828846910724,4.72805023193,8.25595474243,-79.557220459,0
22.1,16.49237403000711,1.6069187755891932,394.26354819242596,0.36556093559796043,280.5560926596416,4.966929351381209,6.15535057797995,-79.25278836311442,0
22.200000000000003,16.413193677701713,1.679076740952964,394.3886208629768,0.36853897466314584,280.853896850176,4.99190187454,5.93975830078,-79.2216644287,0
22.3,16.3486054265731,1.6538195511221165,394.5071351412229,0.37254008687374884,281.127004226405,4.99190187454,5.93975830078,-79.2216644287,0
22.400000000000002,16.298070816306105,1.5347419039768202,394.61933303713556,0.37752652000466946,281.3763261207169,4.781863316860558,4.600843424943902,-78.97217157044696,0
22.5,16.24753620603911,1.415664256831528,394.73153093304825,0.3825129531355899,281.62564801502873,4.42561864853,2.64781355858,-78.5198898315,0
22.6,16.197001595772115,1.2965866096862317,394.84372882896093,0.38749938626651054,281.87496990934056,4.42561864853,2.64781355858,-78.5198898315,0
22.700000000000003,16.1649296901322,1.2158312942315654,394.9464495861152,0.39221225261441917,282.0,4.42561864853,2.64781355858,-78.5198898315,0
22.8,16.15143015664804,1.1736259431732532,395.0396369107876,0.39664992720650577,282.0,3.8153610921452352,0.43958189909542256,-77.76507684981722,0
22.900000000000002,16.13793062316388,1.1314205921149394,395.13282423546,0.4010876017985925,282.0,3.61123275757,-0.296768844128,-77.5143585205,0
23.0,16.124431089679717,1.0892152410566271,395.22601156013246,0.40552527639067903,282.0,3.61123275757,-0.296768844128,-77.5143585205,0
23.1,16.110931556195553,1.0470098899983136,395.31919888480485,0.40996295098276575,282.0,3.61123275757,-0.296768844128,-77.5143585205,0
23.200000000000003,16.138559754115768,0.6481927242995158,395.34084440347635,0.4204315641721629,281.7392107518888,3.61123275757,-0.296768844128,-77.5143585205,0
23.3,16.16653417411119,0.2463735237621143,395.3618876678612,0.4309509470978258,281.47622612388204,2.15328502655,-0.688795387745,-77.6691513062,0
23.400000000000002,16.194508594106615,-0.1554456767753014,395.38293093224604,0.441470330023489,281.2132414958753,2.15328502655,-0.688795387745,-77.6691513062,0
23.5,16.232651196960553,-0.5147101577104838,395.3871329285239,0.4504434575493395,280.95565314283937,2.15328502655,-0.688795387745,-77.6691513062,0
23.6,16.314383305142634,-0.691548810683156,395.3191388838671,0.45278801545496916,280.72119782742357,2.15328502655,-0.688795387745,-77.6691513062,0
23.700000000000003,16.39611541332472,-0.8683874636558281,395.25114483921027,0.4551325733605988,280.48674251200777,0.151632860303,-0.828419923782,-78.4023590088,0
23.8,16.477847521506796,-1.045226116628494,395.1831507945535,0.4574771312662284,280.2522871965919,0.151632860303,-0.828419923782,-78.4023590088,0
23.900000000000002,16.55957962968888,-1.2220647696011662,395.1151567498967,0.45982168917185806,280.0178318811761,0.151632860303,-0.828419923782,-78.4023590088,0
24.0,16.66348447591736,-1.1748727632881748,395.02925510273656,0.45575110017656395,279.7875547055445,0.151632860303,-0.828419923782,-78.4023590088,0
24.1,16.7692145246295,-1.109239132179566,394.9418793480261,0.45115243287032414,279.5576214635802,-1.68072390556,0.0747692286968,-79.6192626953,0
24.200000000000003,16.87494457334164,-1.043605501070957,394.8545035933156,0.4465537655640843,279.32768822161586,-1.68072390556,0.0747692286968,-79.6192626953,0
24.3,16.980674622053776,-0.9779718699623505,394.7671278386052,0.4419550982578447,279.0977549796516,-1.68072390556,0.0747692286968,-79.6192626953,0
24.400000000000002,17.081052969789837,-0.9357521315303898,394.6922662868993,0.4372062393238615,278.8603121603286,-1.68072390556,0.0747692286968,-79.6192626953,0
24.5,17.177473363995073,-0.9108485883798796,394.6266598550496,0.4323463032788846,278.61731548843534,-1.7796803014533975,0.015908142046749646,-79.83936776456524,0
24.6,17.273893758200312,-0.8859450452293685,394.56105342319984,0.42748636723390765,278.37431881654203,-2.18822264671,-0.226465538144,-80.7411117554,0
24.700000000000003,17.370314152405555,-0.8610415020788573,394.4954469913501,0.4226264311889306,278.1313221446488,-2.18822264671,-0.226465538144,-80.7411117554,0
24.8,17.44417277276524,-0.7450025185230041,394.45544637003013,0.41772793193699176,277.88639714416223,-2.18822264671,-0.226465538144,-80.7411117554,0
24.900000000000002,17.491500181383223,-0.5217940507271517,394.4455565540764,0.41278408480521167,277.639204551838,-2.096389864272685,-0.035928021785204434,-80.85880699617218,0
25.0,17.538827590001205,-0.2985855829313073,394.43566673812273,0.4078402376734318,277.3920119595138,-1.49510228634,1.21320915222,-81.6047134399,0
25.1,17.58615499861919,-0.07537711513545498,394.42577692216906,0.40289639054165177,277.1448193671896,-1.49510228634,1.21320915222,-81.6047134399,0
25.200000000000003,17.617532546878625,-0.025187194278912507,394.4259164638358,0.39703386109342487,277.1483071637768,-1.49510228634,1.21320915222,-81.6047134399,0
25.3,17.626347079458423,-0.2197530330153292,394.4402437506086,0.3898717438717242,277.50641283277395,-1.3617493437368051,1.3581783023422562,-81.79593601148443,0
25.400000000000002,17.635161612038225,-0.41431887175175286,394.45457103738147,0.3827096266500232,277.8645185017711,-0.696425378323,2.06109833717,-82.740272522,0
25.5,17.61198718956397,-0.2838438106292543,394.47120241695984,0.3828032077445622,278.140160550446,-0.696425378323,2.06109833717,-82.740272522,0
25.6,17.569345377081955,0.04444008655351189,394.4892359890507,0.3873123600467947,278.36561804462224,-0.5017074991940355,3.006655935988901,-82.36891726508583,0
25.700000000000003,17.526703564599938,0.3727239837362781,394.5072695611416,0.3918215123490271,278.59107553879846,-0.258658409119,4.17049837112,-81.9071655273,0
25.8,17.484061752117924,0.7010078809190328,394.5253031332324,0.39633066465125943,278.81653303297463,-0.258658409119,4.17049837112,-81.9071655273,0
25.900000000000002,17.43625656178887,0.8907262091021323,394.5434459494043,0.3990092741288747,279.04953656498486,-0.258658409119,4.17049837112,-81.9071655273,0
26.0,17.365891300475262,0.47501739922699243,394.56206607990316,0.3936897906357632,279.31551059697193,-0.258658409119,4.17049837112,-81.9071655273,0
26.1,17.295526039161654,0.059308589351837804,394.58068621040206,0.38837030714265147,279.58148462895906,0.778388977051,10.6032800674,-80.735824585,0
26.200000000000003,17.225160777848043,-0.35640022052331677,394.59930634090097,0.3830508236495398,279.8474586609462,0.778388977051,10.6032800674,-80.735824585,0
26.3,17.150244360019506,-0.5446906579860029,394.60611356127544,0.38129064339571433,280.387194818382,0.778388977051,10.6032800674,-80.735824585,0
26.400000000000002,17.069207665125525,-0.42715477539793856,394.5970350869538,0.38431692168553455,281.29507917117735,0.778388977051,10.6032800674,-80.735824585,0
26.5,16.988170970231543,-0.30961889280987837,394.5879566126321,0.3873431999753547,282.2029635239727,1.51904225349,15.3338308334,-79.205368042,0
26.6,16.90770865057666,-0.21947098086076608,394.5775990714131,0.39023872166746015,283.1432412931976,1.51904225349,15.3338308334,-79.205368042,0
26.700000000000003,16.831376297411307,-0.3262525206978656,394.5580445748514,0.39219405595229634,284.3164394866132,1.51904225349,15.3338308334,-79.205368042,0
26.8,16.75504394424596,-0.4330340605349613,394.5384900782897,0.39414939023713247,285.48963768002875,1.6970934943363403,19.215162088034177,-77.03476301741432,0
26.900000000000002,16.67871159108061,-0.5398156003720608,394.51893558172804,0.3961047245219687,286.6628358734443,1.75318014622,20.4398174286,-76.3550949097,0
27.0,16.60237923791526,-0.6465971402091564,394.49938108516636,0.39806005880680484,287.83603406685984,1.75318014622,20.4398174286,-76.3550949097,0
27.1,16.526202403954727,-0.7519244251475116,394.47959332605956,0.40000000596,289.01106167697407,1.75318014622,20.4398174286,-76.3550949097,0
27.200000000000003,16.469632800612935,-0.6739051503332983,394.4303967712892,0.40000000596,290.41673472506056,1.75318014622,20.4398174286,-76.3550949097,0
27.3,16.413063197271143,-0.5958858755190879,394.3812002165189,0.40000000596,291.82240777314706,1.44904780388,27.7352313995,-70.3291702271,0
27.400000000000002,16.356493593929354,-0.5178666007048747,394.33200366174856,0.40000000596,293.2280808212336,1.44904780388,27.7352313995,-70.3291702271,0
27.5,16.299923990587562,-0.43984732589066433,394.2828071069782,0.40000000596,294.63375386932006,1.44904780388,27.7352313995,-70.3291702271,0
27.6,16.257072134122954,-0.532289380133489,394.22243528285605,0.40460201636179627,296.5340034062632,1.44904780388,27.7352313995,-70.3291702271,0
27.700000000000003,16.219053779303607,-0.6847941488896758,394.1581258089666,0.41082556308787005,298.6085188991246,1.5075070552818144,28.38797746528427,-68.54462612030655,0
27.8,16.18103542448426,-0.837298917645857,394.0938163350771,0.4170491098139436,300.68303439198587,1.64619910717,29.6476173401,-64.3267593384,0
27.900000000000002,16.143017069664914,-0.9898036864020436,394.02950686118766,0.4232726565400174,302.7575498848472,1.64619910717,29.6476173401,-64.3267593384,0
28.0,16.104998714845568,-1.142308455158225,393.9651973872982,0.4294962032660909,304.8320653777085,1.64619910717,29.6476173401,-64.3267593384,0
28.1,16.085296633041175,-0.7888979381937964,393.8832242333068,0.43239892563776283,306.6792445408295,1.64619910717,29.6476173401,-64.3267593384,0
28.200000000000003,16.06720787718483,-0.3909256123229379,393.79969523477087,0.43500914461119905,308.5063995647926,0.302382946014,32.528717041,-54.9659004211,0
28.3,16.04911912132849,0.007046713547906425,393.7161662362349,0.43761936358463516,310.33355458875565,0.302382946014,32.528717041,-54.9659004211,0
28.400000000000002,16.031045911636266,0.35334086185361385,393.635849716179,0.4390155728434038,312.19688490757795,0.302382946014,32.528717041,-54.9659004211,0
28.5,16.013133904708575,0.16376873303967782,393.5888443337161,0.42782335702921376,314.43532753672645,0.302382946014,32.528717041,-54.9659004211,0
28.6,15.99522189778088,-0.025803395774264992,393.5418389512532,0.4166311412150233,316.67377016587506,0.391592353582,35.714679718,-47.6409721375,0
28.700000000000003,15.977309890853185,-0.2153755245882078,393.49483356879034,0.4054389254008329,318.91221279502366,0.391592353582,35.714679718,-47.6409721375,0
28.8,15.959397883925492,-0.40494765340214384,393.44782818632746,0.39424670958664276,321.15065542417216,0.391592353582,35.714679718,-47.6409721375,0
28.900000000000002,15.932510979250122,-0.3215980503735144,393.4644860883362,0.3823344745268444,323.2775857785067,0.391592353582,35.714679718,-47.6409721375,0
29.0,15.900136498875991,-0.07137427167970362,393.5200700151969,0.36998199377000096,325.33633351209306,0.731792200186059,34.965889561489774,-43.47785273639177,0
29.1,15.86776201850186,0.178849507014116,393.5756539420576,0.35762951301315704,327.3950812456794,1.25353765488,33.8181304932,-37.0666389465,0
29.200000000000003,15.83538753812773,0.4290732857079356,393.6312378689183,0.3452770322563132,329.45382897926584,1.25353765488,33.8181304932,-37.0666389465,0
29.3,15.8030130577536,0.6792970644017464,393.686821795779,0.3329245514994697,331.5125767128522,1.25353765488,33.8181304932,-37.0666389465,0
29.400000000000002,15.74057114689388,0.8193282779007154,393.77306780965586,0.33356515447893204,333.42605790633297,1.25353765488,33.8181304932,-37.0666389465,0
29.5,15.668802348874356,0.9251778668037802,393.86882517255935,0.3382361991658922,335.2944775629354,2.0475794891034416,31.454652503194595,-29.683346007604612,0
29.6,15.597033550854832,1.0310274557068486,393.9645825354629,0.3429072438528525,337.1628972195379,2.35560297966,30.5372505188,-26.7824783325,0
29.700000000000003,15.525264752835307,1.1368770446099172,394.06033989836646,0.34757828853981276,339.03131687614047,2.35560297966,30.5372505188,-26.7824783325,0
29.8,15.449044310652141,0.9870796080742097,394.1756289335472,0.34999999404,341.0940346527352,2.35560297966,30.5372505188,-26.7824783325,0
29.900000000000002,15.368031095898536,0.5620449768760943,394.3119463482894,0.34999999404,343.3659395668806,2.4034787622886062,30.163826571360275,-25.945404972328337,0
30.0,15.287017881144934,0.13701034567799408,394.4482637630315,0.34999999404,345.6378444810259,2.77994585037,27.2408332825,-19.2602958679,0
30.1,15.20600466639133,-0.28802428552012116,394.58458117777366,0.34999999404,347.90974939517133,2.77994585037,27.2408332825,-19.2602958679,0
30.200000000000003,15.128180382495108,0.27928068592203703,394.6841933937282,0.35285457221412453,349.14182895573344,2.5724831741599328,26.626929031982435,-17.468762528286224,0
30.3,15.050488018187343,0.88763672991552,394.7822871902078,0.35582723848572856,350.33089305473663,1.90106058121,24.6415481567,-11.7003040314,0
30.400000000000002,14.972795653879576,1.4959927739090246,394.8803809866874,0.3587999047573327,351.5199571537399,1.90106058121,24.6415481567,-11.7003040314,0
30.5,14.899980395573866,1.6970660296718976,394.97331193525093,0.3624240451422534,352.3636049723399,1.90106058121,24.6415481567,-11.7003040314,0
30.6,14.830467181935616,1.622388469590318,395.0627473775814,0.36648926608211024,352.97338869483866,2.4163053156872474,22.41610178310979,-9.029395021948812,0
30.700000000000003,14.760953968297367,1.5477109095087385,395.15218281991184,0.3705544870219671,353.58317241733744,2.73849439621,21.3163108826,-7.36878824234,0
30.8,14.691440754659117,1.4730333494271615,395.2416182622423,0.37461970796182376,354.19295613983616,2.73849439621,21.3163108826,-7.36878824234,0
30.900000000000002,14.621927541020868,1.398355789345582,395.33105370457275,0.37868492890168054,354.80273986233493,2.73849439621,21.3163108826,-7.36878824234,0
31.0,14.569245444001947,1.1916726555296804,395.4093376075067,0.3818980858071536,355.3796184770729,2.73849439621,21.3163108826,-7.36878824234,0
31.1,14.524611634410572,0.9218672213054568,395.48228907787825,0.384703803538477,355.94076255850064,3.58362960815,16.0718536377,-4.65316915512,0
31.200000000000003,14.4799778248192,0.6520617870812334,395.55524054824986,0.38750952126980037,356.50190663992845,3.58362960815,16.0718536377,-4.65316915512,0
31.3,14.437739988284937,0.42686954073329925,395.63072080796456,0.3892151867970939,357.0523199764229,3.58362960815,16.0718536377,-4.65316915512,0
31.400000000000002,14.414430060028122,0.5541162859595122,395.7261782091573,0.38223056795057564,357.5179616769244,3.58362960815,16.0718536377,-4.65316915512,0
31.5,14.39112013177131,0.6813630311857206,395.8216356103501,0.3752459491040576,357.98360337742594,2.92816996574,7.45867824554,-2.44467759132,0
31.6,14.367810203514495,0.8086097764119337,395.9170930115428,0.3682613302575394,358.44924507792746,2.92816996574,7.45867824554,-2.44467759132,0
31.700000000000003,14.344500275257682,0.9358565216381467,396.0125504127356,0.3612767114110211,358.914886778429,2.92816996574,7.45867824554,-2.44467759132,0
31.8,14.328242360791563,1.1173938615291739,396.1143470930492,0.3628117365008509,359.0,2.92816996574,7.45867824554,-2.44467759132,0
31.900000000000002,14.313561777972149,1.3110744381785142,396.21756168686545,0.3662523596791575,359.0,1.74273872375,1.86537396908,-0.965759694576,0
32.0,14.298881195152735,1.5047550148278477,396.3207762806817,0.36969298285746394,359.0,1.74273872375,1.86537396908,-0.965759694576,0
32.1,14.288899285632839,1.2774741624482926,396.39249300703966,0.3724040058328488,272.6962794727006,1.74273872375,1.86537396908,-0.965759694576,0
32.2,14.279377739614912,1.0089486298563148,396.46112365619166,0.3750435445225549,177.93675014956403,0.788416743279,2.20367240906,-0.475119590759,0
32.300000000000004,14.269856193596983,0.7404230972643373,396.5297543053437,0.377683083212261,83.17722082642746,0.788416743279,2.20367240906,-0.475119590759,0
32.4,14.2629399999606,0.4761662297442063,396.58920424839704,0.3807913124989563,0.0,0.788416743279,2.20367240906,-0.475119590759,0
32.5,14.274733890797632,0.24256436484417881,396.58272384442756,0.38726539767665613,0.0,0.788416743279,2.20367240906,-0.475119590759,0
32.6,14.286527781634666,0.008962499944151325,396.57624344045803,0.39373948285435595,0.0,-0.603859961033,4.83931970596,0.659028112888,0
32.7,14.299401818050802,-0.21905642692374627,396.5688919132717,0.40000000596,2.9965666340673462,-0.603859961033,4.83931970596,0.659028112888,0
32.800000000000004,14.34394007410271,-0.2834128072960189,396.53600360900595,0.40000000596,93.83679609456541,-0.603859961033,4.83931970596,0.659028112888,0
32.9,14.388478330154614,-0.34776918766828696,396.50311530474016,0.40000000596,184.67702555505704,-1.2042127341364772,6.375681576201924,0.5056436285626468,0
33.0,14.43301658620652,-0.4121255680405596,396.4702270004743,0.40000000596,275.5172550155551,-1.29948782921,6.61951065063,0.48154091835,0
33.1,14.47955061898247,-0.4571964332131165,396.4336283747576,0.39979438888351054,351.6594852448781,-1.29948782921,6.61951065063,0.48154091835,0
33.2,14.548730016467173,-0.28344145477680227,396.35493005851316,0.3972557083779524,261.0287748595881,-1.29948782921,6.61951065063,0.48154091835,0
33.300000000000004,14.617909413951875,-0.10968647634048811,396.2762317422688,0.39471702787239427,170.39806447429805,-2.21418642998,2.03849291801,-0.66369342804,0
33.4,14.687088811436572,0.06406850209581377,396.19753342602445,0.3921783473668363,79.76735408901447,-2.21418642998,2.03849291801,-0.66369342804,0
33.5,14.753931064699628,0.18349116439903673,396.1224432498988,0.38842478223155164,2.031504080535457,-2.21418642998,2.03849291801,-0.66369342804,0
33.6,14.806643761254808,-0.025560357630311198,396.06916662723137,0.3773264494476708,2.2534708155928174,-2.21418642998,2.03849291801,-0.66369342804,0
33.7,14.859356457809987,-0.23461187965965913,396.0158900045639,0.36622811666378996,2.4754375506501782,-3.81323623657,-0.968068540096,2.67958641052,0
33.800000000000004,14.912069154365168,-0.44366340168900703,395.96261338189646,0.35512978387990907,2.697404285707539,-3.81323623657,-0.968068540096,2.67958641052,0
33.9,14.964781850920344,-0.6527149237183401,395.909336759229,0.34403145109602906,2.919371020764884,-3.81323623657,-0.968068540096,2.67958641052,0
34.0,14.979558442544471,-0.7287299845995786,395.89506675400344,0.33152861843185544,2.8305723375120517,-3.81323623657,-0.968068540096,2.67958641052,0
34.1,14.972693616424609,-0.7288517075611559,395.9030488620187,0.31822456042612296,2.5644912408364573,-3.0770969794523775,0.7275090909304459,3.4824466931381,0
34.2,14.965828790304748,-0.7289734305227332,395.91103097003395,0.3049205024203905,2.2984101441608624,-2.76013827324,1.32870447636,3.82606577873,0
34.300000000000004,14.958963964184885,-0.7290951534843106,395.9190130780492,0.291616444414658,2.032329047485268,-2.76013827324,1.32870447636,3.82606577873,0
34.4,14.907897492526734,-0.15762657013199455,395.98605542310383,0.28207128976750717,1.7357099475846978,-2.76013827324,1.32870447636,3.82606577873,0
34.5,14.850717717894405,0.49289573796395836,396.0612660867437,0.2730460097721204,1.4348672930252873,-0.580086052418,1.51126050949,2.06305646896,0
34.6,14.793537943262075,1.1434180460599115,396.1364767503835,0.26402072977673363,1.1340246384658768,-0.580086052418,1.51126050949,2.06305646896,0
34.7,14.718302340010547,1.4253297108321845,396.22117350874544,0.2642656858270632,1.142189839819098,-0.580086052418,1.51126050949,2.06305646896,0
34.800000000000004,14.62856035453749,1.411092857818282,396.313491568723,0.2719585186931909,1.3986175918346242,0.3165198369757616,0.9151991676921917,1.969057698134679,0
34.9,14.53881836906444,1.3968560048043805,396.4058096287006,0.27965135155931803,1.6550453438501325,0.690497875214,0.666219830513,1.93004131317,0
35.0,14.449076383591382,1.3826191517904782,396.49812768867815,0.28734418442544574,1.911473095865659,0.690497875214,0.666219830513,1.93004131317,0
35.1,14.355918672022037,1.1563086217883936,396.56566874628066,0.2917836569280278,2.1783661658259104,0.690497875214,0.666219830513,1.93004131317,0
35.2,14.260959994820347,0.8181807525109555,396.6201459549409,0.29450777227397507,2.450777148352534,0.7982169452914547,1.3446821145054086,2.331386953867467,0
35.300000000000004,14.166001317618656,0.48005288323351736,396.67462316360115,0.29723188761992225,2.7231881308791572,0.897671818733,1.97048676014,2.70540976524,0
35.4,14.071042640416973,0.14192501395610324,396.72910037226137,0.2999560029658693,2.9955991134057616,0.897671818733,1.97048676014,2.70540976524,0
35.5,14.000487476781164,0.266111875086531,396.757099104073,0.30301331332999276,2.698669571721894,0.897671818733,1.97048676014,2.70540976524,0
35.6,13.930333033481396,0.39789022150146924,396.7846630434064,0.3060760949562479,2.3923911169986205,0.669686496258,2.69220781326,3.49571061134,0
35.7,13.86017859018163,0.5296685679164076,396.8122269827398,0.309138876582503,2.0861126622753474,0.669686496258,2.69220781326,3.49571061134,0
35.800000000000004,13.808480925140001,0.5423753917196654,396.8295292111571,0.31159132359292396,2.0,0.669686496258,2.69220781326,3.49571061134,0
35.9,13.764002194044306,0.5085101949593941,396.8428178131311,0.3138050525987723,2.0,0.6259593916106145,2.3131341656766553,3.32074986529254,0
36.0,13.719523462948606,0.4746449981991203,396.8561064151051,0.3160187816046208,2.0,0.533085048199,1.51819312572,2.95073199272,0
36.1,13.675044731852905,0.44077980143884665,396.86939501707906,0.3182325106104693,2.0,0.533085048199,1.51819312572,2.95073199272,0
36.2,13.635196249017746,0.37155856521263575,396.88044835442867,0.3204443873819063,2.0,0.533085048199,1.51819312572,2.95073199272,0
36.300000000000004,13.613687129319578,0.1623000760430725,396.88264831559883,0.32264892787295896,2.0,0.533085048199,1.51819312572,2.95073199272,0
36.4,13.592178009621414,-0.04695841312647592,396.884848276769,0.3248534683640115,2.0,-0.288999170065,0.0275982338935,2.74511861801,0
36.5,13.570668889923246,-0.2562169022960393,396.8870482379392,0.3270580088550642,2.0,-0.288999170065,0.0275982338935,2.74511861801,0
36.6,13.549159770225078,-0.4654753914656025,396.8892481991094,0.3292625493461169,2.0,-0.288999170065,0.0275982338935,2.74511861801,0
36.7,13.54016490336521,-0.5232817579778546,396.8617403794158,0.33434503831479834,1.7827485327282195,-0.288999170065,0.0275982338935,2.74511861801,0
36.800000000000004,13.537460646863899,-0.5049568281255414,396.8192991812419,0.34087420194625806,1.4562900398280925,-0.7083513399174091,-0.683046348762385,2.7453492892805915,0
36.9,13.534756390362588,-0.4866318982732295,396.77685798306806,0.34740336557771734,1.1298315469279883,-1.48991787434,-1.89549231529,2.74577856064,0
37.0,13.554004616775568,-0.4731603802228677,396.70878240137614,0.35487608158774336,44.64099265690539,-1.48991787434,-1.89549231529,2.74577856064,0
37.1,13.587747930835773,-0.4628935397359524,396.6237805960161,0.36297181935255074,117.09786076824541,-1.6499708034348899,-1.8366426547868806,2.51429815271647,0
37.2,13.621491244895978,-0.452626699249037,396.5387787906561,0.3710675571173581,189.5547288795854,-2.33247327805,-1.58662521839,1.53610503674,0
37.300000000000004,13.655234558956183,-0.4423598587621216,396.4537769852961,0.3791632948821655,262.01159699092545,-2.33247327805,-1.58662521839,1.53610503674,0
37.4,13.688977873016386,-0.43209301827520696,396.36877517993605,0.38725903264697226,334.4684651022603,-2.33247327805,-1.58662521839,1.53610503674,0
37.5,13.74661150162013,-0.5514274665305158,396.2691891456644,0.3881844865852029,293.8235197994742,-2.33247327805,-1.58662521839,1.53610503674,0
37.6,13.816473862830295,-0.7371009118127598,396.16213788378747,0.3854396881511777,195.2851620419383,-3.2998613412329174,-3.438168984584906,-0.13489096525237243,0
37.7,13.88633622404046,-0.9227743570950038,396.05508662191045,0.38269488971715254,96.74680428440246,-3.39428758621,-3.61846399307,-0.295919686556,0
37.800000000000004,13.95591525390657,-1.1059167706844366,395.94781898191957,0.380040046954658,0.0,-3.39428758621,-3.61846399307,-0.295919686556,0
37.9,14.010193929916595,-1.1523793522207628,395.82886657150357,0.38224295690697524,0.0,-3.39428758621,-3.61846399307,-0.295919686556,0
38.0,14.064472605926623,-1.1988419337570924,395.70991416108757,0.38444586685929266,0.0,-4.03520011902,-1.15616965294,0.484368801117,0
38.1,14.11875128193665,-1.245304515293422,395.5909617506715,0.3866487768116101,0.0,-4.03520011902,-1.15616965294,0.484368801117,0
38.2,14.173029957946678,-1.2917670968297514,395.4720093402555,0.3888516867639275,0.0,-4.03520011902,-1.15616965294,0.484368801117,0
38.300000000000004,14.222145994153811,-1.2378066907821332,395.35055102148397,0.3910809090009316,0.1080921115444963,-4.03520011902,-1.15616965294,0.484368801117,0
38.400000000000006,14.26564075991359,-1.0745020744287834,395.2263641783295,0.39333878101284897,0.33387885517939736,-4.017766605286514,-1.0672717534879042,0.4855808806221408,0
38.5,14.309135525673366,-0.9111974580754454,395.10217733517504,0.3955966530247662,0.5596655988142825,-3.44695687294,1.84186589718,0.749066591263,0
38.6,14.352630291433144,-0.7478928417220957,394.9779904920206,0.39785452503668356,0.7854523424491835,-3.44695687294,1.84186589718,0.749066591263,0
38.7,14.395516725537956,-0.6087925497613538,394.85411044610277,0.40000000596,1.0,-3.44695687294,1.84186589718,0.749066591263,0
38.800000000000004,14.426790459943636,-0.9317388212118232,394.7360869821148,0.40000000596,1.0,-3.44695687294,1.84186589718,0.749066591263,0
38.900000000000006,14.458064194349316,-1.2546850926622926,394.61806351812675,0.40000000596,1.0,-2.72630667686,3.22277855873,1.40501725674,0
39.0,14.487363618233982,-1.4479949828657146,394.51328299455196,0.40000000596,1.0853614503146667,-2.72630667686,3.22277855873,1.40501725674,0
39.1,14.513972177158443,-1.4646183832019526,394.4265517919673,0.40000000596,1.2870653569752333,-2.5476105145314385,3.3997878552340066,1.435928729968205,0
39.2,14.540580736082907,-1.4812417835381908,394.33982058938267,0.40000000596,1.4887692636358,-2.14475274086,3.75448274612,1.50897097588,0
39.300000000000004,14.567189295007369,-1.4978651838744288,394.253089386798,0.40000000596,1.6904731702963667,-2.14475274086,3.75448274612,1.50897097588,0
39.400000000000006,14.59379785393183,-1.514488584210667,394.16635818421344,0.40000000596,1.8921770769569335,-2.14475274086,3.75448274612,1.50897097588,0
39.5,14.614421811184682,-1.3882821420044054,394.08891510751295,0.39870495024241376,2.129505309316118,-2.14475274086,3.75448274612,1.50897097588,0
39.6,14.62817241431813,-1.0980346924790994,394.0221395040732,0.3959225145721125,2.4077483124867918,-1.6471224958913298,2.912184764816993,1.8736127287838307,0
39.7,14.641923017451575,-0.8077872429537934,393.9553639006334,0.39314007890181135,2.685991315657465,-1.2415804863,2.2254884243,2.1723446846,0
39.800000000000004,14.655673620585022,-0.5175397934284875,393.8885882971936,0.3903576432315101,2.964234318828139,-1.2415804863,2.2254884243,2.1723446846,0
39.900000000000006,14.64529640249866,-0.6153990503147473,393.85712412717595,0.3874584403140662,2.745845219519201,-1.2415804863,2.2254884243,2.1723446846,0
40.0,14.631360303301252,-0.7705044884428247,393.8308684338071,0.38454201409467315,2.454202319440067,-0.628295063972,2.14504861832,3.50615930557,0
40.1,14.617424204103843,-0.925609926570913,393.80461274043824,0.38162558787527995,2.162559419360912,-0.628295063972,2.14504861832,3.50615930557,0
40.2,14.593054717488808,-0.7989264122091062,393.7977990894798,0.3786970957535393,2.0,-0.628295063972,2.14504861832,3.50615930557,0
