t_sec,airspeed,climb,altitude,throttle,heading,pitch,roll,yaw,is_boundary
0.0,17.1747131348,-6.13291454315,417.359985352,0.490000009537,287.0,-6.27518701553,-2.16907048225,-75.6908340454,0
0.1,17.134214779798786,-4.897935177225911,417.30612794867386,0.48192065905254927,288.34655836057186,-4.15703429738554,5.053612995877755,-73.57594800615601,0
0.2,17.093716424797567,-3.662955811301822,417.2522705453477,0.4738413085680985,289.6931167211437,-3.29297590256,8.51041698456,-72.9212799072,0
0.30000000000000004,17.05321806979635,-2.4279764453777326,417.19841314202154,0.46576195808364773,291.03967508171564,-3.29297590256,8.51041698456,-72.9212799072,0
0.4,16.999895813949482,-1.4082519892315901,417.17386545969646,0.44905486606651585,292.2189028368705,-3.29297590256,8.51041698456,-72.9212799072,0
0.5,16.91468840735349,-0.9237340455472667,417.2221930189833,0.41089588957951656,292.98208233628174,-0.7602098788506133,22.44573772283435,-68.57036963169485,0
0.6000000000000001,16.829481000757504,-0.4392161018629428,417.2705205782701,0.3727369130925172,293.74526183569293,-0.107982300222,26.2490787506,-67.630645752,0
0.7000000000000001,16.744273594161516,0.04530184182138042,417.318848137557,0.33457793660551793,294.5084413351042,-0.107982300222,26.2490787506,-67.630645752,0
0.8,16.664652437883408,0.567489105994376,417.32336406367557,0.3033470920550688,295.3801662624314,-0.107982300222,26.2490787506,-67.630645752,0
0.9,16.595140851266738,1.1578474326706552,417.24859303838815,0.28465425215006007,296.44832842448733,1.21083581448,36.1547775269,-64.6177444458,0
1.0,16.525629264650068,1.7482057593469345,417.17382201310073,0.2659614122450513,297.5164905865432,1.21083581448,36.1547775269,-64.6177444458,0
1.1,16.456117678033397,2.3385640860232146,417.0990509878133,0.24726857234004251,298.5846527485991,1.21083581448,36.1547775269,-64.6177444458,0
1.2000000000000002,16.419529257565483,2.0552179921411184,416.98530936929916,0.2256224739286835,299.6390010007257,1.21083581448,36.1547775269,-64.6177444458,0
1.3,16.403887887086942,1.2159858060563362,416.84677308308056,0.2020973930013494,300.6845602846063,-1.47352445126,39.9803733826,-60.3588600159,0
1.4000000000000001,16.3882465166084,0.3767536199715522,416.70823679686197,0.17857231207401525,301.7301195684868,-1.47352445126,39.9803733826,-60.3588600159,0
1.5,16.372605146129857,-0.46247856611323046,416.5697005106434,0.15504723114668112,302.7756788523674,-1.47352445126,39.9803733826,-60.3588600159,0
1.6,16.354309786101382,-0.7733257751404548,416.3893603263576,0.12557519027280353,303.6106203584401,-3.030668766102896,38.43100675800384,-58.45522129712084,0
1.7000000000000002,16.33528948898661,-0.9398446593934215,416.19760140982345,0.09447873764641176,304.38803163114403,-4.70434951782,36.5303192139,-56.7121505737,0
1.8,16.316269191871836,-1.106363543646388,416.0058424932893,0.06338228502002008,305.165442903848,-4.70434951782,36.5303192139,-56.7121505737,0
1.9000000000000001,16.297248894757065,-1.2728824278993547,415.8140835767552,0.032285832393628325,305.94285417655186,-4.70434951782,36.5303192139,-56.7121505737,0
2.0,16.260354240246595,-1.6376763600118762,415.4772157272672,0.022664311428676073,306.7335688064701,-9.60528755188,24.7156543732,-53.0806732178,0
2.1,16.2220414351459,-2.018201424154757,415.1288349425525,0.014746610429755665,307.52533892406086,-9.60528755188,24.7156543732,-53.0806732178,0
2.2,16.183728630045202,-2.398726488297638,414.78045415783777,0.006828909430835257,308.3171090416516,-9.60528755188,24.7156543732,-53.0806732178,0
2.3000000000000003,16.146434745917144,-2.7706479738889715,414.41991500216545,0.0,309.1006696158751,-9.60528755188,24.7156543732,-53.0806732178,0
2.4000000000000004,16.115531542285968,-3.08860774593313,413.98311844651886,0.0,309.83273986838196,-13.8371667862,14.043545723,-49.985118866,0
2.5,16.084628338654788,-3.406567517977287,413.5463218908723,0.0,310.5648101208888,-13.8371667862,14.043545723,-49.985118866,0
2.6,16.053725135023612,-3.724527290021446,413.1095253352258,0.0,311.29688037339565,-13.8371667862,14.043545723,-49.985118866,0
2.7,16.02503486429637,-4.045441459620348,412.6646253396597,0.0,312.0116944443866,-13.8371667862,14.043545723,-49.985118866,0
2.8000000000000003,16.050089772079435,-4.438108651503742,412.02291828128295,0.0,312.3074101530511,-17.8101425171,5.57141017914,-47.2588729858,0
2.9000000000000004,16.0751446798625,-4.830775843387136,411.38121122290624,0.0,312.60312586171557,-17.8101425171,5.57141017914,-47.2588729858,0
3.0,16.10019958764557,-5.223443035270529,410.7395041645295,0.0,312.89884157038006,-17.8101425171,5.57141017914,-47.2588729858,0
3.1,16.164865561771972,-5.600557075994167,410.11695878484176,0.0,313.0,-17.8101425171,5.57141017914,-47.2588729858,0
3.2,16.25012697846697,-5.9695843858862006,409.50437635968643,0.0,313.0,-20.2623291016,5.65966367722,-46.9781112671,0
3.3000000000000003,16.335388395161967,-6.3386116957782335,408.89179393453105,0.0,313.0,-20.2623291016,5.65966367722,-46.9781112671,0
3.4000000000000004,16.4175441558743,-6.656044737340027,408.2313308038428,0.0016887846586611062,313.08443923482025,-20.2623291016,5.65966367722,-46.9781112671,0
3.5,16.49456148141122,-6.888112946249071,407.49164708243023,0.006171732786225066,313.30858664620814,-21.7604751587,2.59400177002,-46.8270645142,0
3.6,16.571578806948146,-7.120181155158116,406.75196336101766,0.010654680913789046,313.53273405759603,-21.7604751587,2.59400177002,-46.8270645142,0
3.7,16.64859613248507,-7.352249364067163,406.0122796396051,0.015137629041353027,313.756881468984,-21.7604751587,2.59400177002,-46.8270645142,0
3.8000000000000003,16.725613458021996,-7.584317572976207,405.27259591819245,0.019620577168917006,313.98102888037187,-21.7604751587,2.59400177002,-46.8270645142,0
3.9000000000000004,16.841197173755788,-7.806579068715101,404.4995497027707,0.061519504539973416,313.30800826339186,-22.408983763422473,1.5312720167908747,-46.392596626352905,0
4.0,16.96034683561218,-8.027933810914808,403.7234187066488,0.10687800812300266,312.5520332180676,-23.2540493011,-0.116484716535,-45.9199256897,0
4.1000000000000005,17.079496497468575,-8.249288553114518,402.9472877105269,0.1522365117060323,311.7960581727434,-23.2540493011,-0.116484716535,-45.9199256897,0
4.2,17.19864615932497,-8.470643295314225,402.17115671440496,0.19759501528906157,311.04008312741917,-23.2540493011,-0.116484716535,-45.9199256897,0
4.3,17.332457882648075,-8.47999452098398,401.42072793249304,0.24610300835650661,311.3546384752535,-22.208350171775706,-0.15595677119726173,-47.59590160238398,0
4.4,17.46709054173439,-8.477475569391155,400.6717382297233,0.29478734283129554,311.72913332663836,-21.8109054565,-0.172915786505,-48.0723266602,0
4.5,17.63088868113877,-8.486293360789347,399.941669730039,0.33941667300558737,312.0,-21.8109054565,-0.172915786505,-48.0723266602,0
4.6000000000000005,17.870920493482753,-8.524743496587572,399.2610580811216,0.37344690217960474,312.0,-19.0158843994,-2.60692286491,-47.5847206116,0
4.7,18.110952305826732,-8.563193632385797,398.58044643220416,0.40747713135362174,312.0,-19.0158843994,-2.60692286491,-47.5847206116,0
4.800000000000001,18.350984118170718,-8.601643768184022,397.89983478328674,0.4415073605276391,312.0,-19.0158843994,-2.60692286491,-47.5847206116,0
4.9,18.560006446670027,-8.612460026682326,397.4163709201424,0.46577911792676663,311.60552167151275,-16.026824755165567,-1.719677024005422,-47.43008658008616,0
5.0,18.758716452158584,-8.614086533097566,396.9984693107245,0.48680565803888476,311.0798580590498,-13.0070829391,-0.625249028206,-47.3071174622,0
5.1000000000000005,18.957426457647145,-8.615713039512807,396.5805677013065,0.5078321981510031,310.5541944465868,-13.0070829391,-0.625249028206,-47.3071174622,0
5.2,19.156136463135706,-8.617339545928047,396.1626660918885,0.5288587382631211,310.02853083412384,-13.0070829391,-0.625249028206,-47.3071174622,0
5.300000000000001,19.232569577506275,-7.754461828975107,396.02027693573444,0.5359854346061137,309.7007274456851,-10.724152990089305,-0.31441727064646313,-48.06874601402536,0
5.4,19.301985126651466,-6.841969546918064,395.8936996520733,0.5423144081792469,309.3842794083262,-5.92495393753,0.408170759678,-49.4790916443,0
5.5,19.371400675796654,-5.929477264861022,395.76712236841206,0.5486433817523803,309.0678313709673,-5.92495393753,0.408170759678,-49.4790916443,0
5.6000000000000005,19.328932251818905,-4.940191766537989,395.7541621022454,0.5535435703454107,309.35435618039054,-4.538818951132058,0.21769824885849884,-49.83626164870818,0
5.7,19.25593794477647,-3.9299543778372383,395.7722005546028,0.5580539361424696,309.80539319025047,0.00971284881234,-0.599573135376,-50.7162284851,0
5.800000000000001,19.182943637734034,-2.9197169891364787,395.79023900696023,0.5625643019395284,310.25643020011034,0.00971284881234,-0.599573135376,-50.7162284851,0
5.9,19.109949330691602,-1.9094796004357284,395.8082774593177,0.5670746677365873,310.7074672099702,0.00971284881234,-0.599573135376,-50.7162284851,0
6.0,19.003831803001226,-1.0228398046531935,395.8639468904028,0.569999992847,311.0,0.00971284881234,-0.599573135376,-50.7162284851,0
6.1000000000000005,18.836582602215323,-0.3643097004365161,395.98906743900744,0.569999992847,311.0,4.54200172424,1.51578402519,-48.7333297729,0
6.2,18.669333401429423,0.29422040378015546,396.11418798761207,0.569999992847,311.0,4.54200172424,1.51578402519,-48.7333297729,0
6.300000000000001,18.498893108702397,0.9284948950842857,396.24933003804733,0.5693327680765697,311.0,4.54200172424,1.51578402519,-48.7333297729,0
6.4,18.288840702810376,1.2616761865353077,396.5088724103538,0.5603830545529425,311.0,6.985989608482636,3.287653525388003,-48.36085912516746,0
6.5,18.078788296918354,1.5948574779863296,396.7684147826602,0.5514333410293151,311.0,7.99358654022,4.11468648911,-48.2323226929,0
6.6000000000000005,17.86873589102633,1.9280387694373544,397.02795715496666,0.5424836275056876,311.0,7.99358654022,4.11468648911,-48.2323226929,0
6.7,17.658683485134308,2.2612200608883763,397.2874995272731,0.5335339139820603,311.0,7.99358654022,4.11468648911,-48.2323226929,0
6.800000000000001,17.469994327070324,2.7431214587429498,397.58780177346796,0.5252141453424077,311.0,7.99358654022,4.11468648911,-48.2323226929,0
6.9,17.29524528803246,3.3220669016570725,397.9147009817946,0.5173054334265828,311.0,10.2013864517,4.41392469406,-48.9888191223,0
7.0,17.120496248994602,3.9010123445711953,398.2416001901213,0.5093967215107577,311.0,10.2013864517,4.41392469406,-48.9888191223,0
7.1000000000000005,16.94574720995674,4.479957787485323,398.5684993984479,0.5014880095949326,311.0,10.2013864517,4.41392469406,-48.9888191223,0
7.2,16.797953042937706,4.575932003029806,398.83336243985315,0.4940769571067656,311.0,9.973679107364722,3.8298551034078674,-48.9529216982369,0
7.300000000000001,16.656405717181453,4.559976746612335,399.0838484852542,0.48678123810804474,311.0,9.35871505737,2.07697892189,-48.8673591614,0
7.4,16.514858391425204,4.544021490194865,399.33433453065516,0.479485519109324,311.0,9.35871505737,2.07697892189,-48.8673591614,0
7.5,16.37331106566895,4.528066233777396,399.58482057605613,0.47218980011060324,311.0,9.35871505737,2.07697892189,-48.8673591614,0
7.6000000000000005,16.233374405030784,4.282157280339227,399.8226705975397,0.46653900731405706,310.8269505181352,9.1906568141056,1.7987732867935038,-48.79824498712587,0
7.7,16.094128518663485,3.937626896779449,400.0551013421604,0.4615936825165245,310.5796844109045,8.23729515076,-0.110239997506,-48.5365791321,0
7.800000000000001,15.954882632296187,3.593096513219668,400.28753208678114,0.45664835771899187,310.3324183036738,8.23729515076,-0.110239997506,-48.5365791321,0
7.9,15.81563674592889,3.2485661296598902,400.5199628314018,0.4517030329214593,310.08515219644306,8.23729515076,-0.110239997506,-48.5365791321,0
8.0,15.712858678924462,3.1250290509756176,400.73043195387214,0.4461638960068312,310.0,7.457312793666397,-0.36940783546517647,-48.745181230563915,0
8.1,15.629235753530956,3.1175712477707407,400.9293654816826,0.44031285244705765,310.0,6.22101068497,-0.796363711357,-49.0211753845,0
8.200000000000001,15.54561282813745,3.1101134445658634,401.12829900949316,0.4344618088872839,310.0,6.22101068497,-0.796363711357,-49.0211753845,0
8.3,15.469860421680705,3.054555645216496,401.2943774694366,0.430000007153,310.04958544802787,6.22101068497,-0.796363711357,-49.0211753845,0
8.4,15.419385612253821,2.8445159966463196,401.35493592839856,0.430000007153,310.2584235430368,3.89364409447,-2.81695103645,-49.4226341248,0
8.5,15.368910802826935,2.6344763480761433,401.4154943873606,0.430000007153,310.46726163804584,3.89364409447,-2.81695103645,-49.4226341248,0
8.6,15.318435993400051,2.424436699505967,401.47605284632255,0.430000007153,310.6760997330548,3.89364409447,-2.81695103645,-49.4226341248,0
8.700000000000001,15.267961183973165,2.2143970509357866,401.5366113052845,0.430000007153,310.88493782806376,3.89364409447,-2.81695103645,-49.4226341248,0
8.8,15.234310742260156,1.9391971755170716,401.5931791261791,0.42910764196814144,310.643054649442,3.89364409447,-2.81695103645,-49.4226341248,0
8.9,15.221303640833018,1.5840463171660355,401.64485047185485,0.4271203531294738,309.8481407249475,1.38823926449,0.538678884506,-48.0311965942,0
9.0,15.20829653940588,1.2288954588149998,401.6965218175306,0.42513306429080616,309.053226800453,1.38823926449,0.538678884506,-48.0311965942,0
9.1,15.195289437978742,0.873744600463964,401.7481931632064,0.4231457754521385,308.2583128759585,1.38823926449,0.538678884506,-48.0311965942,0
9.200000000000001,15.182282336551605,0.5185937421129216,401.79986450888214,0.42115848661347083,307.463398951464,1.38823926449,0.538678884506,-48.0311965942,0
9.3,15.175913598757585,0.3902479688375362,401.87708231221706,0.41775740642815873,307.0,1.38823926449,0.538678884506,-48.0311965942,0
9.4,15.178824112271291,0.5789353529185066,401.99000951831175,0.4123800974721367,307.0,0.5562298594100638,0.6672254284270259,-52.2404215770033,0
9.5,15.181734625785,0.767622736999477,402.1029367244065,0.40700278851611477,307.0,0.464098870754,0.677758097649,-52.5797157288,0
9.600000000000001,15.184645139298706,0.956310121080451,402.2158639305012,0.4016254795600927,307.0,0.464098870754,0.677758097649,-52.5797157288,0
9.700000000000001,15.216034349161953,0.9647682144650225,402.2861446384142,0.40000000596,307.4252737926917,-1.037930500073546,1.3291703794703786,-52.29169885684876,0
9.8,15.259761885388077,0.8951424032540898,402.337948854063,0.40000000596,308.03479642821685,-1.92709648609,1.75203037262,-52.1454467773,0
9.9,15.303489421614202,0.825516592043157,402.3897530697117,0.40000000596,308.64431906374205,-1.92709648609,1.75203037262,-52.1454467773,0
10.0,15.354667693514177,0.7445091814866911,402.4426609452176,0.39866610654738155,308.8666103290523,-1.92709648609,1.75203037262,-52.1454467773,0
10.100000000000001,15.416285875988088,0.6475539659674493,402.49711525999044,0.3954631580647176,308.54631612986213,-3.357489592458274,5.4557626903000385,-50.760050925501595,0
10.200000000000001,15.477904058461998,0.5505987504482093,402.5515695747633,0.39226020958205376,308.22602193067195,-3.80866789818,6.75742721558,-50.3808555603,0
10.3,15.535962597400415,0.5247874591892918,402.5998803006438,0.389999985695,308.2965007838717,-3.80866789818,6.75742721558,-50.3808555603,0
10.4,15.585486733623776,0.6695468709551032,402.63346150060414,0.389999985695,309.3038753026153,-4.85727119446,3.99236631393,-51.4879684448,0
10.5,15.635010869847136,0.8143062827209147,402.6670427005645,0.389999985695,310.3112498213589,-4.85727119446,3.99236631393,-51.4879684448,0
10.600000000000001,15.694970115171252,0.8314458846953294,402.6632582866439,0.39130456763812493,311.4566034351488,-4.85727119446,3.99236631393,-51.4879684448,0
10.700000000000001,15.777486278949777,0.5727177774932395,402.578702977357,0.3954291822444481,312.90021777293504,-7.42395877838,5.52457237244,-48.3816604614,0
10.8,15.860002442728302,0.31398967029114966,402.4941476680701,0.3995537968507713,314.3438321107212,-7.42395877838,5.52457237244,-48.3816604614,0
10.9,15.942518606506827,0.05526156308905983,402.4095923587833,0.40367841145709454,315.78744644850747,-7.42395877838,5.52457237244,-48.3816604614,0
11.0,16.02503477028535,-0.2034665441130301,402.3250370494964,0.40780302606341773,317.23106078629365,-7.42395877838,5.52457237244,-48.3816604614,0
11.100000000000001,16.12746686806548,-0.5010463877927183,402.2372465355795,0.4134664404245981,318.11554812876216,-7.42395877838,5.52457237244,-48.3816604614,0
11.200000000000001,16.252597509314658,-0.8429062451144466,402.1457688015242,0.42088365217850876,318.36278851073547,-8.61172771454,13.8437328339,-41.719543457,0
11.3,16.37772815056384,-1.1847661024361749,402.0542910674688,0.42830086393241934,318.61002889270884,-8.61172771454,13.8437328339,-41.719543457,0
11.4,16.502858791813022,-1.526625959757903,401.96281333341346,0.4357180756863299,318.85726927468215,-8.61172771454,13.8437328339,-41.719543457,0
11.5,16.62637742502798,-1.6467260211535408,401.8860713717825,0.44239308185970205,319.11965414799664,-8.61172771454,13.8437328339,-41.719543457,0
11.600000000000001,16.747694509761143,-1.4639647247399006,401.8294543206484,0.4480544444690694,319.4027221266132,-6.67397785187,19.6259670258,-40.8620071411,0
11.700000000000001,16.869011594494303,-1.2812034283262637,401.77283726951424,0.4537158070784367,319.6857901052297,-6.67397785187,19.6259670258,-40.8620071411,0
11.8,16.990328679227463,-1.0984421319126267,401.71622021838016,0.4593771696878039,319.96885808384627,-6.67397785187,19.6259670258,-40.8620071411,0
11.9,17.099587596466872,-0.9886192614434385,401.661024265822,0.4658760712798366,321.5669500536963,-4.561165880741019,26.966293631078784,-39.894896295206394,0
12.0,17.207355939696637,-0.8878126964844503,401.60600398279274,0.4724785055056852,323.3275991106328,-4.48694801331,27.4255199432,-39.8939247131,0
12.100000000000001,17.3151242829264,-0.7870061315254602,401.5509836997635,0.4790809397315339,325.0882481675693,-4.48694801331,27.4255199432,-39.8939247131,0
12.200000000000001,17.42289262615617,-0.686199566566472,401.49596341673424,0.4856833739573825,326.84889722450583,-4.48694801331,27.4255199432,-39.8939247131,0
12.3,17.55445389651241,-0.7679905006325809,401.4133457439249,0.4947436708031017,328.7906101796034,-4.48694801331,27.4255199432,-39.8939247131,0
12.4,17.73094711918508,-1.1946092095950294,401.27861154946754,0.5084455388791826,331.0742547682134,-6.103807029862701,33.057595000744726,-34.09013359954349,0
12.5,17.907440341857743,-1.6212279185574778,401.14387735501015,0.5221474069552635,333.3578993568234,-6.985019207,36.377822876,-31.2285289764,0
12.600000000000001,18.083933564530412,-2.047846627519934,401.0091431605528,0.5358492750313446,335.64154394543345,-6.985019207,36.377822876,-31.2285289764,0
12.700000000000001,18.260426787203077,-2.4744653364823823,400.8744089660955,0.5495511431074256,337.92518853404346,-6.985019207,36.377822876,-31.2285289764,0
12.8,18.463561297981553,-2.38608461126188,400.75980217930544,0.5544077252251413,340.64463050466884,-5.821398532889441,41.884633895053,-22.10489192215322,0
12.9,18.667598128540423,-2.2802612543446257,400.6458770922138,0.5589647243627921,343.3788325948679,-5.56557321548,43.3662071228,-20.6131210327,0
13.0,18.871634959099293,-2.1744378974273717,400.5319520051222,0.5635217235004429,346.11303468506696,-5.56557321548,43.3662071228,-20.6131210327,0
13.100000000000001,19.07567178965817,-2.068614540510116,400.41802691803053,0.5680787226380939,348.8472367752661,-5.56557321548,43.3662071228,-20.6131210327,0
13.200000000000001,19.275647890005445,-2.0050731344925965,400.3223445567056,0.5725078824549568,306.48807380680176,-5.56557321548,43.3662071228,-20.524372916973206,0
13.3,19.472663989460038,-1.972352444426613,400.2399599230652,0.5768438559521346,231.25886188842765,-4.43013429642,44.2914886475,-9.64901638031,0
13.4,19.669680088914635,-1.9396317543606292,400.15757528942476,0.5811798294493126,156.0296499700535,-4.43013429642,44.2914886475,-9.64901638031,0
13.5,19.86669618836923,-1.9069110642946454,400.07519065578435,0.5855158029464904,80.80043805167935,-4.43013429642,44.2914886475,-9.64901638031,0
13.600000000000001,20.06371228782383,-1.8741903742286612,399.99280602214395,0.5898517764436684,5.571226133303867,-4.43013429642,44.2914886475,-9.64901638031,0
13.700000000000001,20.191342068362676,-1.083766967809273,399.97660781097767,0.5799653097341441,5.341423842237596,-2.5845000633657413,43.677205442292696,2.4048570541038323,0
13.8,20.316516400755496,-0.26652992205605797,399.96275180978733,0.5695755382668055,7.765706163240497,-2.29376864433,43.5630760193,3.73253536224,0
13.9,20.435777215144117,0.45192777237988524,399.9574469068647,0.5595183720918696,10.216733838157744,-2.29376864433,43.5630760193,3.73253536224,0
14.0,20.485494147002314,0.008725081313012972,400.0527042366113,0.55337269538351,12.982290994431425,-0.0334719829261,38.3494033813,10.2726182938,0
14.100000000000001,20.53521107886051,-0.4344776097538671,400.14796156635794,0.5472270186751502,15.747848150705156,-0.0334719829261,38.3494033813,10.2726182938,0
14.200000000000001,20.584928010718706,-0.8776803008207394,400.24321889610457,0.5410813419667907,18.51340530697884,-0.0334719829261,38.3494033813,10.2726182938,0
14.3,20.58827251337828,-0.3786786836108672,400.37445199465327,0.5438802732233758,21.134140506286503,0.3343858785971282,38.798234279453496,14.639409242486263,0
14.4,20.581715765659933,0.321498522728635,400.5133664914079,0.5485890203883306,23.72395391691669,0.896938204765,39.6609687805,19.7787532806,0
14.5,20.575159017941587,1.021675729068137,400.65228098816254,0.5532977675532854,26.313767327546877,0.896938204765,39.6609687805,19.7787532806,0
14.600000000000001,20.56860227022324,1.7218529354076515,400.7911954849171,0.5580065147182404,28.90358073817711,0.896938204765,39.6609687805,19.7787532806,0
14.700000000000001,20.5732024842402,1.82998815595445,400.94456482591465,0.5575115493905044,31.244227683367754,1.0950692645216014,41.662629366393496,22.95347268232655,0
14.8,20.585993910041246,1.5034583300703237,401.108546616189,0.5531961254018509,33.4019417355064,1.58990597725,47.0289649963,30.1462974548,0
14.9,20.598785335842294,1.1769285041861974,401.2725284064633,0.5488807014131973,35.55965578764505,1.58990597725,47.0289649963,30.1462974548,0
15.0,20.611576761643338,0.8503986783020712,401.4365101967377,0.5445652774245439,37.7173698397837,1.58990597725,47.0289649963,30.1462974548,0
15.100000000000001,20.624368187444386,0.5238688524179391,401.60049198701205,0.5402498534358903,39.87508389192239,1.58990597725,47.0289649963,30.1462974548,0
15.200000000000001,20.63531258849085,1.082565751500256,401.782551054141,0.5311504796710194,42.21238425991161,2.5670633316,47.6054077148,40.9442825317,0
15.3,20.646143489253365,1.6956601265206845,401.96572097593014,0.5217571306052439,44.56072026659064,2.5670633316,47.6054077148,40.9442825317,0
15.4,20.65697439001588,2.308754501541113,402.1488908977193,0.5123637815394684,46.90905627326968,2.5670633316,47.6054077148,40.9442825317,0
15.5,20.667805290778393,2.9218488765615414,402.3320608195084,0.5029704324736928,49.25739227994871,2.5670633316,47.6054077148,40.9442825317,0
15.600000000000001,20.66340833788576,2.6929720556675516,402.5020814786221,0.4932741588754356,51.569362866709014,2.5670633316,47.6054077148,41.25171001235709,0
15.700000000000001,20.65196889730807,2.074705376381046,402.666020944512,0.4834377905312074,53.86451538916819,2.57993793488,47.3802108765,50.9240036011,0
15.8,20.640529456730384,1.4564386970945407,402.82996041040195,0.47360142218697926,56.15966791162736,2.57993793488,47.3802108765,50.9240036011,0
15.9,20.64610030138835,1.3208656898794533,402.95845342444477,0.469999998808,58.467205543309646,2.57993793488,47.3802108765,50.9240036011,0
16.0,20.661496611912057,1.4641057732645941,403.066471890421,0.469999998808,60.781897050792914,1.19921505451,47.0971565247,57.7007064819,0
16.1,20.676892922435762,1.6073458566497372,403.17449035639714,0.469999998808,63.09658855827622,1.19921505451,47.0971565247,57.7007064819,0
16.2,20.692289232959467,1.7505859400348753,403.2825088223733,0.469999998808,65.41128006575944,1.19921505451,47.0971565247,57.7007064819,0
16.3,20.707685543483173,1.8938260234200186,403.39052728834946,0.469999998808,67.72597157324275,1.19921505451,47.0971565247,57.7007064819,0
16.400000000000002,20.731639669768544,1.8952823222964366,403.4610622246435,0.4663063374269413,70.10809864549469,1.19921505451,47.0971565247,57.7007064819,0
16.5,20.76607067445312,1.7231602793801324,403.48570807038107,0.45809072298975917,72.5727834908442,-2.05874800682,48.6577262878,69.7737350464,0
16.6,20.800501679137696,1.551038236463822,403.51035391611856,0.44987510855257673,75.03746833619381,-2.05874800682,48.6577262878,69.7737350464,0
16.7,20.83493268382227,1.3789161935475176,403.5349997618561,0.4416594941153946,77.50215318154332,-2.05874800682,48.6577262878,69.7737350464,0
16.8,20.869363688506848,1.2067941506312072,403.55964560759367,0.43344387967821224,79.96683802689292,-2.05874800682,48.6577262878,69.7737350464,0
16.900000000000002,20.915766744531982,1.0733726179747003,403.5433284075899,0.430000007153,82.26247915818789,-2.05874800682,48.6577262878,69.7737350464,0
17.0,20.970810296929887,0.9678821064115823,403.4974472641919,0.430000007153,84.43611767217186,-4.8733458519,46.3571548462,81.6159667969,0
17.1,21.025853849327792,0.8623915948484608,403.4515661207939,0.430000007153,86.60975618615592,-4.8733458519,46.3571548462,81.6159667969,0
17.2,21.080897401725696,0.756901083285343,403.40568497739594,0.430000007153,88.78339470013991,-4.8733458519,46.3571548462,81.6159667969,0
17.3,21.128411764196894,0.18933505781971838,403.35626819498316,0.42208946345943393,90.79105394499572,-4.845602126494208,46.284518769198556,82.42886672437805,0
17.400000000000002,21.16635482628551,-0.9656332760014706,403.3023568170849,0.404122832641267,92.58771606299301,-4.32116174698,42.0805473328,90.0447998047,0
17.5,21.196929243079644,-1.8231781274914742,403.2510559972361,0.3880169608074234,94.34702942772492,-4.32116174698,42.0805473328,90.0447998047,0
17.6,21.200429752192324,-1.5879283632652073,403.2093469008054,0.3787478974974923,95.96911584537064,-4.495788782166576,37.23290364988623,93.84781055498092,0
17.7,21.203930261305,-1.3526785990389487,403.16763780437464,0.36947883418756156,97.5912022630163,-4.5163693428,36.4674682617,94.1232223511,0
17.8,21.20743077041768,-1.1174288348126815,403.12592870794384,0.3602097708776305,99.21328868066202,-4.5163693428,36.4674682617,94.1232223511,0
17.900000000000002,21.210931279530357,-0.8821790705864145,403.0842196115131,0.3509407075676994,100.83537509830772,-4.5163693428,36.4674682617,94.1232223511,0
18.0,21.18284119304746,-0.5982327016667948,403.0356860678427,0.3468353166157875,102.26587217682072,-5.51841831207,22.316881406323052,101.488349915,0
18.1,21.151182848578053,-0.30878589676814105,402.9863816812075,0.3433131788372903,103.67472863170511,-5.51841831207,22.2655277252,101.488349915,0
18.2,21.11976007590744,-0.04158477201577984,402.9374031841885,0.33981436197566134,105.03712835547705,-5.51841831207,22.2655277252,101.488349915,0
18.3,21.09207237815095,-0.12709684251230874,402.8935917833016,0.33668530657111406,105.6629400332231,-5.749672103784646,15.538531314684437,105.26718842319896,0
18.400000000000002,21.064384680394458,-0.21260891300883764,402.8497803824146,0.33355625116656684,106.28875171096914,-5.77026891708,14.7468976974,105.476074219,0
18.5,21.03669698263797,-0.2981209835053635,402.8059689815277,0.3304271957620197,106.91456338871517,-5.77026891708,14.7468976974,105.476074219,0
18.6,21.000001962258388,-0.4722761627717821,402.74959481321616,0.33179976852279336,107.35995142524435,-5.450377291681723,12.149969137281296,107.26896506106353,0
18.7,20.961882828944233,-0.6604463610446203,402.6912343943469,0.3338840762979674,107.7768133778404,-5.38838529587,11.6082582474,107.576309204,0
18.8,20.92376369563008,-0.8486165593174653,402.63287397547765,0.3359683840731415,108.19367533043646,-5.38838529587,11.6082582474,107.576309204,0
18.900000000000002,20.885644562315925,-1.0367867575903102,402.57451355660845,0.3380526918483156,108.61053728303253,-5.38838529587,11.6082582474,107.576309204,0
19.0,20.847991588577482,-1.2108787160592351,402.5143889461351,0.34017500152408237,109.08749905748027,-5.38838529587,11.6082582474,107.576309204,0
19.1,20.81696477687354,-1.1848574451491418,402.42918747349336,0.3428374840592453,110.41874159453464,-4.991743577095044,12.018578153807034,108.76967434092961,0
19.200000000000003,20.785937965169595,-1.1588361742390485,402.34398600085154,0.34549996659440824,111.749984131589,-4.7307510376,12.314491272,109.523651123,0
19.3,20.754911153465653,-1.1328149033289563,402.2587845282098,0.3481624491295711,113.08122666864331,-4.7307510376,12.314491272,109.523651123,0
19.400000000000002,20.71937257515516,-1.1635025283476768,402.16732369822927,0.3519594735641028,114.26126392616615,-4.7307510376,12.314491272,109.523651123,0
19.5,20.673784056683942,-1.3205089682266353,402.0619201774616,0.35828368506144453,115.10449209230745,-5.99606657028,14.3423080444,114.491950989,0
19.6,20.628195538212726,-1.4775154081055994,401.9565166566939,0.36460789655878645,115.94772025844878,-5.99606657028,14.3423080444,114.491950989,0
19.700000000000003,20.58260701974151,-1.6345218479845633,401.85111313592625,0.3709321080561284,116.7909484245901,-5.99606657028,14.3423080444,114.491950989,0
19.8,20.537018501270293,-1.791528287863522,401.7457096151586,0.3772563195534701,117.6341765907314,-5.99606657028,14.3423080444,114.491950989,0
19.900000000000002,20.48777757408979,-1.8642184538558768,401.62347695301935,0.3845902795732294,118.4590284158842,-5.9348661709080135,16.824713877792817,115.67635712830281,0
20.0,20.43573789681969,-1.8722991530886717,401.48834853778374,0.39269798480950924,119.26979890729758,-5.75353479385,25.1873016357,118.638198853,0
20.1,20.383698219549583,-1.8803798523214665,401.3532201225482,0.4008056900457895,120.08056939871099,-5.75353479385,25.1873016357,118.638198853,0
20.200000000000003,20.33165854227948,-1.8884605515542614,401.2180917073126,0.40891339528206966,120.8913398901244,-5.75353479385,25.1873016357,118.638198853,0
20.3,20.31186017280252,-1.705051303858179,401.04608752272253,0.4142748294259217,122.28244921260664,-5.1675307478013455,25.736281474099954,119.53927415440636,0
20.400000000000002,20.29705153733243,-1.4920066609015983,400.8683763649055,0.4192112447600565,123.7633730184055,-4.1843328476,26.7251777649,121.046089172,0
20.5,20.282242901862336,-1.278962017945025,400.69066520708844,0.4241476600941912,125.24429682420431,-4.1843328476,26.7251777649,121.046089172,0
20.6,20.267434266392243,-1.065917374988444,400.5129540492714,0.429084075428326,126.7252206300032,-4.1843328476,26.7251777649,121.046089172,0
20.700000000000003,20.289549355931143,-1.2294560318396326,400.3849531820094,0.43934717824044756,127.93471707160533,-4.384405561976374,26.334199354719214,122.54441456978994,0
20.8,20.32007627210933,-1.4787865049948756,400.2682771295172,0.450823787317594,129.08237793371958,-5.2403588295,24.408115387,127.919784546,0
20.900000000000002,20.35060318828752,-1.7281169781501278,400.1516010770249,0.46230039639474074,130.23003879583388,-5.2403588295,24.408115387,127.919784546,0
21.0,20.381130104465704,-1.977447451305371,400.0349250245327,0.4737770054718871,131.3776996579481,-5.2403588295,24.408115387,127.919784546,0
21.1,20.41165702064389,-2.226777924460623,399.91824897204043,0.48525361454903393,132.5253605200624,-5.2403588295,24.408115387,127.919784546,0
21.200000000000003,20.443370823649598,-2.3472440593060115,399.7857359639399,0.497838196316187,134.37168399449845,-5.2403588295,24.408115387,127.919784546,0
21.3,20.475921662983545,-2.376830314049997,399.6420541511433,0.5112041612537654,136.71073008926447,-3.14200782776,35.1724586487,133.471237183,0
21.400000000000002,20.50847250231749,-2.406416568793984,399.49837233834677,0.5245701261913444,139.04977618403058,-3.14200782776,35.1724586487,133.471237183,0
21.5,20.56462734392539,-2.537146139757502,399.3141392040518,0.5377853167702351,141.5570690141795,-3.14200782776,35.1724586487,133.471237183,0
21.6,20.636931901343115,-2.7370773568677222,399.10216110047946,0.550897348443448,144.1794752446251,-5.30253314972,41.7496757507,140.929718018,0
21.700000000000003,20.709236458760838,-2.9370085739779426,398.8901829969072,0.5640093801166607,146.80188147507073,-5.30253314972,41.7496757507,140.929718018,0
21.8,20.78154101617856,-3.136939791088156,398.67820489333485,0.5771214117898731,149.42428770551624,-5.30253314972,41.7496757507,140.929718018,0
21.900000000000002,20.85356646556476,-3.3316956760765355,398.46671846533104,0.5901295547033778,152.0475129583513,-5.30253314972,41.7496757507,140.929718018,0
22.0,20.910195868901706,-3.2409719522105935,398.28235364917305,0.5974070272390979,154.71591679796506,-3.5585639068172727,42.58922930756862,150.89650117618197,0
22.1,20.96682527223865,-3.1502482283446485,398.097988833015,0.6046844997748183,157.38432063757892,-3.13976836205,42.8162384033,152.937988281,0
22.200000000000003,21.023454675575596,-3.0595245044787034,397.91362401685694,0.6119619723105387,160.05272447719278,-3.13976836205,42.8162384033,152.937988281,0
22.3,21.080084078912538,-2.968800780612762,397.72925920069895,0.6192394448462589,162.72112831680656,-3.13976836205,42.8162384033,152.937988281,0
22.400000000000002,21.113836861146293,-2.960712465774061,397.6288732182117,0.620000004768,165.23767852877003,-1.298304191077564,42.657017042783494,159.97417459995674,0
22.5,21.144919814553646,-2.9622681624398246,397.5382880323514,0.620000004768,167.73650657841472,-0.090378023684,42.5308036804,163.508651733,0
22.6,21.176002767961,-2.9638238591055885,397.44770284649104,0.620000004768,170.2353346280595,-0.090378023684,42.5308036804,163.508651733,0
22.700000000000003,21.171343171100073,-2.8347411605739876,397.42399901641363,0.6146449753943177,172.47263228780585,-0.090378023684,42.5308036804,163.66977276089298,0
22.8,21.150923178258775,-2.648054490778552,397.4297859933137,0.6069286880023281,174.594610182321,2.30640029907,41.2048072815,171.149002075,0
22.900000000000002,21.13050318541748,-2.46136782098311,397.43557297021374,0.5992124006103382,176.71658807683622,2.30640029907,41.2048072815,171.149002075,0
23.0,21.110083192576187,-2.2746811511876746,397.44135994711377,0.5914961132183486,178.8385659713514,2.30640029907,41.2048072815,171.149002075,0
23.1,21.08966319973489,-2.0879944813922324,397.44714692401385,0.5837798258263587,180.9605438658666,2.30640029907,41.2048072815,171.149002075,0
23.200000000000003,21.03458280745287,-1.0744082630556773,397.49759984255417,0.5747094651263068,182.88175387168147,2.30640029907,41.2048072815,171.149002075,0
23.3,20.94622089961272,0.7331812164623888,397.59094177148114,0.5643388997951401,184.61018307522124,4.43141269684,33.3199615479,-177.235702515,0
23.400000000000002,20.857858991772567,2.5407706959805187,397.6842837004081,0.5539683344639729,186.3386122787611,4.43141269684,33.3199615479,-177.235702515,0
23.5,20.749631398242737,3.114631791393936,397.8221386173768,0.5439918618380071,187.9012220289884,4.43141269684,33.3199615479,-177.235702515,0
23.6,20.62909039346594,2.9237870922104565,397.987584161528,0.534259660948963,189.36105137921953,4.79600381851,26.8580970764,-172.128585815,0
23.700000000000003,20.508549388689143,2.7329423930269776,398.1530297056792,0.5245274600599191,190.82088072945066,4.79600381851,26.8580970764,-172.128585815,0
23.8,20.388008383912354,2.5420976938435054,398.3184752498304,0.5147952591708754,192.28071007968177,4.79600381851,26.8580970764,-172.128585815,0
23.900000000000002,20.235234478852416,2.4951429679067196,398.5107618719263,0.5048239541068358,193.2070415282929,4.812117559358575,26.8580970764,-171.47313272887303,0
24.0,20.051152584859327,2.5879493447695188,398.72911937699786,0.494620405875136,193.61518360352883,5.2136092186,16.3955955505,-166.212249756,0
24.1,19.86707069086623,2.680755721632321,398.94747688206945,0.48441685764343584,194.02332567876476,5.2136092186,16.3955955505,-166.212249756,0
24.200000000000003,19.68298879687313,2.7735620984951237,399.16583438714105,0.47421330941173573,194.4314677540007,5.2136092186,16.3955955505,-166.212249756,0
24.3,19.498906902880037,2.866368475357923,399.3841918922126,0.464009761180036,194.83960982923662,5.2136092186,16.3955955505,-166.212249756,0
24.400000000000002,19.33165087118207,3.087891290596688,399.61453395359086,0.4536047808010876,195.12790452038325,5.2136092186,16.3955955505,-166.212249756,0
24.5,19.175287603083653,3.392742835740167,399.85263460329014,0.4430693968372988,195.33861214942212,6.75935840607,4.01469230652,-164.755630493,0
24.6,19.018924334985233,3.6975943808836567,400.0907352529894,0.4325340128735095,195.54931977846098,6.75935840607,4.01469230652,-164.755630493,0
24.700000000000003,18.86256106688681,4.002445926027146,400.3288359026887,0.4219986289097203,195.76002740749985,6.75935840607,4.01469230652,-164.755630493,0
24.8,18.70619779878839,4.307297471170625,400.5669365523879,0.41146324494593145,195.9707350365387,6.75935840607,4.01469230652,-164.755630493,0
24.900000000000002,18.57021985168047,3.999314788744141,400.73172584192366,0.4045867114555038,195.8195571748864,6.015290074399975,1.51002440770479,-164.24077677499758,0
25.0,18.437529861525974,3.5924878172935726,400.8846907114992,0.3983003154890834,195.61001065099836,4.94183588028,-2.8692586422,-163.641967773,0
25.1,18.304839871371474,3.1856608458429894,401.0376555810748,0.3920139195226628,195.40046412711033,4.94183588028,-2.8692586422,-163.641967773,0
25.200000000000003,18.17214988121697,2.778833874392406,401.19062045065033,0.3857275235562422,195.1909176032223,4.94183588028,-2.8692586422,-163.641967773,0
25.3,18.04248974944663,2.3913550090330085,401.3425026572596,0.3794673977507851,194.97337010054366,4.94183588028,-2.8692586422,-163.641967773,0
25.400000000000002,17.943880976538374,2.202164284360554,401.48328924419565,0.3734765004345873,194.67382494907253,3.3902068126625737,-4.79742219492527,-164.33496827739108,0
25.5,17.84527220363012,2.012973559688106,401.62407583113173,0.36748560311838974,194.37427979760142,3.16285920143,-5.14710664749,-164.413619995,0
25.6,17.746663430721863,1.823782835015652,401.76486241806776,0.361494705802192,194.07473464613028,3.16285920143,-5.14710664749,-164.413619995,0
25.700000000000003,17.674827319978334,1.9833240711078197,401.8990166580336,0.35639908262046954,193.8199535123594,2.844286874674109,-5.196692480971582,-164.82962233740972,0
25.8,17.61189135128917,2.2587956532598983,402.030966080644,0.35160107896292464,193.58005345817656,1.44128894806,-5.50375938416,-166.077667236,0
25.900000000000002,17.548955382600003,2.5342672354119866,402.1629155032545,0.3468030753053795,193.3401534039937,1.44128894806,-5.50375938416,-166.077667236,0
26.0,17.48601941391084,2.809738817564065,402.29486492586494,0.34200507164783467,193.10025334981083,1.44128894806,-5.50375938416,-166.077667236,0
26.1,17.44341208765627,2.650859376906446,402.3709618252648,0.3383877086223455,193.0,1.44128894806,-5.50375938416,-166.077667236,0
26.200000000000003,17.41539883657404,2.1801562865161688,402.4069618059983,0.33561793579827665,193.0,-1.44266200066,-3.62743663788,-166.404403687,0
26.3,17.387385585491813,1.709453196125908,402.44296178673176,0.3328481629742079,193.0,-1.44266200066,-3.62743663788,-166.404403687,0
26.400000000000002,17.359372334409585,1.2387501057356307,402.4789617674652,0.330078390150139,193.0,-1.44266200066,-3.62743663788,-166.404403687,0
26.5,17.36039637870855,1.0205690518591386,402.3902299356871,0.3347239177935097,192.68507303381244,-4.242052593952792,-4.502602522597901,-166.99422120723884,0
26.6,17.36226602780097,0.8097417766912096,402.29786574706685,0.3395853888826405,192.36097497408122,-4.36095237732,-4.56883478165,-166.996704102,0
26.700000000000003,17.364135676893387,0.5989145015232805,402.2055015584466,0.3444468599717714,192.03687691435,-4.36095237732,-4.56883478165,-166.996704102,0
26.8,17.366005325985807,0.38808722635535897,402.11313736982635,0.34930833106090203,191.7127788546188,-4.36095237732,-4.56883478165,-166.996704102,0
26.900000000000002,17.367874975078227,0.17725995118743,402.0207731812061,0.35416980215003285,191.38868079488756,-4.36095237732,-4.56883478165,-166.996704102,0
27.0,17.369744624170647,-0.03356732398049167,401.9284089925859,0.3590312732391635,191.06458273515634,-4.36095237732,-4.56883478165,-166.996704102,0
27.1,17.4114289082235,-0.6786089325829934,401.75932591315586,0.36494013513816154,190.50598744556876,-6.4452374089892635,-3.436548098493878,-168.3983705640797,0
27.200000000000003,17.463021424205273,-1.4317087043911987,401.5711506440266,0.37110964971109955,189.88903539991867,-7.31114721298,-2.91189599037,-168.916427612,0
27.3,17.514613940187047,-2.1848084761993776,401.3829753748973,0.3772791642840373,189.27208335426857,-7.31114721298,-2.91189599037,-168.916427612,0
27.400000000000002,17.587069534312214,-2.4467400829258086,401.19445517365284,0.3865958861588153,189.0,-7.31114721298,-2.91189599037,-168.916427612,0
27.5,17.67598500555432,-2.321165704896073,401.00566283901617,0.39839558993558216,189.0,-7.67355632782,-1.86784374714,-170.589401245,0
27.6,17.76490047679643,-2.195591326866333,400.81687050437944,0.4101952937123494,189.0,-7.67355632782,-1.86784374714,-170.589401245,0
27.700000000000003,17.853815948038537,-2.070016948836593,400.6280781697427,0.4219949974891166,189.0,-7.67355632782,-1.86784374714,-170.589401245,0
27.8,17.93963916870554,-2.1942238505609795,400.4311681934544,0.4311867263391649,189.0,-7.67355632782,-1.86784374714,-170.589401245,0
27.900000000000002,18.01893920331314,-2.8453511044424555,400.21713383297737,0.4348768616824618,189.0,-7.52197790146,-1.27979767323,-170.80897522,0
28.0,18.098239237920737,-3.496478358323908,400.00309947250025,0.43856699702575863,189.0,-7.52197790146,-1.27979767323,-170.80897522,0
28.1,18.180282551294923,-3.621902149838613,399.7708583787979,0.4461494537965689,189.15373643658748,-7.52197790146,-1.27979767323,-170.80897522,0
28.200000000000003,18.264067506406,-3.4135694516959245,399.5270582678846,0.4562030518652061,189.40507644073924,-7.20567464828,-2.24242591858,-170.577285767,0
28.3,18.347852461517075,-3.2052367535532436,399.2832581569713,0.4662566499338429,189.65641644489097,-7.20567464828,-2.24242591858,-170.577285767,0
28.400000000000002,18.431637416628153,-2.996904055410555,399.039458046058,0.47631024800248006,189.9077564490427,-7.20567464828,-2.24242591858,-170.577285767,0
28.5,18.518491898069858,-2.848762301921155,398.8339378569736,0.4851007954618088,189.74495963725815,-7.20567464828,-2.24242591858,-170.577285767,0
28.6,18.607126079830515,-2.735519041508203,398.6506122287921,0.4931590307237126,189.34204779011554,-4.53435564041,-2.96205854416,-169.415115356,0
28.700000000000003,18.695760261591175,-2.622275781095251,398.46728660061063,0.5012172659856163,188.93913594297294,-4.53435564041,-2.96205854416,-169.415115356,0
28.8,18.784394443351832,-2.5090325206823025,398.28396097242916,0.5092755012475199,188.53622409583036,-4.53435564041,-2.96205854416,-169.415115356,0
28.900000000000002,18.87302862511249,-2.3957892602693507,398.1006353442477,0.5173337365094236,188.13331224868776,-4.53435564041,-2.96205854416,-169.415115356,0
29.0,18.91604509118162,-2.6030681802898723,398.04473704945815,0.5176227935282526,187.5245620668729,-4.53435564041,-2.96205854416,-169.52037625378767,0
29.1,18.93650440103208,-2.968839668076772,398.05184932462544,0.514070128868057,186.81402845726893,-0.0681113898754,-3.48015928268,-171.35333252,0
29.200000000000003,18.956963710882548,-3.334611155863672,398.05896159979267,0.5105174642078615,186.10349484766496,-0.0681113898754,-3.48015928268,-171.35333252,0
29.3,18.915852555060027,-2.6731583733450135,398.1576299716705,0.5046744677263691,185.46744774749698,0.6183674256041201,-3.5966783725862013,-172.16156176257783,0
29.400000000000002,18.864244168475615,-1.8365727557608047,398.27190786451456,0.4984409895198048,184.84409995160823,2.16548705101,-3.91354560852,-173.651107788,0
29.5,18.812635781891206,-0.9999871381766257,398.38618575735865,0.49220751131324075,184.2207521557195,2.16548705101,-3.91354560852,-173.651107788,0
29.6,18.761027395306794,-0.16340152059241708,398.50046365020273,0.4859740331066764,183.59740435983076,2.16548705101,-3.91354560852,-173.651107788,0
29.700000000000003,18.708581914263178,0.6456154003829015,398.6144911551413,0.4798900927197809,182.9780206687945,2.16548705101,-3.91354560852,-173.651107788,0
29.8,18.636860502367536,0.8198027825029832,398.72275293089655,0.47724958770629156,182.4499191624462,3.85059332848,-0.756482899189,-176.3021698,0
29.900000000000002,18.56513909047189,0.993990164623071,398.8310147066518,0.4746090826928021,181.92181765609791,3.85059332848,-0.756482899189,-176.3021698,0
30.0,18.49341767857625,1.1681775467431526,398.939276482407,0.4719685776793128,181.39371614974965,3.85059332848,-0.756482899189,-176.3021698,0
30.1,18.419060465161383,1.2943626234490593,399.0377503769087,0.46919266937729465,181.16146604013124,3.85059332848,-0.756482899189,-176.3021698,0
30.200000000000003,18.336980999472015,1.2799127132402608,399.1075481788739,0.46602006263452167,181.7959879938294,3.52365231514,3.16694831848,-178.050140381,0
30.3,18.25490153378265,1.2654628030314627,399.1773459808391,0.4628474558917488,182.43050994752758,3.52365231514,3.16694831848,-178.050140381,0
30.400000000000002,18.174873061076195,1.2723972925383884,399.2438863403071,0.460000008345,183.07082807793256,3.52365231514,3.16694831848,-178.050140381,0
30.5,18.112805313482276,1.4665968425257452,399.28190099064324,0.460000008345,183.7619038352051,2.819191294564101,5.843532311858857,-176.60110564529572,0
30.6,18.05073756588835,1.6607963925131086,399.31991564097933,0.460000008345,184.45297959247762,2.5866830349,6.82329463959,-176.190979004,0
30.700000000000003,17.988914143013968,1.7405966637360468,399.3465067717683,0.4605829570365559,185.11658984950293,2.5866830349,6.82329463959,-176.190979004,0
30.8,17.928018492748393,1.3859893256718172,399.3297194488667,0.4633795328608261,185.67590554777635,1.50978696346,8.5011844635,-174.161941528,0
30.900000000000002,17.867122842482814,1.031381987607575,399.31293212596506,0.4661761086850964,186.2352212460498,1.50978696346,8.5011844635,-174.161941528,0
31.0,17.80622719221724,0.6767746495433451,399.29614480306344,0.46897268450936663,186.79453694432323,1.50978696346,8.5011844635,-174.161941528,0
31.1,17.761851897102076,0.2573512781651889,399.2753819773169,0.47265418091142875,187.26541806795936,1.50978696346,8.5011844635,-174.161941528,0
31.200000000000003,17.727069077049872,-0.19970725163314773,399.2523107924851,0.47684950274265864,187.6849500260244,0.514607608318,13.7778558731,-172.638809204,0
31.3,17.69228625699767,-0.6567657814314682,399.22923960765337,0.48104482457388836,188.1044819840895,0.514607608318,13.7778558731,-172.638809204,0
31.400000000000002,17.65750343694546,-1.1138243112298047,399.20616842282163,0.48524014640511826,188.52401394215454,0.514607608318,13.7778558731,-172.638809204,0
31.5,17.622720616893258,-1.570882841028125,399.18309723798984,0.4894354682363479,188.9435459002196,0.514607608318,13.7778558731,-172.638809204,0
31.6,17.60114491090645,-1.4669343336516587,399.13940296694045,0.4945101564219891,189.67652267794804,0.29575027633455275,15.24760326974198,-171.94512929882586,0
31.700000000000003,17.581622747206083,-1.2757561962343964,399.0925020619955,0.4997215751594463,190.45823623408685,-0.274691641331,19.6549949646,-170.485748291,0
31.8,17.562100583505718,-1.084578058817141,399.04560115705056,0.5049329938969034,191.2399497902256,-0.274691641331,19.6549949646,-170.485748291,0
31.900000000000002,17.542875461920765,-0.9022349720945781,398.9986734990294,0.5100736753967867,192.03684250202633,-0.274691641331,19.6549949646,-170.485748291,0
32.0,17.534071949183126,-1.0298662550244606,398.950807219578,0.512732568009925,193.36629007635668,-0.273628890514,25.9512481689,-167.357391357,0
32.1,17.525268436445486,-1.1574975379543475,398.9029409401266,0.5153914606230633,194.69573765068708,-0.273628890514,25.9512481689,-167.357391357,0
32.2,17.516464923707847,-1.2851288208842344,398.8550746606752,0.5180503532362016,196.02518522501748,-0.273628890514,25.9512481689,-167.357391357,0
32.300000000000004,17.512371969885788,-1.3278582131436998,398.8154468125737,0.5215100435635543,197.30201191526862,-0.273628890514,25.9512481689,-167.357391357,0
32.4,17.52122740221914,-1.1372092557365034,398.7984647677296,0.5271709669551463,198.4341942991628,0.788714289665,28.4513931274,-162.965621948,0
32.5,17.530082834552495,-0.9465602983292933,398.78148272288547,0.5328318903467386,199.56637668305706,0.788714289665,28.4513931274,-162.965621948,0
32.6,17.538938266885847,-0.7559113409220835,398.7645006780414,0.5384928137383309,200.6985590669513,0.788714289665,28.4513931274,-162.965621948,0
32.7,17.571091248632914,-0.5915067008899746,398.7262207265716,0.5453302407523176,202.4213931674007,0.7997815587656315,30.423435267201736,-161.07566935675587,0
32.800000000000004,17.61169792560112,-0.4366250135271034,398.6802126656658,0.5525945711660428,204.35854979186038,0.82027721405,34.7497596741,-158.139877319,0
32.9,17.652304602569327,-0.2817433261642433,398.63420460476,0.5598589015797676,206.29570641631992,0.82027721405,34.7497596741,-158.139877319,0
33.0,17.692911279537533,-0.12686163880137213,398.5881965438541,0.5671232319934928,208.23286304077956,0.82027721405,34.7497596741,-158.139877319,0
33.1,17.749426640387476,-0.07400706059951341,398.53008522983544,0.5729550419085095,210.32977334581764,0.82027721405,34.7497596741,-158.139877319,0
33.2,17.816372714276536,-0.08804773946482947,398.4640382775831,0.5778476031492953,212.53142800377918,-0.204148158431,37.9335746765,-150.121170044,0
33.300000000000004,17.883318788165592,-0.10208841833014551,398.3979913253307,0.5827401643900809,214.7330826617407,-0.204148158431,37.9335746765,-150.121170044,0
33.4,17.950264862054645,-0.11612909719546058,398.33194437307833,0.5876327256308663,216.93473731970207,-0.204148158431,37.9335746765,-150.121170044,0
33.5,18.019513582847342,-0.5027693569607758,398.2606054440566,0.5917900795717752,219.25306778458287,-0.204148158431,37.9335746765,-150.121170044,0
33.6,18.090920822760694,-1.2386873624591095,398.1843057748429,0.5952582444703156,221.68077105853638,-0.261594742537,39.1807479858,-141.403610229,0
33.7,18.162328062674046,-1.9746053679574427,398.1080061056293,0.598726409368856,224.10847433248992,-0.261594742537,39.1807479858,-141.403610229,0
33.800000000000004,18.219558248432623,-1.7101336977870805,398.0350116744706,0.603331630127539,226.66580473144742,-0.2552358813104548,39.1807479858,-140.69268370143797,0
33.9,18.268560734727515,-0.8650826274030137,397.9639354489613,0.6085967449508517,229.29836465377622,0.0117806885391,39.6636390686,-134.377761841,0
34.0,18.317563221022407,-0.020031557018886925,397.892859223452,0.6138618597741649,231.93092457610518,0.0117806885391,39.6636390686,-134.377761841,0
34.1,18.3665657073173,0.8250195133652398,397.8217829979427,0.6191269745974779,234.56348449843415,0.0117806885391,39.6636390686,-134.377761841,0
34.2,18.402577416005162,0.13056062353176767,397.81192126658607,0.621927710895363,236.7349371690628,0.39808066713240187,40.5583881092924,-129.15809486430175,0
34.300000000000004,18.436006901970547,-0.8699120955741052,397.8142273563197,0.6242385939744768,238.8147339235594,0.769137680531,41.5409698486,-124.987487793,0
34.4,18.46943638793593,-1.8703848146799071,397.8165334460533,0.6265494770535904,240.89453067805587,0.769137680531,41.5409698486,-124.987487793,0
34.5,18.502865873901314,-2.87085753378578,397.81883953578694,0.6288603601327043,242.9743274325525,0.769137680531,41.5409698486,-124.987487793,0
34.6,18.52715011113671,-2.8433764803033403,397.8586205192085,0.6266398361345596,245.34406492074365,1.4665362933721053,41.72296307764322,-122.29834095557615,0
34.7,18.542535936913502,-1.8156869142931071,397.93486492021975,0.6200102112086655,247.99591742004043,3.76205539703,42.4566383362,-115.128082275,0
34.800000000000004,18.55792176269029,-0.7879973482828739,398.011109321231,0.6133805862827715,250.6477699193372,3.76205539703,42.4566383362,-115.128082275,0
34.9,18.552068803615843,-0.006476042692874384,398.13700718629025,0.6035198642094458,253.0183094047866,3.76205539703,42.4566383362,-115.128082275,0
35.0,18.52411733089559,0.5189123108398188,398.314568447373,0.590297252795295,255.0961485536215,4.45714902878,39.6134796143,-107.627738953,0
35.1,18.496165858175335,1.044300664372512,398.49212970845576,0.5770746413811441,257.17398770245643,4.45714902878,39.6134796143,-107.627738953,0
35.2,18.46821438545508,1.5696890179052052,398.66969096953846,0.5638520299669932,259.2518268512913,4.45714902878,39.6134796143,-107.627738953,0
35.300000000000004,18.440262912734827,2.0950773714378985,398.8472522306212,0.5506294185528424,261.3296660001262,4.45714902878,39.6134796143,-107.627738953,0
35.4,18.412347397931573,2.597763836677846,399.02636529463615,0.5379094885023494,263.2926745440116,4.45714902878,39.6134796143,-107.627738953,0
35.5,18.384579272017717,3.0073969111242738,399.2118390861299,0.5272500128411073,264.7850007807851,4.406903410964755,36.22143594670778,-98.74531492544219,0
35.6,18.35681114610386,3.417029985570701,399.3973128776237,0.5165905371798653,266.27732701755855,4.39207315445,35.0572280884,-96.6201248169,0
35.7,18.32904302019,3.8266630600171285,399.5827866691174,0.5059310615186231,267.769653254332,4.39207315445,35.0572280884,-96.6201248169,0
35.800000000000004,18.301274894276144,4.236296134463556,399.76826046061115,0.49527158585738096,269.26197949110554,4.39207315445,35.0572280884,-96.6201248169,0
35.9,18.267241834491525,4.20275544547111,399.8748796907501,0.48864617130708776,270.67691774311464,4.39207315445,35.0572280884,-96.44540048691795,0
36.0,18.227079098751123,3.7356089725989996,399.90434680424875,0.4859677237808754,272.01613879215546,3.23262906075,22.0522384644,-89.1502075195,0
36.1,18.186916363010717,3.2684624997268896,399.9338139177474,0.48328927625466295,273.3553598411963,3.23262906075,22.0522384644,-89.1502075195,0
36.2,18.146753627270314,2.8013160268547797,399.9632810312461,0.48061082872845057,274.6945808902371,3.23262906075,22.0522384644,-89.1502075195,0
36.300000000000004,18.05089440266806,2.109730317760122,400.07753174045064,0.4749984893315519,275.5001504709383,3.040311791249407,19.179919425700735,-86.81621048068516,0
36.4,17.938580602582057,1.351837873188857,400.2168303136021,0.4685193817373416,276.14806184827245,2.84776163101,15.5244512558,-84.8183746338,0
36.5,17.826266802496043,0.5939454286175381,400.3561288867535,0.46204027414313076,276.7959732256066,2.84776163101,15.5244512558,-84.8183746338,0
36.6,17.710582422370933,0.6225717772944487,400.5164998715778,0.4532460590262264,277.337697284781,2.84776163101,15.5244512558,-84.8183746338,0
36.7,17.593348791452584,1.0127130136766587,400.68655656334903,0.4433877296843641,277.83061348744917,2.76133108139,15.9392318726,-82.9319381714,0
36.800000000000004,17.47611516053424,1.4028542500588683,400.85661325512024,0.4335294003425017,278.3235296901174,2.76133108139,15.9392318726,-82.9319381714,0
36.9,17.3588815296159,1.7929954864410507,401.02666994689145,0.42367107100064,278.8164458927856,2.76133108139,15.9392318726,-82.9319381714,0
37.0,17.257575562038944,1.7946636229194923,401.16205567490545,0.4168669170265581,279.3133072848297,2.584860650078367,15.116155665403697,-82.17917483856857,0
37.1,17.165719970146682,1.5658386444445878,401.2768700469187,0.41187489983699965,279.8125094798497,1.92444932461,11.1119756699,-80.035446167,0
37.2,17.073864378254417,1.3370136659696832,401.3916844189319,0.4068828826474412,280.31171167486974,1.92444932461,11.1119756699,-80.035446167,0
37.300000000000004,16.982008786362154,1.1081886874947786,401.50649879094516,0.40189086545788283,280.81091386988976,1.92444932461,11.1119756699,-80.035446167,0
37.4,16.901978002284896,0.9942685577439752,401.5960951749551,0.3972877763543321,281.27122281508287,1.7335091945113223,10.494790495403883,-79.56580260815463,0
37.5,16.829157122504874,0.9504090138014802,401.67031547142807,0.3929218271960971,281.707817496717,0.942650079727,7.05806398392,-78.1387405396,0
37.6,16.756336242724853,0.9065494698589852,401.74453576790097,0.3885558780378621,282.1444121783511,0.942650079727,7.05806398392,-78.1387405396,0
37.7,16.68351536294483,0.8626899259164902,401.81875606437393,0.38418992887962716,282.5810068599852,0.942650079727,7.05806398392,-78.1387405396,0
37.800000000000004,16.61167600401309,0.8288172622047583,401.8928389964443,0.37988580072312383,283.0,0.942650079727,7.05806398392,-78.1387405396,0
37.9,16.563201104348973,1.0326757243988773,401.9636520591136,0.3770532809174468,283.0,-0.5024832905773303,0.8879396240332706,-76.63116362589102,0
38.0,16.51472620468485,1.2365341865930108,402.03446512178283,0.37422076111176955,283.0,-0.548167943954,0.536671578884,-76.6269226074,0
38.1,16.46625130502073,1.4403926487871446,402.1052781844521,0.3713882413060923,283.0,-0.548167943954,0.536671578884,-76.6269226074,0
38.2,16.42788891871673,1.3357104592073699,402.18462750252576,0.3671197630163885,282.8559879896675,-0.6438692676919663,0.4346984747546413,-76.63075694781249,0
38.300000000000004,16.39924662046854,0.934460819257839,402.27218181882716,0.36147104992133183,282.57355248641306,-1.77098798752,-2.03563094139,-76.657333374,0
38.400000000000006,16.370604322220352,0.5332111793083081,402.3597361351285,0.3558223368262752,282.2911169831586,-1.77098798752,-2.03563094139,-76.657333374,0
38.5,16.34196202397217,0.13196153935880583,402.4472904514299,0.3501736237312189,282.0086814799042,-1.77098798752,-2.03563094139,-76.657333374,0
38.6,16.320608474758913,0.3939836791547149,402.55343631482214,0.3445550888932106,281.7277544830336,-2.58016347885,-2.7839932620367143,-77.853477478,0
38.7,16.299486071475496,0.6770399595868564,402.66017176641645,0.33893751108929043,281.44687532497716,-2.58016347885,-2.79213762283,-77.853477478,0
38.800000000000004,16.278363668192075,0.9600962400189978,402.76690721801083,0.33331993328537024,281.16599616692076,-2.58016347885,-2.79213762283,-77.853477478,0
38.900000000000006,16.257053499753358,1.200224538462511,402.86549713829135,0.3274635316796889,280.8731759963692,-2.58016347885,-2.79213762283,-77.853477478,0
39.0,16.235472026609283,1.3783255481549639,402.9523174574998,0.32126204996014684,280.56310207673124,-3.81606554985,-5.05882549286,-78.7803344727,0
39.1,16.21389055346521,1.5564265578474292,403.03913777670823,0.3150605682406043,280.25302815709324,-3.81606554985,-5.05882549286,-78.7803344727,0
39.2,16.188387225518998,1.6341087129036773,403.0983297729885,0.31075198154807776,280.0375989380339,-3.81606554985,-5.05882549286,-78.7803344727,0
39.300000000000004,16.145488395282953,1.2663800855884149,403.0349755305605,0.3148393864049928,280.2419690712453,-5.546978383893729,-5.3061031537336145,-79.25607986562021,0
39.400000000000006,16.102589565046912,0.8986514582731521,402.97162128813244,0.3189267912619079,280.4463392044567,-5.70433330536,-5.33791017532,-79.2787246704,0
39.5,16.059690734810875,0.5309228309579157,402.9082670457044,0.32301419611882276,280.6507093376681,-5.70433330536,-5.33791017532,-79.2787246704,0
39.6,16.016791904574834,0.16319420364265302,402.8449128032764,0.3271016009757378,280.8550794708795,-5.70433330536,-5.33791017532,-79.2787246704,0
39.7,15.98109607749131,-0.3335711944971768,402.7371134909261,0.33216814062315925,280.8915935211102,-5.70433330536,-5.33791017532,-79.2787246704,0
39.800000000000004,15.9629590389663,-1.144890026421028,402.5209702602536,0.3396215209247837,280.5189241506328,-7.94911146164,-3.60488843918,-78.7045516968,0
39.900000000000006,15.94482200044129,-1.9562088583448791,402.304827029581,0.3470749012264081,280.14625478015546,-7.94911146164,-3.60488843918,-78.7045516968,0
40.0,15.964060398017068,-2.355828185880838,402.0729114521674,0.357741460554654,279.6682228297548,-7.94911146164,-3.60488843918,-78.7045516968,0
40.1,16.00744183417691,-2.4895060808494285,401.8308075688593,0.37048360516859574,279.12213086192594,-7.98650074005,-0.247406587005,-79.6505737305,0
