t_sec,airspeed,climb,altitude,throttle,heading,pitch,roll,yaw,is_boundary
0.0,17.0399932861,0.425755977631,410.579986572,0.469999998808,287.0,-2.8486354351,10.4155769348,-73.8359603882,0
0.1,17.011083929254053,-0.10928571298299344,410.5190834347073,0.47609087345445,287.6090871379002,-2.8486354351,10.4155769348,-73.8359603882,0
0.2,16.982174572408102,-0.6443274035969868,410.4581802974146,0.4821817481009001,288.21817427580044,-3.02351427078,19.6357822418,-72.8376464844,0
0.30000000000000004,16.953265215562155,-1.1793690942109802,410.39727716012186,0.4882726227473501,288.8272614137006,-3.02351427078,19.6357822418,-72.8376464844,0
0.4,16.92898389136914,-1.280462458332048,410.32449804158813,0.4664528694241718,289.50458151799273,-3.02351427078,19.6357822418,-72.8376464844,0
0.5,16.906534680093383,-1.2097674203365933,410.2470175433822,0.4335840536014994,290.20891320765696,-3.43002676964,26.1358013153,-70.3426437378,0
0.6000000000000001,16.884085468817627,-1.1390723823411386,410.16953704517624,0.4007152377788269,290.9132448973212,-3.43002676964,26.1358013153,-70.3426437378,0
0.7000000000000001,16.861636257541868,-1.0683773443456839,410.09205654697035,0.36784642195615447,291.61757658698536,-3.43002676964,26.1358013153,-70.3426437378,0
0.8,16.844781809683624,-0.7410215915492919,410.02482795428807,0.3354339588419524,292.1324185025179,-3.43002676964,26.1358013153,-70.3426437378,0
0.9,16.83457387785598,-0.10875579554890125,409.969778510092,0.30356363761402944,292.42214869706885,-3.17038202286,-1.24835085869,-67.4036560059,0
1.0,16.824365946028337,0.5235100004514892,409.91472906589587,0.2716933163861065,292.71187889161973,-3.17038202286,-1.24835085869,-67.4036560059,0
1.1,16.814193306636167,1.1525482049389513,409.8592545135068,0.23990254555880258,292.99512754512364,-3.17038202286,-1.24835085869,-67.4036560059,0
1.2000000000000002,16.810340089914696,1.2036576067026825,409.7276605798269,0.22235597744481533,292.11779895639893,-3.17038202286,-1.24835085869,-67.4036560059,0
1.3,16.80648687319323,1.2547670084664135,409.596066646147,0.20480940933082808,291.2404703676742,-4.98332691193,-18.9504852295,-66.8926391602,0
1.4000000000000001,16.80263365647176,1.3058764102301446,409.4644727124671,0.18726284121684084,290.36314177894945,-4.98332691193,-18.9504852295,-66.8926391602,0
1.5,16.81517629563362,0.9480557003741694,409.2598124189868,0.17116528947911028,289.2932227545987,-4.98332691193,-18.9504852295,-66.8926391602,0
1.6,16.839298423338708,0.30143021105585777,409.00354938623974,0.15609109807384478,288.0872877296964,-7.80726671219,-27.6178417206,-69.4099655151,0
1.7000000000000002,16.863420551043795,-0.3451952782624541,408.74728635349265,0.14101690666857924,286.8813527047942,-7.80726671219,-27.6178417206,-69.4099655151,0
1.8,16.897765673492927,-0.9841959005967176,408.45480959855433,0.12738665606031443,285.60799904247284,-7.80726671219,-27.6178417206,-69.4099655151,0
1.9000000000000001,16.95986974493769,-1.6024923849549817,408.06400012483675,0.11767720165122611,284.15158057728974,-9.572807714896818,-29.41991286988616,-71.41802058008274,0
2.0,17.021973816382456,-2.2207888693132443,407.6731906511191,0.10796774724213781,282.6951621121067,-11.7234249115,-31.6312541962,-73.8752593994,0
2.1,17.08407788782722,-2.8390853536715084,407.2823811774015,0.09825829283304947,281.23874364692364,-11.7234249115,-31.6312541962,-73.8752593994,0
2.2,17.154653854259507,-3.4663721349154333,406.876346290794,0.0900000035763,279.8168254764837,-11.7234249115,-31.6312541962,-73.8752593994,0
2.3000000000000003,17.273441672559247,-4.1448208890514024,406.38366663911955,0.0900000035763,278.59124155026984,-11.86378201367468,-31.645931166475272,-74.01969146899077,0
2.4000000000000004,17.392229490858988,-4.8232696431873725,405.8909869874451,0.0900000035763,277.365657624056,-17.2931900024,-32.247592926,-79.7348175049,0
2.5,17.51101730915873,-5.501718397323339,405.39830733577065,0.0900000035763,276.1400736978421,-17.2931900024,-32.247592926,-79.7348175049,0
2.6,17.62816768497685,-6.128165068742187,404.8944218092046,0.0900000035763,274.87536534104464,-17.2931900024,-32.247592926,-79.7348175049,0
2.7,17.723486694646468,-6.061288755674428,404.24113283151314,0.0900000035763,273.08902658866987,-17.779587438862993,-31.857673908201637,-81.32006563439536,0
2.8000000000000003,17.818805704316084,-5.99441244260667,403.58784385382165,0.0900000035763,271.30268783629504,-18.8627338409,-30.9978122711,-84.8492431641,0
2.9000000000000004,17.914124713985704,-5.927536129538912,402.93455487613016,0.0900000035763,269.5163490839202,-18.8627338409,-30.9978122711,-84.8492431641,0
3.0,18.026911900062004,-5.987696718768563,402.2714594523678,0.0949790984988364,267.7012542868417,-18.8627338409,-30.9978122711,-84.8492431641,0
3.1,18.237806000538548,-6.761337536798544,401.5532878636498,0.1279223968953605,265.72465626523905,-19.231323274154477,-29.900841419481317,-85.65764785317693,0
3.2,18.448700101015092,-7.534978354828526,400.83511627493175,0.16086569529188458,263.7480582436364,-21.831577301,-23.8813934326,-91.5807647705,0
3.3000000000000003,18.66015055694297,-8.245341274863506,400.1133971372898,0.1946802412683266,261.9219959422272,-21.831577301,-23.8813934326,-91.5807647705,0
3.4000000000000004,18.875856472212515,-8.471703325489562,399.36454345792237,0.2351587978948061,261.24735335859174,-21.9014390015269,-23.362050966998943,-92.44252334667077,0
3.5,19.09156238748206,-8.698065376115618,398.61568977855495,0.2756373545212854,260.5727107749562,-22.2979564667,-20.3934078217,-97.359664917,0
3.6,19.321147021081064,-8.884967103904506,397.87726202493434,0.3148528844333187,259.75735590717716,-22.2979564667,-20.3934078217,-97.359664917,0
3.7,19.62871017417116,-8.850158333617232,397.1974130416842,0.3469720131552535,258.1513995349038,-22.0015485074367,-19.169705111481253,-97.94695148520543,0
3.8000000000000003,19.936273327261258,-8.815349563329958,396.517564058434,0.3790911418771883,256.5454431626304,-21.3083133698,-16.2728443146,-99.3705825806,0
3.9000000000000004,20.243836480351355,-8.780540793042684,395.83771507518384,0.411210270599123,254.93948679035708,-21.3083133698,-16.2728443146,-99.3705825806,0
4.0,20.549277552004547,-8.769012890538946,395.2279720482363,0.43996102679442656,253.28849852433567,-21.3083133698,-16.2728443146,-99.3705825806,0
4.1000000000000005,20.85172723810598,-8.790302791494133,394.71705366634194,0.4639635670476423,251.57403118819764,-15.7625513077,-10.8763275146,-105.587013245,0
4.2,21.154176924207412,-8.81159269244932,394.2061352844476,0.4879661073008578,249.85956385205958,-15.7625513077,-10.8763275146,-105.587013245,0
4.3,21.368203898776372,-8.601514419415016,393.81131420952454,0.5063755555015893,248.68122239592878,-15.7625513077,-10.8763275146,-105.587013245,0
4.4,21.493326139711765,-8.15880670623662,393.53322332725196,0.5191614218137297,248.0419294232705,-9.93362903595,-10.4204769135,-110.609855652,0
4.5,21.61844838064716,-7.716098993058226,393.2551324449794,0.53194728812587,247.40263645061216,-9.93362903595,-10.4204769135,-110.609855652,0
4.6000000000000005,21.698654459970143,-7.096409707533335,393.0268630342965,0.5438636335393602,246.71022881755044,-9.93362903595,-10.4204769135,-110.609855652,0
4.7,21.702442261316325,-6.175612168167623,392.8833575688948,0.5543006163502958,245.92745436021784,-5.24445486069,-9.03215503693,-112.719535828,0
4.800000000000001,21.70623006266251,-5.254814628801903,392.7398521034931,0.5647375991612316,245.14467990288523,-5.24445486069,-9.03215503693,-112.719535828,0
4.9,21.71001786400869,-4.334017089436189,392.59634663809135,0.5751745819721672,244.36190544555262,-5.24445486069,-9.03215503693,-112.719535828,0
5.0,21.657443173824294,-3.636909187123543,392.55527976024075,0.579999983311,243.67022006672101,-5.24445486069,-9.03215503693,-112.719535828,0
5.1000000000000005,21.556402352756173,-3.132152100616546,392.6022998682023,0.579999983311,243.05686222595276,-1.702565163175887,-2.691275832878098,-115.60508408028632,0
5.2,21.45536153168805,-2.6273950141095535,392.6493199761639,0.579999983311,242.4435043851845,-1.39464485645,-2.091766119,-115.855911255,0
5.300000000000001,21.354320710619934,-2.1226379276025567,392.69634008412544,0.579999983311,241.83014654441624,-1.39464485645,-2.091766119,-115.855911255,0
5.4,21.253279889551813,-1.6178808410955647,392.74336019208704,0.579999983311,241.21678870364798,-1.39464485645,-2.091766119,-115.855911255,0
5.5,21.130891429096792,-0.8115532819303131,392.8632080888416,0.579999983311,241.0,-1.1839289825863322,-1.8014478942121954,-115.95702718386165,0
5.6000000000000005,20.99683305629751,0.15963095847049313,393.02286806486336,0.579999983311,241.0,3.66087126732,4.86877775192,-118.271690369,0
5.7,20.86277468349823,1.130815198871291,393.18252804088513,0.579999983311,241.0,3.66087126732,4.86877775192,-118.271690369,0
5.800000000000001,20.703812213354436,1.4352216131171365,393.35187455959806,0.578582637669441,241.70867349657055,3.66087126732,4.86877775192,-118.271690369,0
5.9,20.53431783238067,1.457648539758122,393.52531750479307,0.5765658983736711,242.7170441060377,4.49197483063,9.19974803925,-117.920509338,0
6.0,20.364823451406906,1.4800754663991076,393.6987604499881,0.5745491590779013,243.72541471550483,4.49197483063,9.19974803925,-117.920509338,0
6.1000000000000005,20.195329070433136,1.5025023930400936,393.872203395183,0.5725324197821314,244.73378532497196,4.49197483063,9.19974803925,-117.920509338,0
6.2,20.02583468945937,1.5249293196810791,394.045646340378,0.5705156804863616,245.74215593443913,4.49197483063,9.19974803925,-117.920509338,0
6.300000000000001,19.836632476410553,1.9148560019815346,394.26454007365845,0.5656724357768695,246.0,4.49197483063,9.19974803925,-117.920509338,0
6.4,19.640659620022234,2.431037554094699,394.49904846584474,0.5598581426039738,246.0,6.40346717834,12.4632606506,-113.037521362,0
6.5,19.444686763633914,2.9472191062078634,394.733556858031,0.554043849431078,246.0,6.40346717834,12.4632606506,-113.037521362,0
6.6000000000000005,19.24871390724559,3.4634006583210324,394.9680652502173,0.5482295562581821,246.0,6.40346717834,12.4632606506,-113.037521362,0
6.7,19.052741050857268,3.979582210434196,395.2025736424036,0.5424152630852864,246.0,6.40346717834,12.4632606506,-113.037521362,0
6.800000000000001,18.877147829329694,4.053658413598152,395.46159955997524,0.5345216195336858,246.41087992390703,6.40346717834,12.4632606506,-113.037521362,0
6.9,18.71603563046509,3.813590736300099,395.7380467337751,0.5251504657045938,247.11371608405247,7.734773402789426,9.947330418376119,-113.21387062222206,0
7.0,18.554923431600486,3.573523059002047,396.01449390757494,0.5157793118755019,247.8165522441979,7.81512355804,9.81535339355,-113.232269287,0
7.1000000000000005,18.393811232735878,3.3334553817039927,396.29094108137485,0.5064081580464097,248.51938840434337,7.81512355804,9.81535339355,-113.232269287,0
7.2,18.25239327379073,3.3199445194486694,396.55007940083914,0.4979972072274522,249.1001395849075,7.81512355804,9.81535339355,-113.232269287,0
7.300000000000001,18.15356862623179,3.7964147384255202,396.7717833524139,0.4916629156739391,249.41685399268172,6.401769465832299,9.431950829734374,-111.04658172705226,0
7.4,18.05474397867285,4.272884957402367,396.9934873039886,0.4853286241204261,249.73356840045594,6.27642059326,9.39757347107,-110.854171753,0
7.5,17.962059910577516,4.618526892058304,397.1981205221897,0.479999989271,250.1208490297001,6.27642059326,9.39757347107,-110.854171753,0
7.6000000000000005,17.90191269685053,4.270953982831737,397.31230169607966,0.479999989271,250.88203620716212,6.082980960895868,9.481830147527758,-110.68143618598685,0
7.7,17.841765483123545,3.923381073605174,397.42648286996956,0.479999989271,251.64322338462412,4.2309384346,10.3196153641,-109.045684814,0
7.800000000000001,17.781618269396557,3.5758081643786075,397.5406640438595,0.479999989271,252.40441056208613,4.2309384346,10.3196153641,-109.045684814,0
7.9,17.728466596207735,3.0945806196775245,397.63456755158853,0.479999989271,253.07604757161093,4.2309384346,10.3196153641,-109.045684814,0
8.0,17.7004751097968,2.1326503224263407,397.6555403307704,0.479999989271,253.42560811842344,3.4376789140532726,9.698752047375633,-108.42013463984856,0
8.1,17.67248362338586,1.1707200251751564,397.6765131099523,0.479999989271,253.77516866523598,1.15726208687,7.9053401947,-106.624671936,0
8.200000000000001,17.64836455527099,0.5093765600557653,397.67138091967826,0.48093101039913166,254.0,1.15726208687,7.9053401947,-106.624671936,0
8.3,17.631225736289185,0.3898575606789886,397.61919307154864,0.4835402488389379,254.0,-0.21989779888222039,7.560819557891643,-106.0776273859698,0
8.4,17.61408691730738,0.27033856130221195,397.5670052234191,0.48614948727874413,254.0,-0.609344124794,7.4619474411,-105.923416138,0
8.5,17.596948098325573,0.15081956192543533,397.51481737528945,0.48875872571855034,254.0,-0.609344124794,7.4619474411,-105.923416138,0
8.6,17.592649710780055,0.08993655511360667,397.44551392054814,0.4934214003794636,254.0,-0.609344124794,7.4619474411,-105.923416138,0
8.700000000000001,17.600002747569047,0.08225992489739176,397.36067974190826,0.49994736576192955,254.0,-1.2818309557956016,6.174845474018088,-105.73677631451046,0
8.8,17.607355784358038,0.07458329468117697,397.2758455632684,0.5064733311443954,254.0,-1.48735904694,5.7799654007,-105.679656982,0
8.9,17.614708821147033,0.0669066644649622,397.19101138462844,0.5129992965268613,254.0,-1.48735904694,5.7799654007,-105.679656982,0
9.0,17.622061857936025,0.05923003424874742,397.10617720598856,0.519525261909327,254.0,-1.48735904694,5.7799654007,-105.679656982,0
9.1,17.634609380719144,-0.5021145429588767,397.0504900040344,0.519999980927,253.33989277724373,-1.48735904694,5.7799654007,-105.679656982,0
9.200000000000001,17.647564409847206,-1.1068942553548506,396.99708937633386,0.519999980927,252.62800028027206,-0.903230428696,3.04063606262,-105.790870667,0
9.3,17.65846311522254,-1.623422333378265,396.94828576721204,0.519999980927,251.97173348642028,-0.903230428696,3.04063606262,-105.790870667,0
9.4,17.653968594100263,-1.479316406236544,396.93389451563,0.519999980927,251.7318695309234,-0.6613155102571588,2.810545468491735,-106.11058183174877,0
9.5,17.649474072977988,-1.335210479094823,396.919503264048,0.519999980927,251.49200557542656,0.139404803514,2.0356938839,-107.168083191,0
9.600000000000001,17.644979551855712,-1.1911045519530994,396.90511201246596,0.519999980927,251.25214161992972,0.139404803514,2.0356938839,-107.168083191,0
9.700000000000001,17.64048503073344,-1.0469986248113783,396.89072076088394,0.519999980927,251.01227766443287,0.139404803514,2.0356938839,-107.168083191,0
9.8,17.607677914594802,-0.8801946448451234,396.9049564449312,0.519999980927,251.0,0.139404803514,2.0356938839,-107.168083191,0
9.9,17.573343410584037,-0.7121661663620373,396.92073647467595,0.519999980927,251.0,0.512988507748,1.45168352127,-108.169425964,0
10.0,17.53900890657327,-0.5441376878789511,396.9365165044207,0.519999980927,251.0,0.512988507748,1.45168352127,-108.169425964,0
10.100000000000001,17.5046744025625,-0.376109209395862,396.9522965341654,0.519999980927,251.0,0.512988507748,1.45168352127,-108.169425964,0
10.200000000000001,17.470339898551735,-0.2080807309127758,396.96807656391013,0.519999980927,251.0,0.512988507748,1.45168352127,-108.169425964,0
10.3,17.43345199004655,0.009386771691606621,396.97386709459386,0.519999980927,250.80660007605934,0.512988507748,1.45168352127,-108.169425964,0
10.4,17.39620938678244,0.23372187509341236,396.9782699787183,0.519999980927,250.58633486714425,1.79457879066,3.59770393372,-108.400123596,0
10.5,17.358966783518333,0.45805697849521815,396.9826728628428,0.519999980927,250.36606965822915,1.79457879066,3.59770393372,-108.400123596,0
10.600000000000001,17.321724180254225,0.6823920818970279,396.9870757469672,0.519999980927,250.14580444931406,1.79457879066,3.59770393372,-108.400123596,0
10.700000000000001,17.291167285396455,0.6434197520626868,396.9813251071188,0.5210833025897057,250.0,1.79457879066,3.59770393372,-108.400123596,0
10.8,17.273701930803426,0.08885510878720637,396.9556924652682,0.5242879176599332,250.0,1.7350869408531044,4.022437821629144,-108.87200697319466,0
10.9,17.256236576210394,-0.465709534488274,396.93005982341765,0.5274925327301608,250.0,1.66304016113,4.49839258194,-109.442207336,0
11.0,17.24034381310837,-0.8868647881390905,396.90687231369634,0.52999997139,250.05219126257853,1.66304016113,4.49839258194,-109.442207336,0
11.100000000000001,17.230106973875724,-0.8282048097396747,396.89247887494184,0.52999997139,250.29209167243351,1.4325987322991396,4.765554126667168,-109.50161834548221,0
11.200000000000001,17.21987013464308,-0.76954483134026,396.87808543618735,0.52999997139,250.5319920822885,0.387521892786,5.97098588943,-109.771820068,0
11.3,17.209633295410434,-0.7108848529408451,396.86369199743285,0.52999997139,250.77189249214348,0.387521892786,5.97098588943,-109.771820068,0
11.4,17.19760002193242,-0.6378395180172745,396.8563829141415,0.529705654592594,250.97056829219136,0.387521892786,5.97098588943,-109.771820068,0
11.5,17.150818716223387,-0.2865413979195101,396.98610495937794,0.5237184327591358,250.3718455378636,0.387521892786,5.97098588943,-109.771820068,0
11.600000000000001,17.104037410514355,0.06475672217826056,397.1158270046144,0.5177312109256774,249.77312278353583,2.55586457253,9.3566198349,-108.989006042,0
11.700000000000001,17.057256104805326,0.41605484227602496,397.2455490498508,0.5117439890922192,249.17440002920807,2.55586457253,9.3566198349,-108.989006042,0
11.8,17.010474799096293,0.7673529623737892,397.37527109508727,0.505756767258761,248.57567727488032,2.55586457253,9.3566198349,-108.989006042,0
11.9,16.964257794845498,1.1136043374071445,397.504869167565,0.499847827629542,248.01521725155848,2.55586457253,9.3566198349,-108.989006042,0
12.0,16.932137070363158,1.3337877583186164,397.63137039408326,0.49589438153261706,248.4105622382915,2.3366888722145593,8.779050250891963,-109.78293385426619,0
12.100000000000001,16.900016345880818,1.5539711792300923,397.7578716206016,0.491940935435692,248.80590722502453,1.93498146534,7.71289396286,-111.573120117,0
12.200000000000001,16.87767593114649,1.7194902430635455,397.85804013981186,0.48853608721273656,249.2927838714969,1.93498146534,7.71289396286,-111.573120117,0
12.3,16.864767897018243,1.8322896042668195,397.9328127232985,0.4856603207960108,249.86793598923876,1.050786729153911,6.928907475641245,-110.37758733448509,0
12.4,16.851859862889995,1.9450889654700938,398.0075853067852,0.48278455437928497,250.44308810698064,1.01994419098,6.90106201172,-110.33568573,0
12.5,16.83924551487227,2.0442527360978877,398.07969767829127,0.4800721974190886,251.01444160035035,1.01994419098,6.90106201172,-110.33568573,0
12.600000000000001,16.835598012946377,1.7270936447352716,398.07058826045704,0.48234907009599587,251.46981521287165,1.01994419098,6.90106201172,-110.33568573,0
12.700000000000001,16.831950511020484,1.4099345533726613,398.0614788426229,0.4846259427729031,251.92518882539295,-1.50372636318,10.2519292831,-108.321640015,0
12.8,16.82830300909459,1.0927754620100512,398.0523694247887,0.4869028154498103,252.38056243791422,-1.50372636318,10.2519292831,-108.321640015,0
12.9,16.824655507168696,0.7756163706474408,398.04326000695454,0.4891796881267175,252.83593605043552,-1.50372636318,10.2519292831,-108.321640015,0
13.0,16.828617430581424,0.28761312788995325,398.002574080282,0.49162640465529583,253.16263966693904,-1.50372636318,10.2519292831,-108.321640015,0
13.100000000000001,16.83686493917626,-0.29660857172661337,397.9441044429667,0.4941687762776035,253.416877071636,-2.439880957195887,9.697138773224182,-107.30980946205467,0
13.200000000000001,16.84511244777109,-0.8808302713431697,397.88563480565136,0.49671114789991117,253.671114476333,-2.90416693687,9.42237949371,-106.805046082,0
13.3,16.85335995636592,-1.4650519709597258,397.8271651683361,0.49925351952221886,253.92535188102997,-2.90416693687,9.42237949371,-106.805046082,0
13.4,16.84483522837116,-1.4738656620237318,397.79856848052174,0.5,254.2539898563049,-2.90416693687,9.42237949371,-106.805046082,0
13.5,16.829338949110042,-1.2435051434188875,397.7823887889625,0.5,254.613553187853,-2.3855104806993146,8.746117094304353,-105.49981529181579,0
13.600000000000001,16.813842669848924,-1.0131446248140392,397.7662090974033,0.5,254.97311651940106,-2.25561189651,8.57586479187,-105.173240662,0
13.700000000000001,16.798346390587806,-0.7827841062091953,397.7500294058441,0.5,255.33267985094915,-2.25561189651,8.57586479187,-105.173240662,0
13.8,16.782850111326688,-0.5524235876043511,397.73384971428493,0.5,255.6922431824972,-2.25561189651,8.57586479187,-105.173240662,0
13.9,16.764183478914404,-0.3472501457528105,397.72240532331494,0.4995190625795115,256.0,-2.25561189651,8.57586479187,-105.173240662,0
14.0,16.726683350094515,-0.29170064071008567,397.73909100567874,0.49618111436269374,256.0,-2.169880216972375,8.51685147988844,-105.03097596479027,0
14.100000000000001,16.689183221274625,-0.23615113566735985,397.7557766880426,0.4928431661458759,256.0,-1.22335708141,7.95287179947,-103.450500488,0
14.200000000000001,16.65152631177277,-0.164462592289176,397.7786639232516,0.490000009537,256.03943118702534,-1.22335708141,7.95287179947,-103.450500488,0
14.3,16.612968513846525,-3.6393769213716176e-05,397.83718633430857,0.490000009537,256.30544067123174,-0.8552172934256619,7.768385520946234,-103.38063120624577,0
14.4,16.574410715920276,0.16438980475074855,397.8957087453656,0.490000009537,256.57145015543813,0.411937445402,7.11937999725,-103.138381958,0
14.5,16.53585291799403,0.32881600327071087,397.95423115642257,0.490000009537,256.8374596396445,0.411937445402,7.11937999725,-103.138381958,0
14.600000000000001,16.495646306705204,0.4916829191032949,398.0083844416639,0.48897806545847544,257.0,0.411937445402,7.11937999725,-103.138381958,0
14.700000000000001,16.452849563132094,0.6521003470068178,398.05567423702456,0.48635074237794135,257.0,-0.725270450115,9.78155136108,-102.236297607,0
14.8,16.410052819558985,0.8125177749103407,398.1029640323853,0.4837234192974073,257.0,-0.725270450115,9.78155136108,-102.236297607,0
14.9,16.36725607598588,0.9729352028138636,398.1502538277459,0.48109609621687327,257.0,-0.725270450115,9.78155136108,-102.236297607,0
15.0,16.323375203897598,0.781342114290484,398.19333147334646,0.479999989271,257.19457927897554,-0.725270450115,9.78155136108,-102.236297607,0
15.100000000000001,16.27871826841187,0.33776554457067,398.2333938903945,0.479999989271,257.52844633998285,0.3858482756870991,12.248807160071937,-102.19733600970943,0
15.200000000000001,16.23406133292614,-0.1058110251491362,398.2734563074425,0.479999989271,257.86231340099016,0.500813066959,12.4816761017,-102.193252563,0
15.3,16.194420110593907,-0.16315691700900958,398.3075451656114,0.4785363751141117,258.2927231105477,0.500813066959,12.4816761017,-102.193252563,0
15.4,16.158299098575608,0.05056795896581179,398.3374415624225,0.4760455431931665,258.7908899698385,0.10652934922316076,13.833139478403835,-101.55977909359987,0
15.5,16.122178086557305,0.26429283494063316,398.3673379592337,0.4735547112722213,259.2890568291292,0.0804879069328,13.9240274429,-101.516853333,0
15.600000000000001,16.086057074539,0.4780177109154583,398.39723435604486,0.4710638793512761,259.78722368842,0.0804879069328,13.9240274429,-101.516853333,0
15.700000000000001,16.058791190008794,0.6843086619846825,398.406821739018,0.47158940664547794,260.4768228059893,0.0804879069328,13.9240274429,-101.516853333,0
15.8,16.038127350923336,0.8850571620699359,398.40126749557453,0.4743638163688544,261.3091465167894,-0.997489571571,15.1393928528,-98.8868484497,0
15.9,16.017463511837878,1.085805662155189,398.3957132521311,0.4771382260922309,262.1414702275894,-0.997489571571,15.1393928528,-98.8868484497,0
16.0,15.996799672752418,1.2865541622404426,398.3901590086876,0.4799126358156074,262.97379393838946,-0.997489571571,15.1393928528,-98.8868484497,0
16.1,15.984115657364475,0.9086853330625388,398.36298750371043,0.479999989271,263.49091314067994,-0.997489571571,15.1393928528,-98.8868484497,0
16.2,15.971691057896365,0.512006245363669,398.33511324363525,0.479999989271,263.9977853662689,-2.1188890934,17.7370643616,-95.9540939331,0
16.3,15.959266458428255,0.11532715766478496,398.30723898356,0.479999989271,264.50465759185784,-2.1188890934,17.7370643616,-95.9540939331,0
16.400000000000002,15.946834757240538,-0.28357497033945256,398.2795643967509,0.479999989271,265.00723999881905,-2.1188890934,17.7370643616,-95.9540939331,0
16.5,15.934097952966155,-0.7779830457132926,398.2604681449363,0.479999989271,265.3255238165479,-1.955918152045355,18.028357093297725,-95.72268996476235,0
16.6,15.921361148691771,-1.2723911210871504,398.24137189312165,0.479999989271,265.6438076342767,-1.43224513531,18.9716567993,-94.8220367432,0
16.7,15.908624344417388,-1.7667991964609904,398.222275641307,0.479999989271,265.96209145200555,-1.43224513531,18.9716567993,-94.8220367432,0
16.8,15.908034052243822,-1.477037573766116,398.2142036383469,0.479999989271,266.96630307185217,-1.43224513531,18.9716567993,-94.8220367432,0
16.900000000000002,15.909086046985843,-1.0812511413111405,398.20762218506036,0.479999989271,268.06325656237783,-1.10391998291,18.1535930634,-93.0980834961,0
17.0,15.910138041727864,-0.6854647088561794,398.20104073177384,0.479999989271,269.16021005290344,-1.10391998291,18.1535930634,-93.0980834961,0
17.1,15.911190036469884,-0.28967827640120425,398.19445927848733,0.479999989271,270.2571635434291,-1.10391998291,18.1535930634,-93.0980834961,0
17.2,15.910067681142003,-0.13849600153141128,398.1705334141207,0.48084642998558336,271.42321949959506,-1.10391998291,18.1535930634,-93.0980834961,0
17.3,15.90438416002316,-0.5004234284285081,398.1102239261703,0.48346846170773994,272.73423270377396,-2.534546423453048,19.887600111355823,-89.24521875491298,0
17.400000000000002,15.898700638904314,-0.8623508553256048,398.04991443821984,0.48609049342989646,274.04524590795285,-2.87236404419,20.1222991943,-88.3335113525,0
17.5,15.89301711778547,-1.224278282222689,397.98960495026944,0.4887125251520529,275.35625911213174,-2.87236404419,20.1222991943,-88.3335113525,0
17.6,15.895198155190378,-1.253627882768879,397.9317363310389,0.49148710080095814,276.892255609319,-2.87236404419,20.1222991943,-88.3335113525,0
17.7,15.90496640663522,-0.9621280490029074,397.8762225030361,0.4944088408989852,278.645301340015,-3.7168829304067104,22.04524649173877,-83.46721818625738,0
17.8,15.914734658080063,-0.6706282152369255,397.82070867503325,0.49733058099701233,280.398347070711,-3.81966328621,22.2806224823,-82.8751144409,0
17.900000000000002,15.921211039412295,-0.4004450618699332,397.76845451108073,0.5001918448807403,282.11510703822177,-3.81966328621,22.2806224823,-82.8751144409,0
18.0,15.892861237731207,-0.3557807131386774,397.75068580763946,0.5024133035367139,283.4479835029702,-3.6594174357322875,22.604044184684273,-82.12527512499102,0
18.1,15.864511436050119,-0.31111636440741985,397.7329171041982,0.5046347621926877,284.7808599677187,-2.69906616211,24.5786418915,-77.6407775879,0
18.2,15.83616163436903,-0.26645201567616394,397.71514840075696,0.5068562208486612,286.1137364324672,-2.69906616211,24.5786418915,-77.6407775879,0
18.3,15.80781183268794,-0.22178766694490648,397.6973796973157,0.509077679504635,287.4466128972157,-2.69906616211,24.5786418915,-77.6407775879,0
18.400000000000002,15.77596390027416,-0.1387297741699277,397.67987088599926,0.5116886500813276,288.8443306143174,-2.69906616211,24.5786418915,-77.6407775879,0
18.5,15.741632520970935,-0.02841494481478002,397.66254658130606,0.5145761489646584,290.28808143274364,-2.1666921743722423,26.536703561926952,-74.13571491288592,0
18.6,15.707301141667708,0.08189988454037159,397.64522227661286,0.5174636478479894,291.7318322511699,-1.82836079597,27.7852401733,-71.8210906982,0
18.7,15.674242389993875,0.13801194683482282,397.62793462708953,0.5203448618683905,293.1724406351519,-1.82836079597,27.7852401733,-71.8210906982,0
18.8,15.650375329293297,-0.19736135014732362,397.61091172350336,0.5231806827851646,294.59035244580144,-1.829671202385763,28.2326688260384,-71.2141685059892,0
18.900000000000002,15.626508268592717,-0.53273464712947,397.59388881991714,0.5260165037019389,296.00826425645107,-1.84020602703,31.8173122406,-66.3437042236,0
19.0,15.602641207892141,-0.8681079441116045,397.5768659163309,0.5288523246187129,297.4261760671006,-1.84020602703,31.8173122406,-66.3437042236,0
19.1,15.57688926034979,-0.8833186899414626,397.5513411530325,0.52999997139,299.0650152319046,-1.84020602703,31.8173122406,-66.3437042236,0
19.200000000000003,15.549855937717085,-0.6808780050233889,397.5200366946269,0.52999997139,300.85404421294413,-2.38709187508,33.92578125,-61.2837753296,0
19.3,15.522822615084381,-0.4784373201053226,397.4887322362213,0.52999997139,302.64307319398364,-2.38709187508,33.92578125,-61.2837753296,0
19.400000000000002,15.495789292451677,-0.27599663518724904,397.4574277778158,0.52999997139,304.4321021750232,-2.38709187508,33.92578125,-61.2837753296,0
19.5,15.463565784175609,-0.11340026583929476,397.4291855712028,0.52999997139,306.24214128622805,-2.38709187508,33.92578125,-61.2837753296,0
19.6,15.394542030622688,-0.23331413535773954,397.4226558089632,0.52999997139,308.2011496244532,-2.38709187508,33.92578125,-61.2837753296,0
19.700000000000003,15.325518277069767,-0.3532280048761843,397.4161260467236,0.52999997139,310.1601579626784,-0.582478880882,32.1793365479,-53.2331848145,0
19.8,15.256494523516848,-0.4731418743946248,397.409596284484,0.52999997139,312.1191663009035,-0.582478880882,32.1793365479,-53.2331848145,0
19.900000000000002,15.187470769963927,-0.5930557439130695,397.4030665222444,0.52999997139,314.07817463912863,-0.582478880882,32.1793365479,-53.2331848145,0
20.0,15.109464094676797,-0.48478592681378463,397.438137690572,0.5273694448862973,316.18373805553796,-0.582478880882,32.1793365479,-53.2331848145,0
20.1,15.02347359662153,-0.17371148039246315,397.5101828487066,0.5224009644279856,318.41955639396645,1.9885185957,31.4231014252,-44.3691940308,0
20.200000000000003,14.937483098566263,0.13736296602885834,397.58222800684126,0.5174324839696737,320.65537473239493,1.9885185957,31.4231014252,-44.3691940308,0
20.3,14.851492600511,0.4484374124501689,397.65427316497596,0.512464003511362,322.89119307082336,1.9885185957,31.4231014252,-44.3691940308,0
20.400000000000002,14.770355580307006,0.9583318180551793,397.728763510694,0.5077197004915222,324.91211685847696,1.9885185957,31.4231014252,-44.3691940308,0
20.5,14.693993640308873,1.6638346678975102,397.80565954717383,0.5031959537988876,326.72161726125137,1.5179061714506294,30.13555831415874,-36.27401307339119,0
20.6,14.624141989231495,2.0289770766218855,397.8789597942791,0.49909641922414466,328.4517908188006,1.48116695881,30.0362243652,-35.6433029175,0
20.700000000000003,14.569960389339151,1.5748831045036291,397.9436050946938,0.4960179492567627,329.99102727046136,1.176040500099926,29.576510271600608,-34.11275069689999,0
20.8,14.515778789446811,1.120789132385389,398.0082503951084,0.49293947928938076,331.53026372212213,0.627679765224,28.7444419861,-31.3644943237,0
20.900000000000002,14.462107314405522,0.6852130418537922,398.07199243676064,0.4898449666021115,333.0620170482716,0.627679765224,28.7444419861,-31.3644943237,0
21.0,14.419223567783224,0.6412388837485499,398.11663305608215,0.48641119480035744,334.43552298542613,0.627679765224,28.7444419861,-31.3644943237,0
21.1,14.376339821160924,0.5972647256433059,398.16127367540366,0.4829774229986033,335.8090289225807,-0.153414472938,26.7750759125,-26.7036647797,0
21.200000000000003,14.334864621233589,0.5568258528058361,398.2040975942791,0.4797256405022503,337.16460941823783,-0.153414472938,26.7750759125,-26.7036647797,0
21.3,14.302579656954023,0.5394533822460084,398.2350682283038,0.4776612695471607,338.40323317256707,-0.153414472938,26.7750759125,-26.7036647797,0
21.400000000000002,14.270294692674454,0.52208091168618,398.26603886232857,0.47559689859207105,339.6418569268963,0.351565212011,26.6326160431,-22.1488018036,0
21.5,14.23800972839489,0.5047084411263523,398.29700949635327,0.47353252763698145,340.88048068122555,0.351565212011,26.6326160431,-22.1488018036,0
21.6,14.20572476411532,0.4873359705665239,398.327980130378,0.4714681566818918,342.11910443555485,0.351565212011,26.6326160431,-22.1488018036,0
21.700000000000003,14.178079697326899,0.42339033994262126,398.35644755425113,0.4693556970909441,343.2577209326108,0.351565212011,26.6326160431,-22.1488018036,0
21.8,14.161860247068041,0.24475961800420007,398.3787508938229,0.4671248205923403,344.15007238308795,0.43622558652848803,24.771768252565025,-19.501275072043292,0
21.900000000000002,14.145640796809184,0.06612889606577255,398.40105423339463,0.46489394409373636,345.04242383356507,0.537819445133,22.518825531,-16.2953052521,0
22.0,14.129421346550327,-0.11250182587264862,398.42335757296644,0.46266306759513254,345.9347752840422,0.537819445133,22.518825531,-16.2953052521,0
22.1,14.11320189629147,-0.29113254781107617,398.4456609125382,0.4604321910965286,346.8271267345193,0.537819445133,22.518825531,-16.2953052521,0
22.200000000000003,14.109356856356225,-0.3349767365471133,398.449981689,0.4581860124899691,347.7255968715177,0.537819445133,22.518825531,-16.2953052521,0
22.3,14.108485088947724,-0.34643497026265996,398.449981689,0.45593615715571145,348.6255371814018,-0.762012064457,20.6496162415,-12.2923212051,0
22.400000000000002,14.107613321539223,-0.357893203978207,398.449981689,0.4536863018214537,349.5254774912858,-0.762012064457,20.6496162415,-12.2923212051,0
22.5,14.106741554130721,-0.36935143769375367,398.449981689,0.45143644648719605,350.4254178011699,-0.762012064457,20.6496162415,-12.2923212051,0
22.6,14.108992293319925,-0.26016400218038305,398.4592693936589,0.44896797988760445,351.3096027526868,-0.762012064457,20.6496162415,-12.2923212051,0
22.700000000000003,14.116757376998526,0.06208360165132154,398.48495917831406,0.44611344594480845,352.1659637522371,-0.712333639168437,18.499465380754884,-9.374205817270596,0
22.8,14.124522460677127,0.38433120548301464,398.51064896296924,0.4432589120020126,353.0223247517873,-0.690691053867,17.5527210236,-8.09658432007,0
22.900000000000002,14.132287544355728,0.7065788093147192,398.5363387476244,0.4404043780592166,353.8786857513376,-0.690691053867,17.5527210236,-8.09658432007,0
23.0,14.145300974677196,0.5531691443425899,398.5375867068264,0.439999997616,354.479258592149,-0.690691053867,17.5527210236,-8.09658432007,0
23.1,14.159180607357806,0.3212556235054476,398.53480071623244,0.439999997616,355.03761541301793,-2.33481097221,15.9601478577,-5.94392204285,0
23.200000000000003,14.173060240038417,0.08934210266830545,398.5320147256385,0.439999997616,355.59597223388687,-2.33481097221,15.9601478577,-5.94392204285,0
23.3,14.190979669359718,-0.09986810095968042,398.51446250923874,0.4409709913263988,356.1941989272873,-2.33481097221,15.9601478577,-5.94392204285,0
23.400000000000002,14.219475137100183,-0.17728259713039224,398.45825285898354,0.4444840107126705,356.8968034746156,-2.723018179316243,15.324829034565237,-4.97071692640238,0
23.5,14.247970604840646,-0.25469709330110135,398.4020432087284,0.44799703009894215,357.5994080219439,-3.27989172935,14.4482440948,-3.57054948807,0
23.6,14.279475958196103,-0.2113590860411343,398.33664127949237,0.4510422737581396,320.6862483068516,-3.27989172935,14.4482440948,-3.57054948807,0
23.700000000000003,14.314973648808046,-0.007853956197166223,398.25904663513643,0.4534670558112292,233.87922672935332,-3.7277520602003946,14.151373366204815,-2.075297549018291,0
23.8,14.350471339419988,0.19565117364679457,398.1814519907805,0.45589183786431875,147.07220515185816,-3.97167420387,13.9885339737,-1.2618714571,0
23.900000000000002,14.385969030031932,0.3991563034907626,398.1038573464246,0.45831661991740835,60.265183574359924,-3.97167420387,13.9885339737,-1.2618714571,0
24.0,14.424756926738924,0.3549110714380219,398.01856660836506,0.4608057117613935,0.0805704184793578,-3.97167420387,13.9885339737,-1.2618714571,0
24.1,14.471015476921096,-0.25186946953174527,397.9158013269148,0.4634408236870888,0.34408186235975124,-4.511845782371821,10.202382349073176,-0.09489262573996204,0
24.200000000000003,14.517274027103268,-0.8586500105015125,397.8130360454645,0.46607593561278404,0.6075933062401446,-4.57918691635,9.72244167328,0.0632618367672,0
24.3,14.563532577285438,-1.465430551471258,397.7102707640143,0.46871104753847925,0.8711047501205288,-4.57918691635,9.72244167328,0.0632618367672,0
24.400000000000002,14.592476410164148,-1.6621399408459305,397.61922690576523,0.4711650275602547,1.11650298633437,-4.57918691635,9.72244167328,0.0632618367672,0
24.5,14.604841369824923,-1.4662054589130449,397.53940633148795,0.47344557345554794,1.3445577933595647,-3.56212425232,5.3331489563,1.68009638786,0
24.6,14.6172063294857,-1.2702709769801526,397.4595857572106,0.4757261193508413,1.5726126003847676,-3.56212425232,5.3331489563,1.68009638786,0
24.700000000000003,14.629571289146478,-1.07433649504726,397.37976518293334,0.47800666524613467,1.8006674074099704,-3.56212425232,5.3331489563,1.68009638786,0
24.8,14.636213606864459,-0.8901345500175611,397.308959251199,0.479999989271,1.9307766648480067,-3.56212425232,5.3331489563,1.68009638786,0
24.900000000000002,14.603140704939584,-0.787356584460245,397.3007150719162,0.479999989271,1.3811423608717526,-1.7838385716089777,4.198465072846726,2.1220550231523867,0
25.0,14.57006780301471,-0.6845786189029326,397.2924708926335,0.479999989271,0.831508056895518,-0.331110805273,3.26743793488,2.48395943642,0
25.1,14.536994901089837,-0.5818006533456164,397.2842267133508,0.479999989271,0.28187375291926386,-0.331110805273,3.26743793488,2.48395943642,0
25.200000000000003,14.498587741420609,-0.49855892453895395,397.28394019101853,0.47802820203847374,70.78722915747299,-0.331110805273,3.26743793488,2.48395943642,0
25.3,14.454565164381256,-0.4358831541943897,397.29203076015926,0.4739806980321494,216.0927615624048,0.552283644676,2.6627509594,0.510275959969,0
25.400000000000002,14.410361987731633,-0.3744016684879898,397.30048365721586,0.469999998808,359.0,0.552283644676,2.6627509594,0.510275959969,0
25.5,14.355397414890541,-0.38408406922458166,397.33052660227,0.469999998808,359.0,0.552283644676,2.6627509594,0.510275959969,0
25.6,14.300432842049446,-0.3937664699611739,397.36056954732425,0.469999998808,359.0,0.571885228157,2.11529135704,-0.0936943814158,0
25.700000000000003,14.24546826920835,-0.40344887069776614,397.3906124923784,0.469999998808,359.0,0.571885228157,2.11529135704,-0.0936943814158,0
25.8,14.190503696367259,-0.413131271434358,397.42065543743263,0.469999998808,359.0,0.571885228157,2.11529135704,-0.0936943814158,0
25.900000000000002,14.132017972606823,-0.13488186988603024,397.4565907528835,0.46809992261172517,290.7871994991861,0.571885228157,2.11529135704,-0.0936943814158,0
26.0,14.071944385800686,0.27321038106144585,397.49518323282945,0.46534300703389536,191.8138358641999,1.37561368942,-1.12936747074,-0.0435583814979,0
26.1,14.011870798994545,0.6813026320089364,397.53377571277537,0.4625860914560655,92.84047222921015,1.37561368942,-1.12936747074,-0.0435583814979,0
26.200000000000003,13.95273347602806,1.0437817689740925,397.57106164297124,0.460000008345,6.469827180550895,1.37561368942,-1.12936747074,-0.0435583814979,0
26.3,13.90776943141488,0.7157639181768544,397.5885688606865,0.460000008345,110.8807022194816,1.37561368942,-1.12936747074,-0.0435583814979,0
26.400000000000002,13.8628053868017,0.3877460673796047,397.60607607840177,0.460000008345,215.29157725841603,1.11412644386,0.561736524105,0.0465121082962,0
26.5,13.81784134218852,0.05972821658236649,397.62358329611703,0.460000008345,319.7024522973467,1.11412644386,0.561736524105,0.0465121082962,0
26.6,13.784149997654517,0.09409473509451607,397.6211376654968,0.460000008345,357.5568464911383,1.11412644386,0.561736524105,0.0465121082962,0
26.700000000000003,13.756988603834142,0.3383800888776674,397.6071339241035,0.460000008345,356.8569869090985,0.469912019691624,1.659518295918252,-1.2241982658118922,0
26.8,13.729827210013768,0.58266544266081,397.5931301827101,0.460000008345,356.1571273270588,0.265502363443,2.00980401039,-1.62686085701,0
26.900000000000002,13.702665816193393,0.8269507964439613,397.57912644131676,0.460000008345,355.457267745019,0.265502363443,2.00980401039,-1.62686085701,0
27.0,13.686392785701091,0.7847270663416799,397.54707610227456,0.4609542422906031,355.0,0.265502363443,2.00980401039,-1.62686085701,0
27.1,13.690643518114918,0.2024548155442858,397.4810092558613,0.4637071369408912,355.0,-0.38222880616578253,3.613930495550326,-4.155691846122194,0
27.200000000000003,13.694894250528744,-0.3798174352531082,397.4149424094481,0.4664600315911794,355.0,-0.48283007741,3.86446928978,-4.55332946777,0
27.3,13.699144982942569,-0.9620896860504816,397.3488755630348,0.46921292624146743,355.0,-0.48283007741,3.86446928978,-4.55332946777,0
27.400000000000002,13.718617692930351,-0.9965287070514192,397.29779166051617,0.47201213280400395,355.2012135914978,-0.48283007741,3.86446928978,-4.55332946777,0
27.5,13.74418495290607,-0.8116271733954726,397.25270660407966,0.47482988165270934,355.4829887450973,-0.8797489765438669,3.28044190621383,-4.8008854102600775,0
27.6,13.769752212881787,-0.6267256397395196,397.2076215476431,0.4776476305014149,355.7647638986968,-0.981726229191,3.13949275017,-4.86457920074,0
27.700000000000003,13.79335159471191,-0.4818786390427569,397.1623104766505,0.479999989271,356.0,-0.981726229191,3.13949275017,-4.86457920074,0
27.8,13.807004147804257,-0.5394911150204239,397.1158569934173,0.479999989271,356.0,-1.035076046481148,3.27756241025088,-4.813282964927033,0
27.900000000000002,13.820656700896608,-0.5971035909980928,397.0694035101841,0.479999989271,356.0,-1.93327522278,4.94687414169,-3.83962965012,0
28.0,13.834309253988955,-0.6547160669757599,397.0229500269509,0.479999989271,356.0,-1.93327522278,4.94687414169,-3.83962965012,0
28.1,13.844285527613286,-0.6711957434742749,396.9762782825663,0.48085696835828895,356.0,-1.93327522278,4.94687414169,-3.83962965012,0
28.200000000000003,13.845282092383991,-0.5872041236879777,396.9290734117936,0.4838072112369843,356.0,-1.0216825129163942,4.017218593469698,-3.6819542343604956,0
28.3,13.846278657154699,-0.5032125039016835,396.88186854102094,0.48675745411567956,356.0,-0.322719603777,3.30130171776,-3.55997896194,0
28.400000000000002,13.847275221925404,-0.41922088411538616,396.83466367024823,0.4897076969943749,356.0,-0.322719603777,3.30130171776,-3.55997896194,0
28.5,13.851320403917725,-0.4835038368845552,396.84243502412767,0.48822184167620186,355.6443671485659,-0.322719603777,3.30130171776,-3.55997896194,0
28.6,13.855700865220962,-0.5640936569640363,396.85625252594184,0.4862481153534115,355.24962268399696,1.20614850521,9.28555679321,-3.95852398872,0
28.700000000000003,13.860081326524197,-0.6446834770435175,396.87007002775596,0.48427438903062114,354.85487821942803,1.20614850521,9.28555679321,-3.95852398872,0
28.8,13.864461787827434,-0.7252732971229958,396.88388752957013,0.48230066270783084,354.4601337548591,1.20614850521,9.28555679321,-3.95852398872,0
28.900000000000002,13.86884224913067,-0.8058631172024769,396.89770503138425,0.4803269363850405,354.06538929029017,1.20614850521,9.28555679321,-3.95852398872,0
29.0,13.889242933800135,-0.5924229049016339,396.87724549181985,0.48189577060367506,354.758310996277,1.20614850521,9.28555679321,-3.95852398872,0
29.1,13.912824230520105,-0.32060676095360247,396.8499806806701,0.4841679352622245,355.6671750177929,-0.49854195118,6.57367801666,-5.18625402451,0
29.200000000000003,13.936405527240076,-0.04879061700557108,396.8227158695204,0.4864400999207739,356.57603903930885,-0.49854195118,6.57367801666,-5.18625402451,0
29.3,13.959986823960046,0.2230255269424508,396.79545105837065,0.48871226457932326,357.48490306082476,-0.49854195118,6.57367801666,-5.18625402451,0
29.400000000000002,13.991124642310929,0.2957565165950234,396.75651251271245,0.4914678661844726,358.0,-0.49854195118,6.57367801666,-5.18625402451,0
29.5,14.03214734270872,0.1080590493963256,396.70230325199526,0.4948558642052835,358.0,-1.8402786157208142,10.289433481556058,-2.451977699348067,0
29.6,14.073170043106513,-0.07963841780237885,396.648093991278,0.4982438622260945,358.0,-2.01664996147,10.7829504013,-1.85756731033,0
29.700000000000003,14.098364228191997,-0.22118156474733222,396.6095734223946,0.5,357.76839736289304,-2.01664996147,10.7829504013,-1.85756731033,0
29.8,14.106524446246606,-0.31305541839327544,396.5879363485315,0.5,357.287553934284,-1.0652654842937066,11.243962329352055,-1.8041110018049287,0
29.900000000000002,14.114684664301215,-0.40492927203922197,396.56629927466844,0.5,356.80671050567497,-1.00418663025,11.2733898163,-1.8007055521,0
30.0,14.122844882355825,-0.4968031256851652,396.5446622008053,0.5,356.3258670770659,-1.00418663025,11.2733898163,-1.8007055521,0
30.1,14.120609565259722,-0.5024358766493039,396.53850325381285,0.5,356.0,-1.00418663025,11.2733898163,-1.8007055521,0
30.200000000000003,14.096515670255657,-0.3267304055297182,396.56488999467257,0.5,356.0,0.9001925360126677,11.56900640704353,-3.748931753358039,0
30.3,14.072421775251593,-0.15102493441013864,396.5912767355323,0.5,356.0,1.1388258934,11.606344223,-3.99288463593,0
30.400000000000002,14.048327880247527,0.024680536709447143,396.61766347639195,0.5,356.0,1.1388258934,11.606344223,-3.99288463593,0
30.5,14.004816553327018,0.2723112401272101,396.6915447359306,0.49488928790554093,356.2555354676409,1.2544606661167417,11.204622966930568,-3.971829182635978,0
30.6,13.95942311108436,0.5269135957356404,396.7700295991646,0.48928319879204824,356.53583977294636,2.89907336235,5.42439365387,-3.67007064819,0
30.700000000000003,13.914029668841705,0.7815159513440709,396.84851446239855,0.48367710967855554,356.81614407825174,2.89907336235,5.42439365387,-3.67007064819,0
30.8,13.86985899020299,0.9321749538178891,396.93165156796834,0.4792637525036456,357.0,2.89907336235,5.42439365387,-3.67007064819,0
30.900000000000002,13.828019219778511,0.8846906562658267,397.02365706791977,0.4771240553101581,357.0,2.98166012764,3.58761143684,-2.72675848007,0
31.0,13.786179449354032,0.8372063587137659,397.11566256787114,0.47498435811667067,357.0,2.98166012764,3.58761143684,-2.72675848007,0
31.1,13.74433967892955,0.7897220611617035,397.2076680678225,0.47284466092318317,357.0,2.98166012764,3.58761143684,-2.72675848007,0
31.200000000000003,13.702499908505072,0.7422377636096411,397.2996735677739,0.47070496372969567,357.0,2.98166012764,3.58761143684,-2.72675848007,0
31.3,13.673457495749002,0.6779821243548628,397.3805308081095,0.46831529537316724,356.8315294958464,2.98166012764,3.58761143684,-2.72675848007,0
31.400000000000002,13.650703146922345,0.6054857785775875,397.45591027944135,0.46580280207930086,356.58027992684305,1.6701057241949906,3.9430790616384317,-2.5167172655416876,0
31.5,13.62794879809569,0.5329894328003146,397.5312897507732,0.4632903087854346,356.3290303578397,1.64905917645,3.94914317131,-2.51339054108,0
31.6,13.605194449269034,0.4604930870230392,397.6066692221051,0.4607778154915682,356.0777807888364,1.64905917645,3.94914317131,-2.51339054108,0
31.700000000000003,13.593974618176684,0.5822286141580849,397.68098768919833,0.45835538540509657,355.8355380393083,1.64905917645,3.94914317131,-2.51339054108,0
31.8,13.587926691143135,0.7910547882541534,397.7548304179682,0.4559733383045984,355.5973338120031,1.4186445837780721,3.880880255124822,-3.46106357902932,0
31.900000000000002,13.581878764109588,0.9998809623502293,397.8286731467381,0.4535912912041001,355.359129584698,1.35874605179,3.86344647408,-3.73092341423,0
32.0,13.57583083707604,1.2087071364462978,397.9025158755079,0.4512092441036019,355.1209253573929,1.35874605179,3.86344647408,-3.73092341423,0
32.1,13.57771107834859,1.1046177601900695,397.9373685335561,0.449999988079,355.26313378109955,1.35874605179,3.86344647408,-3.73092341423,0
32.2,13.587765994109414,0.6778835222597865,397.9320188240308,0.449999988079,355.7975828174143,-0.5130295748366915,6.287663779116009,-4.051122810088654,0
32.300000000000004,13.597820909870238,0.25114928432950356,397.9266691145056,0.449999988079,356.3320318537291,-1.00587379932,6.92027997971,-4.13638162613,0
32.4,13.607875825631062,-0.175584953600749,397.9213194049804,0.449999988079,356.8664808900438,-1.00587379932,6.92027997971,-4.13638162613,0
32.5,13.635120913737325,-0.1330651698132148,397.86711651685204,0.45229872677263205,274.9351949498687,-1.00587379932,6.92027997971,-4.13638162613,0
32.6,13.668090734173752,0.06572725715704208,397.79664436944216,0.45536299960132653,165.54087666400252,-1.7801749540608078,8.115081890459635,-2.3857240827584705,0
32.7,13.701060554610182,0.26451968412729904,397.7261722220323,0.45842727243002096,56.146558378136376,-1.90126109123,8.27842617035,-2.11195158958,0
32.800000000000004,13.75157047492477,0.2015525563245728,397.65573692619137,0.4614276133268229,0.0,-1.90126109123,8.27842617035,-2.11195158958,0
32.9,13.820575374999517,-0.1374242693238934,397.58534048811214,0.46436054184886094,0.0,-2.83744740486,13.0969705582,0.566243946552,0
33.0,13.88958027507427,-0.4764010949723837,397.51494405003285,0.4672934703708992,0.0,-2.83744740486,13.0969705582,0.566243946552,0
33.1,13.955580153583401,-0.8116938090323923,397.44947510913113,0.469999998808,9.09810669173699,-2.83744740486,13.0969705582,0.566243946552,0
33.2,13.985656121888626,-1.1029443453589762,397.4429125561771,0.469999998808,126.96068002121842,-2.83744740486,13.0969705582,0.566243946552,0
33.300000000000004,14.01573209019385,-1.39419488168556,397.436350003223,0.469999998808,244.82325335069984,-0.590427994728,13.41355896,0.610536813736,0
33.4,14.045505552243235,-1.6739589023497967,397.4280800758682,0.4701062497442784,357.12467198070544,-0.590427994728,13.41355896,0.610536813736,0
33.5,14.065908204667084,-1.597902342595647,397.3669203977701,0.47350386169272063,297.1568532604369,-0.590427994728,13.41355896,0.610536813736,0
33.6,14.086310857090933,-1.5218457828414969,397.3057607196721,0.4769014736411628,237.18903454016834,-0.498564600945,10.5682983398,-0.227274164557,0
33.7,14.106713509514783,-1.4457892230873468,397.244601041574,0.48029908558960505,177.2212158198998,-0.498564600945,10.5682983398,-0.227274164557,0
33.800000000000004,14.127116161938632,-1.369732663333197,397.183441363476,0.4836966975380472,117.25339709963126,-0.498564600945,10.5682983398,-0.227274164557,0
33.9,14.14751881436248,-1.2936761035790525,397.1222816853779,0.48709430948648924,57.285578379366996,-0.498564600945,10.5682983398,-0.227274164557,0
34.0,14.175230182858598,-1.1755137423192485,397.0558916609706,0.49056341484085597,6.0,-0.498564600945,10.5682983398,-0.227274164557,0
34.1,14.2461137875817,-0.8086344256935152,396.95860623110747,0.49445482832413706,6.0,-1.908331107351989,13.166417792022132,3.5463501030918816,0
34.2,14.316997392304803,-0.4417551090677817,396.8613208012443,0.4983462418074182,6.0,-2.84752082825,14.6642093658,6.05836820602,0
34.300000000000004,14.373862326338008,-0.4567261960765371,396.8219431266861,0.5,6.0,-2.84752082825,14.6642093658,6.05836820602,0
34.4,14.42036664245169,-0.7539070747256261,396.8253626716763,0.5,6.0,-0.626257240772,17.4399280548,6.17100906372,0
34.5,14.466870958565377,-1.0510879533747362,396.8287822166665,0.5,6.0,-0.626257240772,17.4399280548,6.17100906372,0
34.6,14.495397656726894,-0.8930885824115407,396.8434699854748,0.5,6.842533355987371,-0.626257240772,17.4399280548,6.17100906372,0
34.7,14.514150275274984,-0.4876166035640517,396.86428406740157,0.5,8.143135635249184,-0.0036956542170679674,17.556200807733426,6.398211384377176,0
34.800000000000004,14.532902893823074,-0.0821446247165627,396.88509814932837,0.5,9.443737914510997,0.500299751759,17.6504821777,6.5821518898,0
34.9,14.551655512371163,0.3233273541308974,396.9059122312552,0.5,10.744340193772716,0.500299751759,17.6504821777,6.5821518898,0
35.0,14.583687409612505,0.15979968631497776,396.8614046524207,0.5040495634504882,11.80991346247163,0.500299751759,17.6504821777,6.5821518898,0
35.1,14.618968268308821,-0.14294171159931912,396.80091521471485,0.5090899092969207,12.817983593104193,-1.48861789703,23.4416866302,11.6297473907,0
35.2,14.654249127005137,-0.445683109513616,396.7404257770091,0.5141302551433531,13.826053723736756,-1.48861789703,23.4416866302,11.6297473907,0
35.300000000000004,14.689529985701453,-0.7484245074279129,396.67993633930325,0.5191706009897855,14.834123854369318,-1.48861789703,23.4416866302,11.6297473907,0
35.4,14.717930207084075,-0.7397348280781416,396.62845391418495,0.5220766188640287,15.830655967008092,-1.48861789703,23.4416866302,11.6297473907,0
35.5,14.74497523759927,-0.6697065644518936,396.57874548479475,0.5245622655365736,16.824915584251457,-0.453799307346,24.6792812347,15.5471057892,0
35.6,14.772020268114465,-0.5996783008256454,396.52903705540456,0.5270479122091186,17.819175201494826,-0.453799307346,24.6792812347,15.5471057892,0
35.7,14.79906529862966,-0.5296500371993973,396.47932862601436,0.5295335588816635,18.813434818738195,-0.453799307346,24.6792812347,15.5471057892,0
35.800000000000004,14.821429320446516,-0.4880258152480838,396.4464729542753,0.52999997139,20.372538076471745,-0.453799307346,24.6792812347,15.5471057892,0
35.9,14.842712100153248,-0.45296249671219896,396.41751001429947,0.52999997139,22.0621116599597,0.211865738034,25.1682758331,19.483341217,0
36.0,14.863994879859984,-0.4178991781763116,396.38854707432364,0.52999997139,23.751685243447778,0.211865738034,25.1682758331,19.483341217,0
36.1,14.885277659566718,-0.38283585964042427,396.35958413434776,0.52999997139,25.44125882693585,0.211865738034,25.1682758331,19.483341217,0
36.2,14.900865659805786,-0.3042843098461101,396.3456907776034,0.5314370173529911,27.005927137617785,0.211865738034,25.1682758331,19.483341217,0
36.300000000000004,14.913639885226612,-0.20424534500794414,396.339243260344,0.5335841037602668,28.508880097725857,0.219436898828,27.8552761078,26.32826943854127,0
36.4,14.926414110647437,-0.10420638016978528,396.33279574308455,0.5357311901675422,30.01183305783382,0.219436898828,27.8552761078,26.6167240143,0
36.5,14.939188336068261,-0.004167415331619351,396.3263482258251,0.5378782765748179,31.51478601794189,0.219436898828,27.8552761078,26.6167240143,0
36.6,14.952122795446293,0.09354068938985817,396.320197302387,0.540000021458,33.01322488027029,0.219436898828,27.8552761078,26.6167240143,0
36.7,14.978473005888029,-0.003904840206122709,396.3388789983497,0.540000021458,34.133716314068465,0.219436898828,27.8552761078,26.6167240143,0
36.800000000000004,15.004823216329767,-0.10135036980210359,396.3575606943124,0.540000021458,35.25420774786663,2.18041157722,29.4714851379,33.1120262146,0
36.9,15.029282138205268,-0.1091455305312598,396.3887548172589,0.5389577682618183,36.521123988927236,2.18041157722,29.4714851379,33.1120262146,0
37.0,15.04997668474112,0.06149724982268681,396.4448533743666,0.5358410393354784,38.07948064971703,2.8977640481439746,30.89639526865861,35.86516087299287,0
37.1,15.070671231276974,0.23214003017663343,396.50095193147416,0.5327243104091387,39.63783731050682,3.02996969223,31.1633014679,36.4742202759,0
37.2,15.093315074235857,0.41540027959503223,396.55391061024756,0.5296434034201252,41.249597816953774,3.02996969223,31.1633014679,36.4742202759,0
37.300000000000004,15.129492762504404,0.6862628415709747,396.5850693066455,0.5268112059412404,43.232137942921625,3.02996969223,31.1633014679,36.4742202759,0
37.4,15.165670450772947,0.9571254035468979,396.61622800304343,0.5239790084623559,45.214678068889334,1.32538127899,27.9163093567,41.797996521,0
37.5,15.201848139041493,1.2279879655228405,396.6473866994414,0.5211468109834712,47.197218194857186,1.32538127899,27.9163093567,41.797996521,0
37.6,15.241014882358549,1.3304440094453953,396.6919911253578,0.519999980927,48.834526431663384,1.32538127899,27.9163093567,41.797996521,0
37.7,15.282215566835548,1.3183056604535006,396.745744871795,0.519999980927,50.23691716521329,1.029069816563529,26.696016078189718,46.4188139376124,0
37.800000000000004,15.323416251312548,1.3061673114616061,396.7994986182322,0.519999980927,51.6393078987632,0.858420014381,26.0508384705,49.0914535522,0
37.9,15.364616935789545,1.2940289624697123,396.85325236466934,0.519999980927,53.04169863231301,0.858420014381,26.0508384705,49.0914535522,0
38.0,15.400644459838833,1.1860572244839862,396.917440857704,0.5183848635006549,54.323023793320644,0.858420014381,26.0508384705,49.0914535522,0
38.1,15.42550881022485,0.8712864167560301,397.0041465121581,0.5132844808155168,55.34310130314519,1.91224336624,28.4709739685,54.8849258423,0
38.2,15.450373160610866,0.556515609028074,397.09085216661225,0.5081840981303787,56.363178812969736,1.91224336624,28.4709739685,54.8849258423,0
38.300000000000004,15.475237510996882,0.24174480130011777,397.17755782106633,0.5030837154452406,57.38325632279429,1.91224336624,28.4709739685,54.8849258423,0
38.400000000000006,15.50452531769642,0.19293070239226018,397.25546491890043,0.49898062297616386,58.61162679761015,1.91224336624,28.4709739685,54.8849258423,0
38.5,15.540577096302414,0.5507949064430291,397.31991801480086,0.49640250159890337,60.158501099220494,1.5386501648395337,27.275075085214656,58.02916224961507,0
38.6,15.576628874908414,0.9086591104938233,397.3843711107013,0.49382438022164266,61.705375400830945,1.44382357597,27.0056724548,58.9246788025,0
38.7,15.612680653514412,1.2665233145446175,397.4488242066017,0.49124625884438194,63.25224970244139,1.44382357597,27.0056724548,58.9246788025,0
38.800000000000004,15.654656139909118,1.4589315509574465,397.5130292595739,0.48886042733777235,64.68374793385304,1.44382357597,27.0056724548,58.9246788025,0
38.900000000000006,15.702174513564369,1.4965205748239967,397.57700221568444,0.4866545238614407,66.00728733736706,0.3137929559450925,26.53824502098179,63.827166956792595,0
39.0,15.749692887219618,1.5341095986905444,397.640975171795,0.4844486203851093,67.33082674088098,0.0814907699823,26.4417247772,64.8342971802,0
39.1,15.79721126087487,1.5716986225570946,397.70494812790554,0.4822427169087776,68.654366144395,0.0814907699823,26.4417247772,64.8342971802,0
39.2,15.844729634530122,1.6092876464236447,397.7689210840161,0.48003681343244603,69.97790554790902,0.0814907699823,26.4417247772,64.8342971802,0
39.300000000000004,15.878284082995695,1.5377478022580169,397.8369763031923,0.47538031675021364,70.69295153898584,0.0814907699823,26.4417247772,64.8342971802,0
39.400000000000006,15.911601467822296,1.464355292296695,397.9051008263875,0.47068221668389415,71.39766722102111,0.91832780838,23.9566345215,70.9624710083,0
39.5,15.944918852648895,1.3909627823353783,397.9732253495827,0.465984116617575,72.10238290305632,0.91832780838,23.9566345215,70.9624710083,0
39.6,15.978236237475498,1.3175702723740563,398.04134987277797,0.46128601655125556,72.8070985850916,0.91832780838,23.9566345215,70.9624710083,0
39.7,15.994256696687957,1.2347294684892043,398.11616467759853,0.455565818931333,73.59122523166425,0.91832780838,23.9566345215,70.9624710083,0
39.800000000000004,16.00375799135414,1.1483276281437027,398.1935010314936,0.4494603955040658,74.40528165628803,1.28254270554,19.5165691376,73.7240982056,0
39.900000000000006,16.01325928602032,1.0619257877982011,398.27083738538875,0.44335497207679864,75.21933808091181,1.28254270554,19.5165691376,73.7240982056,0
40.0,16.022760580686498,0.9755239474527055,398.3481737392839,0.4372495486495319,76.03339450553554,1.28254270554,19.5165691376,73.7240982056,0
40.1,16.032261875352678,0.8891221071072039,398.425510093179,0.4311441252222647,76.84745093015933,1.28254270554,19.5165691376,73.7240982056,0
40.2,16.048184097556845,0.9248269192596981,398.45429022027673,0.430000007153,77.40835756557814,1.28254270554,19.5165691376,73.7240982056,0
40.300000000000004,16.065587038783036,0.9886905358838903,398.4718728796829,0.430000007153,77.91088576484755,-1.4578594683348531,12.7175693512,76.95146371299317,0
40.400000000000006,16.082989980009227,1.0525541525080826,398.489455539089,0.430000007153,78.41341396411696,-1.51285374165,12.7175693512,77.0200653076,0
40.5,16.100392921235418,1.1164177691322703,398.5070381984952,0.430000007153,78.91594216338632,-1.51285374165,12.7175693512,77.0200653076,0
