t_sec,airspeed,climb,altitude,throttle,heading,pitch,roll,yaw,is_boundary
0.0,19.3863792419,0.810540676117,397.690002441,0.180000007153,273.0,-3.37242555618,27.7890949249,-92.6265792847,0
0.1,19.396998987325965,0.284936755453689,397.51471527163176,0.2184185337365368,275.4011579651519,-3.37242555618,27.7890949249,-92.6265792847,0
0.2,19.40761873275193,-0.24066716520962195,397.3394281022635,0.2568370603200736,277.80231593030385,-3.37242555618,27.7890949249,-92.6265792847,0
0.30000000000000004,19.4182384781779,-0.7662710858729329,397.1641409328953,0.2952555869036104,280.20347389545583,-3.37242555618,27.7890949249,-92.6265792847,0
0.4,19.428858223603868,-1.2918750065362439,396.9888537635271,0.33367411348714715,282.60463186060775,-2.0127017498,36.0443000793,-86.0330429077,0
0.5,19.525737014064344,-1.7204461437997263,396.82962127569795,0.31476686591267367,284.89248524955474,-2.0127017498,36.0443000793,-86.0330429077,0
0.6000000000000001,19.63961862192027,-2.129890814999741,396.6735533814305,0.2845599375954838,287.1580047833273,-2.0127017498,36.0443000793,-86.0330429077,0
0.7000000000000001,19.7535002297762,-2.539335486199756,396.517485487163,0.254353009278294,289.4235243170999,-2.0127017498,36.0443000793,-86.0330429077,0
0.8,19.867381837632127,-2.9487801573997707,396.3614175928956,0.22414608096110422,291.6890438508725,-2.91862869263,35.7451553345,-76.4460220337,0
0.9,19.956219933435577,-2.5834740894946973,396.2219549285092,0.20583502910628157,293.1804140949081,-2.91862869263,35.7451553345,-76.4460220337,0
1.0,20.04107379719537,-2.0949110792676744,396.0851340297364,0.18941652060118802,294.5486230826357,-2.91862869263,35.7451553345,-76.4460220337,0
1.1,20.12592766095516,-1.606348069040651,395.94831313096364,0.17299801209609447,295.91683207036334,-2.9396621203771196,35.927771739138336,-74.65912645467017,0
1.2000000000000002,20.189032198946563,-1.1354463617958033,395.82369309186373,0.16174678048237273,297.34935679779346,-3.02629756927,36.6770019531,-67.2297134399,0
1.3,20.16948839034075,-0.7316583437647557,395.74543682926725,0.1701314169424375,299.02628402317646,-3.02629756927,36.6770019531,-67.2297134399,0
1.4000000000000001,20.14994458173494,-0.3278703257337071,395.6671805666707,0.17851605340250226,300.7032112485595,-3.02629756927,36.6770019531,-67.2297134399,0
1.5,20.13040077312913,0.07591769229734058,395.5889243040742,0.186900689862567,302.38013847394257,-2.06079681539775,36.151932594259634,-66.06339017047586,0
1.6,20.054282173080406,0.23494985770801677,395.5702748261439,0.19513949469474046,304.0278992472754,1.162296772,34.40366745,-62.2705001831,0
1.7000000000000002,19.94498821166809,0.250457607925253,395.5865786652402,0.20329278410864818,305.6585568627922,1.162296772,34.40366745,-62.2705001831,0
1.8,19.835694250255777,0.26596535814248917,395.6028825043366,0.2114460735225559,307.2892144783089,1.162296772,34.40366745,-62.2705001831,0
1.9000000000000001,19.72640028884346,0.2814731083597254,395.61918634343294,0.21959936293646365,308.9198720938257,2.08007740974,21.4120674133,-56.4837799072,0
2.0,19.61710632743115,0.29698085857696155,395.63549018252934,0.22775265235037137,310.55052970934247,2.08007740974,21.4120674133,-56.4837799072,0
2.1,19.458884089269485,0.3176222931648577,395.71745896336733,0.23438538014079519,310.8538207342411,2.08007740974,21.4120674133,-56.4837799072,0
2.2,19.28204346068908,0.34021721858156845,395.82441483967233,0.24043949752752922,310.6520167291323,2.08007740974,21.4120674133,-56.4837799072,0
2.3000000000000003,19.105202832108674,0.3628121439982792,395.9313707159773,0.24649361491426325,310.45021272402346,2.08007740974,21.4120674133,-56.4837799072,0
2.4000000000000004,18.928362203528266,0.38540706941499,396.0383265922823,0.25254773230099725,310.2484087189146,2.64547562599,9.56606197357,-48.3707847595,0
2.5,18.751521574947862,0.40800199483170063,396.1452824685873,0.2586018496877313,310.0466047138058,2.64547562599,9.56606197357,-48.3707847595,0
2.6,18.557817803345984,0.5659910929478024,396.288535391309,0.259999990463,310.21953815806563,2.64547562599,9.56606197357,-48.3707847595,0
2.7,18.359050207368472,0.7646376361890878,396.44268793506666,0.259999990463,310.50500131450076,2.64547562599,9.56606197357,-48.3707847595,0
2.8000000000000003,18.160282611390965,0.963284179430373,396.5968404788243,0.259999990463,310.79046447093583,2.64547562599,9.56606197357,-48.3707847595,0
2.9000000000000004,17.970003541571277,1.1372207890189125,396.75742965465514,0.2618482584516654,310.9383910694924,4.8370218277,-3.43906140327,-49.1692466736,0
3.0,17.803150040033405,1.2429660274247984,396.9357818392032,0.26879714428217993,310.706761551012,4.8370218277,-3.43906140327,-49.1692466736,0
3.1,17.636296538495532,1.3487112658306848,397.1141340237512,0.27574603011269444,310.47513203253163,4.8370218277,-3.43906140327,-49.1692466736,0
3.2,17.46944303695766,1.4544565042365714,397.2924862082992,0.28269491594320895,310.2435025140512,4.900970231937428,-4.455580909736413,-48.959442421729605,0
3.3000000000000003,17.302589535419788,1.560201742642458,397.4708383928472,0.28964380177372345,310.0118729955708,5.06597042084,-7.06380319595,-48.4230880737,0
3.4000000000000004,17.17045913457338,1.3132328089308336,397.58047839245774,0.30402220195738755,308.8314825212496,5.06597042084,-7.06380319595,-48.4230880737,0
3.5,17.040204751854926,1.047207449735851,397.68640601321994,0.3188020036095505,307.5998324325274,5.06597042084,-7.06380319595,-48.4230880737,0
3.6,16.90995036913647,0.7811820905408672,397.79233363398214,0.33358180526171355,306.3681823438053,5.06597042084,-7.06380319595,-48.4230880737,0
3.7,16.779695986418016,0.5151567313458836,397.89826125474434,0.34836160691387663,305.1365322550831,4.74198484421,-8.36449432373,-49.3195991516,0
3.8000000000000003,16.69608769481168,0.36985409638603506,397.94661128673675,0.3521536045954442,304.1385575235355,4.74198484421,-8.36449432373,-49.3195991516,0
3.9000000000000004,16.618294938132024,0.23960239500913272,397.98778291491226,0.3545757134774371,303.16971593409585,4.74198484421,-8.36449432373,-49.3195991516,0
4.0,16.540502181452364,0.10935069363223093,398.02895454308776,0.35699782235942995,302.20087434465614,4.365513011504456,-8.510009890973816,-50.73090609996768,0
4.1000000000000005,16.462709424772704,-0.020901007744672018,398.07012617126327,0.3594199312414228,301.2320327552165,3.26776003838,-8.93406200409,-54.7923355103,0
4.2,16.421308222860137,-0.17711036569472732,398.0625680470431,0.36248811231383915,301.0,3.26776003838,-8.93406200409,-54.7923355103,0
4.3,16.391367297110143,-0.34149420024424276,398.039664153087,0.36575975173725483,301.0,3.26776003838,-8.93406200409,-54.7923355103,0
4.4,16.36142637136015,-0.5058780347937598,398.01676025913093,0.36903139116067046,301.0,2.838258263265241,-8.730989879147652,-55.49720171843685,0
4.5,16.356209664591333,-0.5905372826366131,397.9483446111383,0.3715033856354766,301.0,1.27961540222,-7.99497795105,-58.0316314697,0
4.6000000000000005,16.361391545093444,-0.6416657211487973,397.86078749111124,0.3736390630039587,301.0,1.27961540222,-7.99497795105,-58.0316314697,0
4.7,16.36657342559555,-0.692794159660981,397.77323037108414,0.37577474037244085,301.0,1.27961540222,-7.99497795105,-58.0316314697,0
4.800000000000001,16.371755306097658,-0.7439225981731652,397.68567325105704,0.377910417740923,301.0,-0.137615084648,-4.49571418762,-58.4019622803,0
4.9,16.377431931515183,-0.7988580509949388,397.59695622845857,0.379999995232,301.0,-0.137615084648,-4.49571418762,-58.4019622803,0
5.0,16.405533949304044,-1.0263547308156142,397.45566409196834,0.379999995232,301.0,-0.137615084648,-4.49571418762,-58.4019622803,0
5.1000000000000005,16.433635967092904,-1.2538514106362915,397.3143719554781,0.379999995232,301.0,-0.137615084648,-4.49571418762,-58.4019622803,0
5.2,16.46173798488177,-1.481348090456967,397.17307981898796,0.379999995232,301.0,-0.5193191023176067,-3.4713715881952085,-58.441383106082355,0
5.300000000000001,16.502325545170418,-1.646522408543195,397.02481684673967,0.3784514440618172,301.15485526468825,-1.21419978142,-1.6390029192,-58.5154037476,0
5.4,16.55298717357508,-1.761411389226276,396.87092939527855,0.3756534309663871,301.43465684105007,-1.21419978142,-1.6390029192,-58.5154037476,0
5.5,16.603648801979737,-1.876300369909357,396.7170419438174,0.37285541787095705,301.71445841741183,-1.21419978142,-1.6390029192,-58.5154037476,0
5.6000000000000005,16.654310430384395,-1.991189350592439,396.56315449235626,0.37005740477552695,301.99425999377365,-1.21984088421,2.19431900978,-58.0654945374,0
5.7,16.691046745818603,-1.6681347877164414,396.45596409505333,0.3723643862988719,301.76356162144515,-1.21984088421,2.19431900978,-58.0654945374,0
5.800000000000001,16.727491406413666,-1.335907838264738,396.3497517311956,0.3747782879602095,301.52217122512155,-1.21984088421,2.19431900978,-58.0654945374,0
5.9,16.763936067008725,-1.0036808888130375,396.24353936733786,0.377192189621547,301.2807808287979,-0.9850296981668658,3.1609846226746794,-57.87717037701748,0
6.0,16.800380727603788,-0.6714539393613372,396.1373270034801,0.37960609128288453,301.03939043247425,-0.154541894794,6.49509525299,-57.2205047607,0
6.1000000000000005,16.817350737328486,-0.8728517071309729,396.05001018814335,0.3821206388057018,301.2120645596161,-0.154541894794,6.49509525299,-57.2205047607,0
6.2,16.830523147759347,-1.1783074558514262,395.9663780458822,0.3846548124904988,301.4654821697802,-0.154541894794,6.49509525299,-57.2205047607,0
6.300000000000001,16.843695558190213,-1.4837632045718823,395.8827459036211,0.38718898617529596,301.7188997799443,-0.15373487859538648,6.494444711617124,-57.22419171256798,0
6.4,16.856867968621074,-1.7892189532923357,395.79911376136005,0.389723159860093,301.9723173901084,1.27241253853,5.78234529495,-58.1148834229,0
6.5,16.863257073960842,-1.6465686817949465,395.7603881684343,0.389999985695,301.78861990745435,1.27241253853,5.78234529495,-58.1148834229,0
6.6000000000000005,16.868814320756805,-1.4489657262530025,395.72716961024105,0.389999985695,301.5513175935708,1.27241253853,5.78234529495,-58.1148834229,0
6.7,16.874371567552767,-1.2513627707110602,395.69395105204774,0.389999985695,301.31401527968717,1.27241253853,5.78234529495,-58.1148834229,0
6.800000000000001,16.87992881434873,-1.0537598151691163,395.6607324938545,0.389999985695,301.07671296580355,2.37188529968,3.92978525162,-57.902759552,0
6.9,16.862402268788596,-0.9334670968751176,395.65852937152135,0.3917075011315175,301.17075119762444,2.37188529968,3.92978525162,-57.902759552,0
7.0,16.833848676946744,-0.850105206541827,395.67114221362783,0.394230690676291,301.42306964077846,2.37188529968,3.92978525162,-57.902759552,0
7.1000000000000005,16.805295085104888,-0.7667433162085355,395.6837550557343,0.39675388022106456,301.6753880839325,2.37188529968,3.92978525162,-57.902759552,0
7.2,16.776741493263035,-0.6833814258752449,395.6963678978408,0.39927706976583804,301.9277065270865,3.76811623573,5.36660766602,-58.0646934509,0
7.300000000000001,16.741135222311705,-0.6081954804618502,395.73321899836714,0.39525231548557305,302.1582563428595,3.76811623573,5.36660766602,-58.0646934509,0
7.4,16.70269677388251,-0.5362927876540186,395.77980357017924,0.3885980726464608,302.3800644286834,3.76811623573,5.36660766602,-58.0646934509,0
7.5,16.664258325453314,-0.4643900948461868,395.8263881419913,0.38194382980734853,302.6018725145073,3.76811623573,5.36660766602,-58.0646934509,0
7.6000000000000005,16.62581987702412,-0.39248740203835447,395.8729727138034,0.3752895869682362,302.8236806003312,4.19838476181,2.8819334507,-57.4354858398,0
7.7,16.579990163963096,-0.25749064547904515,395.93758680877545,0.3684954360363414,303.05015228906257,4.19838476181,2.8819334507,-57.4354858398,0
7.800000000000001,16.505511055792393,0.12206598703248372,396.0720854172073,0.3611589851830085,303.2947006411236,4.19838476181,2.8819334507,-57.4354858398,0
7.9,16.431031947621694,0.5016226195440092,396.20658402563913,0.35382253432967564,303.53924899318463,4.19838476181,2.8819334507,-57.4354858398,0
8.0,16.356552839450995,0.8811792520555348,396.341082634071,0.3464860834763428,303.7837973452457,4.42313194275,-1.73768568039,-56.4188919067,0
8.1,16.28200661003269,1.2377608356900833,396.47339026205435,0.34035259889455044,304.0,4.42313194275,-1.73768568039,-56.4188919067,0
8.200000000000001,16.20694842312871,1.419103598894123,396.58898650755356,0.34339456336495566,304.0,4.42313194275,-1.73768568039,-56.4188919067,0
8.3,16.131890236224734,1.6004463620981595,396.70458275305276,0.3464365278353608,304.0,4.42313194275,-1.73768568039,-56.4188919067,0
8.4,16.056832049320757,1.781789125302196,396.82017899855197,0.34947849230576594,304.0,4.445098601260589,-1.4224965884147804,-56.20147221265157,0
8.5,15.989926876853646,1.761103764212593,396.9203219077381,0.35186806614916133,304.1868068323521,4.531929049360369,-0.2709045158250716,-55.34906524735155,0
8.6,15.924708621279628,1.6986173418848323,397.0172674113165,0.3541226557142728,304.4122653319716,4.54066085815,-0.172963544726,-55.264251709,0
8.700000000000001,15.859490365705607,1.6361309195570704,397.1142129148948,0.3563772452793843,304.6377238315911,4.54066085815,-0.172963544726,-55.264251709,0
8.8,15.794272110131589,1.5736444972293093,397.21115841847313,0.3586318348444958,304.86318233121057,4.99645137787,3.23774814606,-55.642868042,0
8.9,15.741727074753058,1.4565438172938596,397.31026639682483,0.35881537023842275,305.2369283331802,4.99645137787,3.23774814606,-55.642868042,0
9.0,15.70874323286701,1.255145694085656,397.4127121683192,0.35580222075265544,305.8395570091066,4.99645137787,3.23774814606,-55.642868042,0
9.1,15.67575939098096,1.0537475708774522,397.51515793981366,0.35278907126688813,306.44218568503305,4.99645137787,3.23774814606,-55.642868042,0
9.200000000000001,15.64463893546783,0.8645776106664258,397.61559535728577,0.34999999404,307.04808492112824,4.5325088501,5.95550918579,-54.5994796753,0
9.3,15.636712464447001,0.827614314112493,397.6910343457012,0.34999999404,307.69469354682525,4.5325088501,5.95550918579,-54.5994796753,0
9.4,15.628785993426172,0.7906510175585603,397.76647333411665,0.34999999404,308.3413021725222,4.5325088501,5.95550918579,-54.5994796753,0
9.5,15.620859522405343,0.7536877210046274,397.84191232253215,0.34999999404,308.9879107982192,4.128089004962271,7.348140863847028,-53.83602946200017,0
9.600000000000001,15.612933051384514,0.7167244244506941,397.9173513109476,0.34999999404,309.63451942391623,3.43276000023,9.67444705963,-52.5412483215,0
9.700000000000001,15.613196430433039,0.6518561311136928,397.9556973734791,0.3521465773882519,310.42931643936504,3.43276000023,9.67444705963,-52.5412483215,0
9.8,15.624107025671858,0.5507099412312392,397.94582077043407,0.35708382683976325,311.4167657999995,3.43276000023,9.67444705963,-52.5412483215,0
9.9,15.635017620910677,0.44956375134878557,397.93594416738904,0.36202107629127467,312.4042151606339,3.43276000023,9.67444705963,-52.5412483215,0
10.0,15.645928216149496,0.34841756146633196,397.92606756434395,0.36695832574278603,313.39166452126835,1.62175571918,13.5389862061,-49.9841423035,0
10.100000000000001,15.672103784236832,0.1606618910018759,397.8941563220887,0.37112299418511807,314.33689714640053,1.62175571918,13.5389862061,-49.9841423035,0
10.200000000000001,15.72277390398505,-0.16606948662503707,397.82688775467983,0.37404796009870284,315.214387757251,1.62175571918,13.5389862061,-49.9841423035,0
10.3,15.77344402373327,-0.49280086425194997,397.759619187271,0.37697292601228755,316.09187836810145,1.62175571918,13.5389862061,-49.9841423035,0
10.4,15.824114143481488,-0.8195322418788631,397.69235061986217,0.37989789192587226,316.96936897895193,-0.18792823116012225,14.826813288981619,-46.05119652458084,0
10.5,15.885340273108268,-0.9477546062797441,397.61380090255386,0.38211660931305175,318.05830804983424,-0.55195337534,15.0847988129,-45.2453994751,0
10.600000000000001,15.946948214979567,-1.0687968739614335,397.5348431445925,0.3843097815995582,319.15489523890267,-0.55195337534,15.0847988129,-45.2453994751,0
10.700000000000001,16.008556156850865,-1.1898391416431207,397.45588538663117,0.3865029538860646,320.2514824279711,-0.5114482371676108,15.666763788310758,-45.22536236056882,0
10.8,16.070164098722167,-1.3108814093248078,397.3769276286698,0.388696126172571,321.34806961703947,0.091031268239,22.683511734,-42.5674476624,0
10.9,16.13643746721769,-1.3367632660961721,397.29051699042446,0.39338303383091633,322.78937786701584,0.091031268239,22.683511734,-42.5674476624,0
11.0,16.209551017453443,-1.2231263698083603,397.1931793652738,0.4017261136958572,324.7360964248191,0.091031268239,22.683511734,-42.5674476624,0
11.100000000000001,16.282664567689192,-1.1094894735205465,397.0958417401232,0.4100691935607982,326.6828149826224,0.091031268239,22.683511734,-42.5674476624,0
11.200000000000001,16.35577811792494,-0.9958525772327347,396.99850411497255,0.41841227342573906,328.62953354042565,0.519067606642981,27.626460863789053,-38.093400354074824,0
11.3,16.44612262516714,-1.0641615074868163,396.8495416247742,0.4216103511050627,331.0934692408567,0.626017272472,28.6196899414,-37.0127830505,0
11.4,16.540516923457623,-1.1752331571491978,396.6884457448714,0.42359919915268607,333.67896646299846,0.626017272472,28.6196899414,-37.0127830505,0
11.5,16.63491122174811,-1.2863048068115794,396.52734986496864,0.4255880472003095,336.26446368514024,0.626017272472,28.6196899414,-37.0127830505,0
11.600000000000001,16.729305520038597,-1.397376456473963,396.36625398506584,0.42757689524793296,338.849960907282,-0.105966433883,35.5534667969,-30.1587543488,0
11.700000000000001,16.823699818329082,-1.5084481061363446,396.20515810516304,0.42956574329555636,341.4354581294238,-0.105966433883,35.5534667969,-30.1587543488,0
11.8,16.9210869005576,-1.7011338786825176,396.0639952976339,0.4275351319800886,343.9718961420844,-0.105966433883,35.5534667969,-30.1587543488,0
11.9,17.0193099991985,-1.9166180715711072,395.928400675446,0.42438170857192087,346.49462975604666,-0.105966433883,35.5534667969,-30.1587543488,0
12.0,17.117533097839402,-2.1321022644596965,395.7928060532582,0.4212282851637532,349.01736337000887,-0.07828562020277456,35.746955588952176,-29.714995795566892,0
12.100000000000001,17.20138250610686,-2.0087897303367384,395.67050902545776,0.41536803178297077,296.26932292815997,0.787157416344,41.6782569885,-17.0753192902,0
12.200000000000001,17.276060988896177,-1.6693128393274725,395.5566963356385,0.40778072464522913,208.256563627397,0.787157416344,41.6782569885,-17.0753192902,0
12.3,17.350739471685493,-1.3298359483182067,395.4428836458193,0.40019341750748744,120.24380432663403,0.787157416344,41.6782569885,-17.0753192902,0
12.4,17.42541795447481,-0.9903590573089409,395.32907095600007,0.3926061103697458,32.231045025871026,2.84449076653,44.3491706848,-9.24355888367,0
12.5,17.479601805917216,-0.5988378685822069,395.23838937274724,0.3941270802492022,4.269900787122934,2.84449076653,44.3491706848,-9.24355888367,0
12.600000000000001,17.52306298962966,-0.18008741662953398,395.159809845186,0.4004134458264231,7.727399999818977,2.84449076653,44.3491706848,-9.24355888367,0
12.700000000000001,17.56652417334211,0.2386630353231315,395.08123031762466,0.40669981140364386,11.18489921251496,2.84449076653,44.3491706848,-9.24355888367,0
12.8,17.605130555764553,0.2981986046212857,394.9915884904326,0.4175614113761315,14.512282629867885,2.74871492386,43.5284957886,3.03817391396,0
12.9,17.63837164222147,-0.03925306521457733,394.889721134731,0.4334793432509777,17.695868245806643,2.74871492386,43.5284957886,3.03817391396,0
13.0,17.671612728678383,-0.37670473505044044,394.78785377902943,0.44939727512582395,20.8794538617454,2.74871492386,43.5284957886,3.03817391396,0
13.100000000000001,17.7138186078275,-0.7801521605931333,394.6906691677549,0.46469313588511757,24.173282129805383,2.22626590729,46.9587974548,13.2376651764,0
13.200000000000001,17.773907413173397,-1.3152476084747131,394.6028256729859,0.4787480921159367,27.68702192056412,2.22626590729,46.9587974548,13.2376651764,0
13.3,17.833996218519296,-1.8503430563562928,394.51498217821694,0.4928030483467558,31.200761711322862,2.22626590729,46.9587974548,13.2376651764,0
13.4,17.893698071770643,-2.0079298977007016,394.4341454454802,0.4952195227124843,34.9121913139372,3.84014415741,50.3116264343,23.0271892548,0
13.5,17.952993848373143,-1.7693503091165461,394.3606617739761,0.4854222998791602,38.83108126484525,3.84014415741,50.3116264343,23.0271892548,0
13.600000000000001,18.012289624975647,-1.5307707205323862,394.28717810247196,0.4756250770458359,42.74997121575338,3.84014415741,50.3116264343,23.0271892548,0
13.700000000000001,18.07158540157815,-1.2921911319482307,394.2136944309678,0.46582785421251177,46.66886116666144,4.264181593035826,51.88153300044279,31.419920712807443,0
13.8,18.097596757800993,-1.0966061908670839,394.1378165456113,0.4625733150419273,50.54398549065535,4.38921880722,52.2513923645,33.8423690796,0
13.9,18.074739872626548,-0.9641460628066276,394.0584234714922,0.46892475491408436,54.35485304837397,4.38921880722,52.2513923645,33.8423690796,0
14.0,18.051882987452103,-0.8316859347461714,393.97903039737304,0.47527619478624145,58.16572060609259,4.38921880722,52.2513923645,33.8423690796,0
14.100000000000001,18.017482103690302,-0.6022698658733635,393.90214683920465,0.483242892559199,61.891798590283905,3.51868844032,49.2106895447,49.1240158081,0
14.200000000000001,17.949577929051273,-0.09146576124053873,393.83254646304835,0.49589743353334564,65.37179808410214,3.51868844032,49.2106895447,49.1240158081,0
14.3,17.881673754412244,0.41933834339228604,393.7629460868921,0.5085519745074923,68.85179757792037,3.51868844032,49.2106895447,49.1240158081,0
14.4,17.81435907718943,0.818076219714651,393.6934421374322,0.5210463097391306,72.34005668152754,3.614534514013874,48.00992636066364,53.04380315879699,0
14.5,17.752637750094163,0.15349195894994072,393.62485311696065,0.5320205589014336,75.90668574604703,3.83946108818,45.2376594543,62.1100578308,0
14.600000000000001,17.690916422998896,-0.5110923018147814,393.55626409648914,0.5429948080637369,79.47331481056659,3.83946108818,45.2376594543,62.1100578308,0
14.700000000000001,17.62919509590363,-1.1756765625794916,393.4876750760176,0.5539690572260401,83.0399438750861,4.209270765580044,46.44880551246204,65.21024226338938,0
14.8,17.542809865231302,-1.5722146832059138,393.4195335390575,0.5487224515721516,86.57885720777446,5.14722108841,49.5205841064,72.9374694824,0
14.9,17.42633410204796,-1.6417303165330288,393.3519379423257,0.5236860280705776,90.08395670693379,5.14722108841,49.5205841064,72.9374694824,0
15.0,17.30985833886462,-1.7112459498601436,393.284342345594,0.4986496045690037,93.58905620609312,5.14722108841,49.5205841064,72.9374694824,0
15.100000000000001,17.193382575681277,-1.7807615831872596,393.2167467488622,0.47361318106742933,97.09415570525252,6.55536413193,49.1285018921,85.2957992554,0
15.200000000000001,17.000319525552943,-1.4156225734773056,393.23866245617234,0.44755497113337744,100.15561047029601,6.55536413193,49.1285018921,85.2957992554,0
15.3,16.71598683723826,-0.5325024002029328,393.3672494487491,0.42027909072533476,102.68837051352344,6.55536413193,49.1285018921,85.2957992554,0
15.4,16.431654148923577,0.3506177730714397,393.4958364413258,0.3930032103172921,105.22113055675086,6.55536413193,49.1285018921,85.2957992554,0
15.5,16.147321460608893,1.2337379463458127,393.6244234339025,0.3657273299092494,107.75389059997829,8.29392910004,37.1840324402,99.18019104,0
15.600000000000001,15.862988772294207,2.1168581196202014,393.75301042647925,0.3384514495012062,110.28665064320577,8.29392910004,37.1840324402,99.18019104,0
15.700000000000001,15.548490949370786,2.7912293641419677,393.9480312052457,0.3177800852338086,112.44398150499741,8.29392910004,37.1840324402,99.18019104,0
15.8,15.170919243185647,3.0291163783120187,394.28196191858115,0.3109184548017946,113.81630753687313,8.29392910004,37.1840324402,99.18019104,0
15.9,14.793347537000507,3.26700339248207,394.6158926319166,0.30405682436978054,115.18863356874886,8.29392910004,37.1840324402,99.18019104,0
16.0,14.415775830815367,3.504890406652121,394.949823345252,0.2971951939377665,116.56095960062457,12.6215009689,25.0334396362,112.594291687,0
16.1,14.038204124630221,3.742777420822176,395.2837540585875,0.2903335635057524,117.93328563250031,12.6215009689,25.0334396362,112.594291687,0
16.2,13.747798527821407,4.101023725771198,395.7179441131556,0.30483865673487026,118.49462214966778,12.6215009689,25.0334396362,112.594291687,0
16.3,13.461846959735764,4.465420170287858,396.15725723664144,0.3204355504537418,119.01451858629761,12.6215009689,25.0334396362,112.594291687,0
16.400000000000002,13.175895391650121,4.8298166148045185,396.59657036012726,0.3360324441726133,119.53441502292745,13.69980579662278,20.214449770769072,114.44872628248379,0
16.5,12.908002918035866,5.127487437623589,397.02559480805667,0.3515874515566622,120.04535593368222,16.0573215485,9.86372375488,118.444915771,0
16.6,12.79492202845834,4.853152880703891,397.3664195866701,0.36678338834314794,120.47952560051918,16.0573215485,9.86372375488,118.444915771,0
16.7,12.681841138880818,4.578818323784202,397.7072443652835,0.3819793251296331,120.91369526735612,16.0573215485,9.86372375488,118.444915771,0
16.8,12.568760249303292,4.304483766864504,398.0480691438969,0.39717526191611885,121.34786493419308,16.050199353846818,6.741473117066667,118.99120307953497,0
16.900000000000002,12.455679359725767,4.030149209944806,398.3888939225103,0.4123711987026046,121.78203460103003,16.0291614532,-2.45926952362,120.57409668,0
17.0,12.409912823759694,3.6460373041711738,398.6700347934526,0.4219649471231987,121.60700816358073,16.0291614532,-2.45926952362,120.57409668,0
17.1,12.432008962689343,3.1512538382249193,398.89100559062183,0.4259108735358223,120.81782330441423,16.0291614532,-2.45926952362,120.57409668,0
17.2,12.45410510161899,2.6564703722786818,399.111976387791,0.4298567999484458,120.02863844524775,16.0291614532,-2.45926952362,120.57409668,0
17.3,12.47620124054864,2.1616869063324273,399.33294718496023,0.43380272636106937,119.23945358608125,12.5048656464,-13.3458089828,122.181098938,0
17.400000000000002,12.49829737947829,1.6669034403861724,399.5539179821294,0.43774865277369296,118.45026872691476,12.5048656464,-13.3458089828,122.181098938,0
17.5,12.562254170315544,1.2696258024001894,399.7193659451484,0.4418313446350469,117.4505961890136,12.5048656464,-13.3458089828,122.181098938,0
17.6,12.681825140144612,1.0018900210698236,399.81104876845166,0.4460957369190887,116.17127919009067,12.5048656464,-13.3458089828,122.181098938,0
17.7,12.801396109973675,0.7341542397394676,399.90273159175484,0.45036012920313034,114.89196219116778,12.5048656464,-13.3458089828,122.181098938,0
17.8,12.920967079802741,0.4664184584091019,399.99441441505803,0.45462452148717214,113.61264519224484,7.46539592743,-16.5722427368,118.632080078,0
17.900000000000002,13.04053804963181,0.19868267707873621,400.0860972383612,0.45888891377121394,112.33332819332192,7.46539592743,-16.5722427368,118.632080078,0
18.0,13.181277749566828,0.07972464369778809,400.06655051539036,0.45811137298289345,111.24454738615765,7.46539592743,-16.5722427368,118.632080078,0
18.1,13.329476453793829,0.013189871180875057,400.007810999139,0.4555572589075425,110.22290382648012,7.46539592743,-16.5722427368,118.632080078,0
18.2,13.477675158020823,-0.05334490133603559,399.94907148288763,0.45300314483219173,109.20126026680263,7.46539592743,-16.5722427368,118.632080078,0
18.3,13.625873862247824,-0.11987967385294862,399.89033196663627,0.4504490307568408,108.17961670712509,1.4404668808,-16.7570438385,112.836952209,0
18.400000000000002,13.781992441336735,-0.43183201098702617,399.74951641979703,0.449999988079,107.61622349250926,1.4404668808,-16.7570438385,112.836952209,0
18.5,13.939800446171656,-0.7961355227820565,399.5911928489519,0.449999988079,107.15058181368998,1.4404668808,-16.7570438385,112.836952209,0
18.6,14.097608451006582,-1.1604390345770996,399.4328692781068,0.449999988079,106.68494013487069,1.1076395670563692,-16.327412214443118,112.38865845005044,0
18.7,14.255416455841504,-1.52474254637213,399.2745457072617,0.449999988079,106.2192984560514,-1.48259973526,-12.9992694855,108.844055176,0
18.8,14.41428552404404,-1.6910486997731047,399.0884125004952,0.4473435697784213,105.73435791659928,-1.48259973526,-12.9992694855,108.844055176,0
18.900000000000002,14.574099166875722,-1.6810946154853603,398.8775227359781,0.44232236780164447,105.2322372400491,-1.48259973526,-12.9992694855,108.844055176,0
19.0,14.7339128097074,-1.6711405311976164,398.66663297146107,0.4373011658248678,104.73011656349894,-1.48259973526,-12.9992694855,108.844055176,0
19.1,14.893726452539083,-1.661186446909872,398.455743206944,0.4322799638480909,104.22799588694878,-2.22160148621,-9.80232048035,106.269691467,0
19.200000000000003,15.018697513940895,-1.7640135994994761,398.2596815661007,0.4252236732263285,103.84078887544224,-2.22160148621,-9.80232048035,106.269691467,0
19.3,15.11468919967865,-1.9606434985332002,398.0759528164698,0.41647475261182637,103.54915819988935,-2.22160148621,-9.80232048035,106.269691467,0
19.400000000000002,15.21068088541641,-2.1572733975669314,397.8922240668389,0.407725831997324,103.25752752433645,-2.22160148621,-9.80232048035,106.269691467,0
19.5,15.298565185263136,-2.29147271634509,397.7152248830038,0.40027326841069494,102.94534745774435,-0.679741859436,-7.06366634369,104.515861511,0
19.6,15.325227136356622,-1.9542319422688457,397.58904353732873,0.40261005285016344,102.4779901241787,-0.679741859436,-7.06366634369,104.515861511,0
19.700000000000003,15.351889087450107,-1.6169911681926012,397.4628621916537,0.4049468372896319,102.01063279061306,-0.679741859436,-7.06366634369,104.515861511,0
19.8,15.378551038543591,-1.2797503941163688,397.3366808459786,0.40728362172910026,101.54327545704741,-0.13772746109698109,-6.278942813884228,104.12966855813204,0
19.900000000000002,15.405212989637077,-0.9425096200401242,397.21049950030357,0.4096204061685687,101.07591812348177,1.17525839806,-4.43688344955,103.127342224,0
20.0,15.394994269421758,-1.1066874893477217,397.13499316174216,0.41250040195791027,100.74995920814507,1.17525839806,-4.43688344955,103.127342224,0
20.1,15.37762268539928,-1.3681135686042567,397.0693150451585,0.41548575149126626,100.45142397009641,1.17525839806,-4.43688344955,103.127342224,0
20.200000000000003,15.360251101376798,-1.6295396478607915,397.0036369285748,0.4184711010246223,100.15288873204776,1.17525839806,-4.43688344955,103.127342224,0
20.3,15.321857537220408,-1.6118764508137906,396.96364412899436,0.42127094241545865,99.87290470472547,3.75092482567,-0.403890967369,101.284332275,0
20.400000000000002,15.261396681674363,-1.301246352233902,396.950613840611,0.4238760513305693,99.6123943411647,3.75092482567,-0.403890967369,101.284332275,0
20.5,15.200935826128319,-0.9906162536540244,396.9375835522277,0.4264811602456799,99.35188397760395,3.75092482567,-0.403890967369,101.284332275,0
20.6,15.140474970582273,-0.6799861550741357,396.9245532638444,0.42908626916079057,99.09137361404318,5.45282459259,2.48533797264,100.36290741,0
20.700000000000003,15.065650789149021,-0.4674228487310227,396.9906942449561,0.422928871971487,99.0,5.45282459259,2.48533797264,100.36290741,0
20.8,14.983067034472601,-0.30783866874486215,397.09960632721993,0.4120376611484266,99.0,5.45282459259,2.48533797264,100.36290741,0
20.900000000000002,14.900483279796177,-0.14825448875869596,397.2085184094837,0.40114645032536583,99.0,5.45282459259,2.48533797264,100.36290741,0
21.0,14.817899525119755,0.011329691227464522,397.3174304917475,0.39025523950230545,99.0,6.90339374542,3.30887913704,99.4520263672,0
21.1,14.73626247345917,0.18293715375291336,397.4270179699096,0.3804689865224424,99.03126608478719,6.90339374542,3.30887913704,99.4520263672,0
21.200000000000003,14.66989143010799,0.5484254089663363,397.54749650812374,0.38850067151634265,99.56671172977217,6.90339374542,3.30887913704,99.4520263672,0
21.3,14.603520386756813,0.9139136641797462,397.66797504633786,0.39653235651024266,100.10215737475713,6.90339374542,3.30887913704,99.4520263672,0
21.400000000000002,14.537149343405634,1.2794019193931692,397.788453584552,0.4045640415041429,100.6376030197421,7.00317397382363,3.618728326933747,99.54757993228378,0
21.5,14.478566076942196,1.5116886788102248,397.87446481152296,0.4162590962133395,100.91058427958671,7.36688899994,4.71289873123,99.9016418457,0
21.6,14.436291903828247,1.4650260460515525,397.8882949007092,0.43562594731857196,100.63391494981174,7.36688899994,4.71289873123,99.9016418457,0
21.700000000000003,14.394017730714298,1.4183634132928802,397.9021249898954,0.4549927984238044,100.35724562003676,7.36688899994,4.71289873123,99.9016418457,0
21.8,14.35174355760035,1.3717007805342096,397.9159550790817,0.47435964952903614,100.0805762902618,6.010414585691622,0.8822921199555132,101.1961472920811,0
21.900000000000002,14.352172061305769,0.8619820360573192,397.9231975012112,0.47518280648244043,99.35770898704575,5.89186429977,0.54963684082,101.465461731,0
22.0,14.37014745648115,0.16198961456499927,397.92773299516915,0.4683862024988261,98.45149515857075,5.89186429977,0.54963684082,101.465461731,0
22.1,14.388122851656535,-0.5380028069273457,397.93226848912707,0.4615895985152116,97.5452813300957,5.89186429977,0.54963684082,101.465461731,0
22.200000000000003,14.406098246831917,-1.2379952284196902,397.93680398308504,0.45479299453159705,96.63906750162066,4.86131620407,8.15291881561,100.280906677,0
22.3,14.430434704395694,-1.5316787900688555,397.93626653567856,0.4471986574108645,96.28013305568292,4.86131620407,8.15291881561,100.280906677,0
22.400000000000002,14.469988096798412,-0.853390208197308,397.9235935968289,0.43769598290477024,97.23040046853507,4.86131620407,8.15291881561,100.280906677,0
22.5,14.509541489201128,-0.17510162632578474,397.91092065797915,0.42819330839867625,98.18066788138717,4.86131620407,8.15291881561,100.280906677,0
22.6,14.548278902333363,0.41136668091195167,397.88948017351026,0.4208087044283584,99.13478625153755,4.498690671331206,8.306845376945786,98.3033880679352,0
22.700000000000003,14.581910297043967,0.4232664534822405,397.8131764700069,0.42667799987096183,100.11300211977036,4.09617042542,8.47442531586,96.1515655518,0
22.8,14.61554169175457,0.43516622605252886,397.73687276650355,0.4325472953135651,101.09121798800312,4.09617042542,8.47442531586,96.1515655518,0
22.900000000000002,14.649173086465174,0.4470659986228177,397.66056906300014,0.43841659075616857,102.06943385623592,2.9773104486786286,7.449398965770917,97.46422696911553,0
23.0,14.682804481175777,0.45896577119310605,397.5842653594968,0.4442858861987718,103.04764972446868,1.45907771587,6.44862794876,99.2072906494,0
23.1,14.716285719113785,0.4576510087064884,397.50769911046933,0.4500651395422108,103.9934848668825,1.45907771587,6.44862794876,99.2072906494,0
23.200000000000003,14.744238305711518,-0.030212283624487968,397.42146614685646,0.4525291153685872,103.74708778359317,1.45907771587,6.44862794876,99.2072906494,0
23.3,14.772190892309249,-0.5180755759554472,397.3352331832436,0.45499309119496356,103.50069070030388,1.45907771587,6.44862794876,99.2072906494,0
23.400000000000002,14.800143478906984,-1.0059388682864234,397.2490002196307,0.45745706702134,103.25429361701455,1.45907771587,6.44862794876,99.2072906494,0
23.5,14.828096065504715,-1.4938021606173826,397.16276725601784,0.4599210428477163,103.00789653372526,0.657933473587,8.54188919067,104.332717896,0
23.6,14.854461535997382,-1.6565352566796074,397.1072898145629,0.4501163877691879,102.67054599389657,0.657933473587,8.54188919067,104.332717896,0
23.700000000000003,14.88077445853629,-1.8085035911317346,397.052830660145,0.4399055296111263,102.33018406881823,0.657933473587,8.54188919067,104.332717896,0
23.8,14.906686815540509,-1.9344249818151191,397.0002117371339,0.42978826139265974,102.01411638346133,0.657933473587,8.54188919067,104.332717896,0
23.900000000000002,14.919604259402668,-1.2153466344338621,397.007292526708,0.4227071833370424,102.4861882350631,2.76218104362,8.7987165451,103.106117249,0
24.0,14.932521703264827,-0.4962682870526305,397.01437331628216,0.4156261052814253,102.95826008666484,2.76218104362,8.7987165451,103.106117249,0
24.1,14.945439147126987,0.2228100603286267,397.0214541058563,0.408545027225808,103.4303319382666,2.9532939225939026,8.134674773419036,103.0528761200265,0
24.200000000000003,14.958356590989146,0.9418884077098839,397.0285348954305,0.4014639491701906,103.90240378986837,3.88768529892,4.8997092247,102.796821594,0
24.3,14.959274353617058,1.1706146267814888,397.1039504124055,0.3956498606903096,103.78249285318631,3.88768529892,4.8997092247,102.796821594,0
24.400000000000002,14.957064747515052,1.271544791708897,397.1971753932711,0.390165976280265,103.50829877976179,3.88768529892,4.8997092247,102.796821594,0
24.5,14.954855141413045,1.3724749566363013,397.29040037413677,0.3846820918702206,103.23410470633726,3.9886637312937783,3.4250033577916854,103.11255819595827,0
24.6,14.954337232223972,1.4628555907661667,397.3809510793228,0.3832223716064595,102.83888117167274,4.32239675522,-1.42674160004,104.13936615,0
24.700000000000003,14.963698107305854,1.4916314905539054,397.45588516174524,0.40526204367952584,101.73689750233017,4.32239675522,-1.42674160004,104.13936615,0
24.8,14.973058982387736,1.5204073903416433,397.53081924416773,0.4273017157525914,100.63491383298765,4.32239675522,-1.42674160004,104.13936615,0
24.900000000000002,14.982419857469617,1.549183290129382,397.6057533265902,0.4493413878256578,99.53293016364508,4.4339707585655335,-2.294034291206699,103.96294182129877,0
25.0,14.991780732551499,1.5779591899171197,397.68068740901265,0.47138105989872336,98.43094649430256,5.0426568985,-6.99544286728,103.030075073,0
25.1,15.053254663858276,1.1263261202140982,397.6929295471785,0.48243715098487455,97.63442593903103,5.0426568985,-6.99544286728,103.030075073,0
25.200000000000003,15.148196098491038,0.3661698137452416,397.6649103189055,0.4864394812701922,97.0340767182907,5.0426568985,-6.99544286728,103.030075073,0
25.3,15.243137533123795,-0.3939864927235881,397.6368910906325,0.4904418115555098,96.43372749755042,5.0426568985,-6.99544286728,103.030075073,0
25.400000000000002,15.338078967756557,-1.1541427991924447,397.6088718623595,0.49444414184082747,95.83337827681011,3.941382476575163,-7.051127241490393,98.73094366374161,0
25.5,15.433020402389316,-1.914299105661274,397.58085263408645,0.498446472126145,95.23302905606981,3.81654238701,-7.05740737915,98.2657165527,0
25.6,15.542615097052272,-2.1117204657311004,397.49965938185335,0.5,95.36371923982435,3.81654238701,-7.05740737915,98.2657165527,0
25.700000000000003,15.661505865499375,-1.9521410238044148,397.3847323632697,0.5,95.9581830977851,3.81654238701,-7.05740737915,98.2657165527,0
25.8,15.780396633946474,-1.792561581877735,397.269805344686,0.5,96.55264695574583,3.81654238701,-7.05740737915,98.2657165527,0
25.900000000000002,15.899287402393576,-1.6329821399510496,397.15487832610233,0.5,97.14711081370658,1.61952400208,-0.672301530838,95.2570343018,0
26.0,16.018178170840674,-1.4734026980243697,397.0399513075187,0.5,97.7415746716673,1.61952400208,-0.672301530838,95.2570343018,0
26.1,16.12067845436971,-1.1012580149277615,396.89078592670376,0.5,98.0,1.61952400208,-0.672301530838,95.2570343018,0
26.200000000000003,16.210573884368486,-0.5656432609965379,396.715290053338,0.5,98.0,1.61952400208,-0.672301530838,95.2570343018,0
26.3,16.30046931436726,-0.030028507065333443,396.53979417997215,0.5,98.0,1.61952400208,-0.672301530838,95.2570343018,0
26.400000000000002,16.37550068452479,-0.2877545811583574,396.3721587162423,0.49469716329966384,98.17676121632122,-0.0507613271475,7.49734306335,98.9437713623,0
26.5,16.442846560559282,-0.9556792373660097,396.20858749422763,0.48665248347361795,98.44491719986803,-0.0507613271475,7.49734306335,98.9437713623,0
26.6,16.510192436593773,-1.6236038935736854,396.04501627221293,0.4786078036475718,98.71307318341483,-0.0507613271475,7.49734306335,98.9437713623,0
26.700000000000003,16.577538312628267,-2.2915285497813613,395.88144505019824,0.47056312382152554,98.98122916696164,0.455623358488,9.95554637909,98.3693847656,0
26.8,16.56728791846399,-1.510488569786647,395.8214027969897,0.461900950932125,99.20247623913848,0.455623358488,9.95554637909,98.3693847656,0
26.900000000000002,16.551196973531827,-0.6203872715490584,395.76915300850544,0.45319230029867663,99.42019255039575,0.455623358488,9.95554637909,98.3693847656,0
27.0,16.535106028599667,0.269714026688499,395.7169032200212,0.44448364966522863,99.63790886165302,0.455623358488,9.95554637909,98.3693847656,0
27.1,16.519015083667508,1.1598153249260874,395.664653431537,0.43577499903178024,99.8556251729103,2.6862757206,7.28715372086,99.1480560303,0
27.200000000000003,16.486284895958466,1.6813556318014486,395.6498404507168,0.4293387933176904,100.13224249905926,2.6862757206,7.28715372086,99.1480560303,0
27.3,16.420799878890808,1.4773729961855575,395.7087229056332,0.42737596097512487,100.52480817199879,2.6862757206,7.28715372086,99.1480560303,0
27.400000000000002,16.355314861823153,1.2733903605696595,395.7676053605495,0.4254131286325592,100.91737384493833,2.6862757206,7.28715372086,99.1480560303,0
27.5,16.289829844755495,1.0694077249537686,395.82648781546584,0.42345029628999364,101.30993951787785,5.74148225784,4.26973199844,100.317810059,0
27.6,16.224344827687837,0.8654250893378702,395.88537027038217,0.421487463947428,101.70250519081739,5.74148225784,4.26973199844,100.317810059,0
27.700000000000003,16.152056680622604,0.6782145936737479,395.9603294882146,0.42155578498632434,102.07778986323585,5.74148225784,4.26973199844,100.317810059,0
27.8,16.05848024626835,0.5434873129228207,396.0855959539988,0.42797997115319064,102.39899899926652,5.74148225784,4.26973199844,100.317810059,0
27.900000000000002,15.964903811914093,0.40876003217188867,396.210862419783,0.4344041573200571,102.7202081352972,5.74148225784,4.26973199844,100.317810059,0
28.0,15.878822479773117,0.3210180041068512,396.3323401179531,0.4406181257678183,103.06181278202236,6.853518775722578,4.699258314732387,102.21942781034646,0
28.1,15.843373856093054,0.5506820011381659,396.4282230262762,0.44541198116282993,103.54119806435729,7.19034099579,4.82588243484,102.768592834,0
28.200000000000003,15.807925232412993,0.7803459981694805,396.52410593459933,0.4502058365578415,104.02058334669222,7.19034099579,4.82588243484,102.768592834,0
28.3,15.772476608732934,1.010009995200787,396.6199888429225,0.454999691952853,104.49996862902712,7.24495197239025,4.7745079833640505,102.83465650685957,0
28.400000000000002,15.737027985052872,1.2396739922321016,396.71587175124563,0.45979354734786465,104.97935391136205,7.53702476647653,4.500585941551333,103.18398918876674,0
28.5,15.729281197388845,1.0972240852883683,396.7588440728076,0.460000008345,105.25896288344704,7.5900554657,4.45095968246,103.246513367,0
28.6,15.722781162933787,0.9380267611837712,396.7994350921413,0.460000008345,105.5295806913458,7.5900554657,4.45095968246,103.246513367,0
28.700000000000003,15.716281128478727,0.7788294370791738,396.840026111475,0.460000008345,105.80019849924457,7.121333972088245,4.213433262737224,103.69261876533271,0
28.8,15.711301560283106,0.7002790385656505,396.8813787443342,0.460000008345,105.93303075389025,5.57052707672,3.42886090279,105.150878906,0
28.900000000000002,15.710611843574215,0.8492662993061245,396.92488019759264,0.460000008345,105.67711412522209,5.57052707672,3.42886090279,105.150878906,0
29.0,15.709922126865324,0.9982535600465933,396.96838165085103,0.460000008345,105.42119749655393,5.57052707672,3.42886090279,105.150878906,0
29.1,15.709232410156433,1.1472408207870672,397.0118831041095,0.460000008345,105.16528086788577,4.997072068378272,3.7175859548387105,106.41080981445745,0
29.200000000000003,15.712583483122431,1.2501564092293622,397.0564818671098,0.4584283776505967,104.92141850743488,4.95157575607,3.73815608025,106.512336731,0
29.3,15.723303228438551,1.2690569696445548,397.1030816538223,0.45399076466703386,104.69953797728455,4.95157575607,3.73815608025,106.512336731,0
29.400000000000002,15.734022973754671,1.287957530059748,397.1496814405347,0.4495531516834709,104.4776574471342,4.95157575607,3.73815608025,106.512336731,0
29.5,15.74474271907079,1.3068580904749405,397.1962812272472,0.4451155386999081,104.25577691698388,4.716332666026819,2.90428331386134,106.01665802289841,0
29.6,15.755462464386909,1.3257586508901338,397.2428810139597,0.4406779257163451,104.03389638683353,4.47638654709,2.05859303474,105.514343262,0
29.700000000000003,15.763771619863403,1.0430610440415462,397.3131630285431,0.43298159399751834,103.64908000732694,4.47638654709,2.05859303474,105.514343262,0
29.8,15.771646109499155,0.7059807218985692,397.3877153073246,0.4246976659586871,103.23488382758092,4.47638654709,2.05859303474,105.514343262,0
29.900000000000002,15.777923267734295,0.529872579402612,397.4520605182512,0.419999986887,103.0,4.452119307628637,1.0877224065139637,105.18601119868687,0
30.0,15.782108058607339,0.564624208879989,397.5030353442758,0.419999986887,103.0,4.38168668747,-1.71895885468,104.248931885,0
30.1,15.786292849480382,0.5993758383573673,397.5540101703004,0.419999986887,103.0,4.38168668747,-1.71895885468,104.248931885,0
30.200000000000003,15.790477640353426,0.6341274678347456,397.604984996325,0.419999986887,103.0,4.14694023132,-1.30932486057,103.587516785,0
30.3,15.784990255568774,0.8556842059353088,397.64872209878064,0.419999986887,103.0,4.14694023132,-1.30932486057,103.587516785,0
30.400000000000002,15.77546612079827,1.1552053593111236,397.68943848681283,0.419999986887,103.0,4.14694023132,-1.30932486057,103.587516785,0
30.5,15.765467237748236,1.3042808295667276,397.7272464652048,0.419999986887,103.0,4.14694023132,-1.30932486057,103.587516785,0
30.6,15.75498443449215,1.3000040727278734,397.76208984477034,0.419999986887,103.0,3.93650317192,-1.44002306461,103.453147888,0
30.700000000000003,15.74450163123606,1.2957273158890192,397.79693322433593,0.419999986887,103.0,3.93650317192,-1.44002306461,103.453147888,0
30.8,15.736316578396986,1.1793325270933173,397.82220723262395,0.4222282377091147,103.0,3.9331645170898786,-1.5410227577442177,103.50741719786471,0
30.900000000000002,15.732618755475348,0.8439847207914719,397.8287934109503,0.4288079941075166,103.0,3.92836666107,-1.68094325066,103.587020874,0
31.0,15.728920932553711,0.5086369144896385,397.83537958927667,0.43538775050591816,103.0,3.92836666107,-1.68094325066,103.587020874,0
31.1,15.728400527952461,0.0490858593945146,397.8261699125767,0.44184359700464526,102.90782008001766,3.72103381157,-0.378442049026,103.734161377,0
31.200000000000003,15.735328646493,-0.7016231987201214,397.7799314974973,0.44800897317112154,102.59955143706455,3.72103381157,-0.378442049026,103.734161377,0
31.3,15.74225676503354,-1.4523322568347306,397.7336930824178,0.45417434933759754,102.29128279411147,3.72103381157,-0.378442049026,103.734161377,0
31.400000000000002,15.74918476790472,-2.1360228030465045,397.6868288999641,0.460000008345,102.0,3.4852935310017275,1.177876661227049,103.27769135639832,0
31.5,15.756110787213363,-1.6704425894472046,397.62923371013227,0.460000008345,102.0,3.38255310059,1.83351945877,103.084526062,0
31.6,15.763036806522004,-1.2048623758478878,397.5716385203005,0.460000008345,102.0,3.38255310059,1.83351945877,103.084526062,0
31.700000000000003,15.769962825830648,-0.7392821622485712,397.51404333046867,0.460000008345,102.0,3.3765842050748422,1.9138287826334677,103.06833413662021,0
31.8,15.779157971260833,-0.631655490832075,397.38356968768556,0.46200658903749586,101.79934173938263,3.11262893677,5.46127176285,102.249435425,0
31.900000000000002,15.78852538877998,-0.5512046576719727,397.2475631116684,0.46416550936606626,101.58344950062916,3.11262893677,5.46127176285,102.249435425,0
32.0,15.797892806299128,-0.47075382451187336,397.1115565356513,0.4663244296946366,101.3675572618757,2.8916512908688228,5.041526182057622,102.26893659244516,0
32.1,15.807260223818275,-0.3903029913517711,396.9755499596342,0.46848335002320696,101.15166502312223,2.31994724274,3.97336149216,102.318916321,0
32.2,15.818003637228678,-0.38984759939984504,396.83845246213247,0.46935075771166074,101.06492417155211,2.31994724274,3.97336149216,102.318916321,0
32.300000000000004,15.831996303259054,-0.5782920425298406,396.6987788817265,0.4671684100510645,101.28315914574242,2.31994724274,3.97336149216,102.318916321,0
32.4,15.845988969289428,-0.7667364856598227,396.5591053013206,0.4649860623904685,101.50139411993273,2.31994724274,3.97336149216,102.318916321,0
32.5,15.859981635319803,-0.9551809287898183,396.41943172091464,0.4628037147298723,101.71962909412304,3.02997040749,2.2004468441,101.826309204,0
32.6,15.873974301350179,-1.1436253719198137,396.2797581405087,0.4606213670692761,101.93786406831335,3.02997040749,2.2004468441,101.826309204,0
32.7,15.877463986361985,-1.133848564235256,396.14880040167185,0.4636475981594156,102.0,3.02997040749,2.2004468441,101.826309204,0
32.800000000000004,15.876772912154458,-1.0451688888462665,396.02131204309285,0.46874712763915055,102.0,3.02997040749,2.2004468441,101.826309204,0
32.9,15.876081837946932,-0.9564892134572831,395.89382368451385,0.4738466571188852,102.0,3.02997040749,2.2004468441,101.826309204,0
33.0,15.875390763739407,-0.8678095380682935,395.7663353259348,0.47894618659862015,102.0,3.5056937743685093,5.946745812542026,102.39687906866202,0
33.1,15.866148016054412,-1.0398263577742306,395.7007208420552,0.47781826968193525,101.78182783302273,3.56507134438,6.39285564423,102.465866089,0
33.2,15.854677788167965,-1.2797475803952751,395.65122283306715,0.4750682710066108,101.50682770322267,3.56507134438,6.39285564423,102.465866089,0
33.300000000000004,15.843207560281517,-1.5196688030163197,395.6017248240791,0.4723182723312864,101.2318275734226,3.6367404410237554,6.34367857168085,102.439165511452,0
33.4,15.825140153843536,-1.6096572594999887,395.5689149698195,0.46883675943579967,100.92245071160127,4.66185998917,5.69122171402,102.082504272,0
33.5,15.771647282170965,-0.8945382063360827,395.62571700654405,0.46142716859417987,100.42847800845381,4.66185998917,5.69122171402,102.082504272,0
33.6,15.718154410498395,-0.17941915317217672,395.6825190432686,0.45401757775256013,99.93450530530633,4.66185998917,5.69122171402,102.082504272,0
33.7,15.664661538825822,0.5356998999917295,395.73932107999315,0.44660798691094034,99.44053260215887,4.976808051009849,5.1730648901744525,101.98202314202058,0
33.800000000000004,15.610881163657004,1.1656494491336933,395.8050398246532,0.43972108011685707,99.0,5.93490982056,3.59772324562,101.680747986,0
33.9,15.554730758099236,1.0935055789656247,395.9442633059594,0.43714291075605943,99.0,5.93490982056,3.59772324562,101.680747986,0
34.0,15.498580352541463,1.021361708797551,396.0834867872656,0.43456474139526163,99.0,5.93490982056,3.59772324562,101.680747986,0
34.1,15.442429946983692,0.9492178386294776,396.22271026857186,0.43198657203446383,99.0,6.845357725216029,1.7015621918820645,100.37721549992892,0
34.2,15.387817786683879,0.9120155830782976,396.36692636561577,0.4328414224180894,99.071035396447,7.38027048111,0.587791085243,99.617477417,0
34.300000000000004,15.338370942258583,0.992144732079208,396.5279073037616,0.4452241038102315,99.38060249583398,7.38027048111,0.587791085243,99.617477417,0
34.4,15.288924097833291,1.0722738810801127,396.6888882419074,0.45760678520237263,99.69016959522095,7.38027048111,0.587791085243,99.617477417,0
34.5,15.239477253407996,1.152403030081023,396.84986918005325,0.4699894665945147,99.99973669460793,7.321647684648607,0.171351076570062,99.58683318732389,0
34.6,15.217368747234948,1.2469697911078867,396.9641100158535,0.469999998808,100.0,7.197295345601063,-0.7112236898136955,99.52180960706102,0
34.7,15.195283513753704,1.341548842643851,397.0783110625493,0.469999998808,100.0,7.1925239563,-0.745004415512,99.519493103,0
34.800000000000004,15.17319828027246,1.4361278941798155,397.19251210924506,0.469999998808,100.0,7.111541087157644,-0.21519243845342406,99.66937878213108,0
34.9,15.15111304679122,1.5307069457157731,397.3067131559409,0.469999998808,100.0,6.64264774323,2.3658425808,100.505020142,0
35.0,15.14439702107604,1.3556154248182388,397.38413917438413,0.47108796131899094,100.21759270971636,6.64264774323,2.3658425808,100.505020142,0
35.1,15.156781762690057,0.8453787918247941,397.41586138890545,0.47352803768657314,100.70560844865341,6.64264774323,2.3658425808,100.505020142,0
35.2,15.169166504304073,0.33514215883134946,397.44758360342684,0.4759681140541553,101.19362418759044,6.64264774323,2.3658425808,100.505020142,0
35.300000000000004,15.18155124591809,-0.17509447416209523,397.47930581794816,0.4784081904217375,101.6816399265275,5.05228042603,9.27900505066,100.552116394,0
35.4,15.20231678181827,-0.48541741378145403,397.481371834405,0.479999989271,102.41390590366836,5.05228042603,9.27900505066,100.552116394,0
35.5,15.238808938326123,-0.4206008734637917,397.42778778241956,0.479999989271,103.60450920522086,5.05228042603,9.27900505066,100.552116394,0
35.6,15.275301094833976,-0.35578433314612934,397.3742037304341,0.479999989271,104.79511250677336,5.05228042603,9.27900505066,100.552116394,0
35.7,15.311793251341827,-0.290967792828467,397.3206196784486,0.479999989271,105.98571580832585,2.30379366875,13.5791463852,102.460380554,0
35.800000000000004,15.333807619638124,-0.2724408110315868,397.2654393863035,0.4759600198014164,106.60599599837593,2.30379366875,13.5791463852,102.460380554,0
35.9,15.355646182321728,-0.2544759291962488,397.2102397108123,0.4718709924717876,107.21935068277661,2.30379366875,13.5791463852,102.460380554,0
36.0,15.377484745005333,-0.23651104736090947,397.1550400353211,0.46778196514215853,107.83270536717734,2.1009196385539557,14.062131462413909,103.01930540769827,0
36.1,15.39932330768894,-0.21854616552557019,397.0998403598299,0.4636929378125294,108.44606005157806,0.961710810661,16.7412910461,106.098297119,0
36.2,15.417947957894263,-0.19062194403614652,397.0497458356074,0.45951656543045155,109.1208606638014,0.961710810661,16.7412910461,106.098297119,0
36.300000000000004,15.406608416840909,-0.0698440558019944,397.04724804279954,0.4545258510665185,110.36853858546786,0.961710810661,16.7412910461,106.098297119,0
36.4,15.395268875787554,0.050933832432149134,397.0447502499917,0.4495351367025857,111.61621650713423,0.961710810661,16.7412910461,106.098297119,0
36.5,15.3839293347342,0.17171172066630128,397.0422524571838,0.44454442233865266,112.86389442880068,1.201896071921053,17.801996144701057,106.92652174956321,0
36.6,15.369615147320753,0.2892247650447199,397.03780534981024,0.439999997616,114.17778817387894,2.02875947952,21.42304039,109.729888916,0
36.7,15.325011087121636,0.37349294832569735,397.0135089954787,0.439999997616,116.16593647723029,2.02875947952,21.42304039,109.729888916,0
36.800000000000004,15.280407026922521,0.45776113160667475,396.9892126411471,0.439999997616,118.15408478058166,2.02875947952,21.42304039,109.729888916,0
36.9,15.235802966723409,0.5420293148876463,396.96491628681554,0.439999997616,120.14223308393288,1.995325272142628,23.17762881866397,111.46317565676578,0
37.0,15.191198906524292,0.6262974981686237,396.94061993248397,0.439999997616,122.13038138728423,1.93335294724,26.2091464996,114.736343384,0
37.1,15.129587462067063,0.5955405447601836,396.9023718065849,0.439999997616,124.38109966616554,1.93335294724,26.2091464996,114.736343384,0
37.2,15.054753357515708,0.4753554781485506,396.85327665504406,0.439999997616,126.83595712863116,1.93335294724,26.2091464996,114.736343384,0
37.300000000000004,14.979919252964352,0.35517041153691764,396.8041815035032,0.439999997616,129.2908145910968,1.93335294724,26.2091464996,114.736343384,0
37.4,14.905085148413,0.23498534492529327,396.75508635196235,0.439999997616,131.74567205356223,0.569629371166,28.9961433411,123.63344574,0
37.5,14.816200973073267,0.036166462098136676,396.7212737436149,0.43808483774916934,133.3406131853243,0.569629371166,28.9961433411,123.63344574,0
37.6,14.725692949643841,-0.17174058648775897,396.6892274273342,0.4359483317597425,134.83616880423443,0.569629371166,28.9961433411,123.63344574,0
37.7,14.635184926214414,-0.3796476350736547,396.65718111105343,0.43381182577031574,136.33172442314458,0.600839618615316,30.16580475072775,125.15553322858982,0
37.800000000000004,14.544676902784987,-0.5875546836595502,396.62513479477275,0.4316753197808889,137.82728004205475,0.743629932404,34.0833816528,132.178771973,0
37.9,14.460858589961955,-0.710703638240124,396.6046938653539,0.4295311155877111,139.37511249202814,0.743629932404,34.0833816528,132.178771973,0
38.0,14.401341053321891,-0.5259637179040406,396.6264102018082,0.4273589472063382,141.11284367544047,0.743629932404,34.0833816528,132.178771973,0
38.1,14.34182351668183,-0.3412237975679573,396.64812653826255,0.42518677882496525,142.85057485885278,0.743629932404,34.0833816528,132.178771973,0
38.2,14.282305980041766,-0.15648387723187396,396.66984287471684,0.42301461044359234,144.58830604226512,3.246874834841911,35.74282740364208,136.217623496774,0
38.300000000000004,14.222788443401702,0.028256043104209372,396.6915592111711,0.4208424420622194,146.32603722567745,5.47700452805,37.2168655396,139.729934692,0
38.400000000000006,14.181934371147866,0.19097461039139552,396.69559674167806,0.42658102342369225,148.53557513088134,5.47700452805,37.2168655396,139.729934692,0
38.5,14.152904752533308,0.3397412948548743,396.68843366028375,0.43733155174476784,151.04403163946296,5.47700452805,37.2168655396,139.729934692,0
38.6,14.123875133918748,0.48850797931836365,396.6812705788895,0.44808208006584416,153.55248814804477,5.47700452805,37.2168655396,139.729934692,0
38.7,14.090297147815955,0.5363540596986675,396.6706649152001,0.4476685481568578,155.39886528738313,3.81805062294,31.8701057434,147.897644043,0
38.800000000000004,14.055731532884078,0.5622863219235481,396.6593117319821,0.4448308612600938,157.10147904922428,3.81805062294,31.8701057434,147.897644043,0
38.900000000000006,14.0211659179522,0.5882185841484289,396.64795854876405,0.44199317436332985,158.8040928110654,3.81805062294,31.8701057434,147.897644043,0
39.0,13.97215080486483,0.6303436671687107,396.6643013962189,0.4361604786088052,160.12798396182126,1.68760156631,28.5973720551,154.937316895,0
39.1,13.889032604024841,0.7106863534998761,396.74601123111313,0.42325909100097614,160.5580301983284,1.68760156631,28.5973720551,154.937316895,0
39.2,13.805914403184854,0.7910290398310413,396.82772106600737,0.41035770339314703,160.98807643483553,1.68760156631,28.5973720551,154.937316895,0
39.300000000000004,13.722796202344865,0.8713717261622067,396.9094309009016,0.397456315785318,161.41812267134267,2.8516611008640727,24.617436606535065,160.65087324316826,0
39.400000000000006,13.639678001504876,0.9517144124933721,396.99114073579585,0.38455492817748893,161.84816890784978,2.90897202492,24.4255237579,160.890274048,0
39.5,13.540061088030226,1.2509539985144236,397.1436542795714,0.379999995232,162.8153720961935,2.90897202492,24.4255237579,160.890274048,0
39.6,13.431440288141747,1.6696527729453794,397.3348077200809,0.379999995232,164.07571937934185,2.90897202492,24.4255237579,160.890274048,0
39.7,13.322819488253268,2.088351547376335,397.5259611605903,0.379999995232,165.33606666249023,2.90897202492,24.4255237579,160.890274048,0
39.800000000000004,13.214198688364789,2.507050321807291,397.7171146010998,0.379999995232,166.59641394563857,8.43801116943,14.7506217957,161.995895386,0
39.900000000000006,13.10557788847631,2.9257490962382473,397.9082680416093,0.379999995232,167.85676122878692,8.43801116943,14.7506217957,161.995895386,0
40.0,13.026429905250613,2.724267280362878,398.0505012381357,0.3817464882883447,168.87324736098833,8.43801116943,14.7506217957,161.995895386,0
40.1,12.951061008835065,2.443264178294998,398.18646174444393,0.383716921558778,169.858464935807,8.43801116943,14.7506217957,161.995895386,0
40.2,12.875692112419516,2.162261076227118,398.32242225075214,0.3856873548292114,170.8436825106257,7.131158051153072,14.33360391735422,164.67705996949758,0
40.300000000000004,12.800323216003967,1.8812579741592375,398.45838275706035,0.3876577880996448,171.8289000854444,5.44367742538,13.8409414291,168.311889648,0
