t_sec,airspeed,climb,altitude,throttle,heading,pitch,roll,yaw,is_boundary
0.0,21.5878372192,1.70468831062,391.739990234,0.40000000596,63.0,0.776162087917,-27.2237586975,73.4519042969,0
0.1,21.542746351166834,2.4855145190026304,391.8434217039907,0.3887572433472963,62.10057920540562,0.776162087917,-27.2237586975,73.4519042969,0
0.2,21.497655483133666,3.266340727385261,391.94685317398137,0.37751448073459254,61.20115841081124,0.776162087917,-27.2237586975,73.4519042969,0
0.30000000000000004,21.4525646151005,4.047166935767892,392.0502846439721,0.3662717181218888,60.30173761621686,0.776162087917,-27.2237586975,73.4519042969,0
0.4,21.407473747067332,4.827993144150522,392.15371611396273,0.3550289555091851,59.40231682162248,0.8959794087587057,-26.75520644074823,67.6743392145311,0
0.5,21.370937078262124,4.749184258718581,392.17971975987575,0.3554033938949162,58.18948985266989,0.976576089859,-26.4441146851,63.7801208496,0
0.6000000000000001,21.341323504889733,3.974654402418099,392.143059420422,0.365179880214197,56.72301659883478,0.976576089859,-26.4441146851,63.7801208496,0
0.7000000000000001,21.311709931517345,3.200124546117618,392.10639908096823,0.3749563665334778,55.256543344999685,0.976576089859,-26.4441146851,63.7801208496,0
0.8,21.282096358144955,2.425594689817137,392.06973874151447,0.3847328528527586,53.79007009116458,0.7015404689659378,-28.141517682085123,63.13289553314401,0
0.9,21.266458977122234,1.5667823429393783,392.02004509515973,0.389999985695,52.001869459167935,-0.752875626087,-37.053943634,59.703086853,0
1.0,21.267146433375913,0.6095241597780263,391.9551279452205,0.389999985695,49.83787641072149,-0.752875626087,-37.053943634,59.703086853,0
1.1,21.267833889629593,-0.34773402338332726,391.8902107952813,0.389999985695,47.673883362275056,-0.752875626087,-37.053943634,59.703086853,0
1.2000000000000002,21.268521345883272,-1.3049922065446804,391.8252936453421,0.389999985695,45.50989031382862,-1.0044264017136677,-37.952129507738405,58.03595937840944,0
1.3,21.273205786016263,-1.801302311057842,391.7503768601778,0.39211584740115785,43.36524182866866,-1.7118165493,-40.481136322,53.3433837891,0
1.4000000000000001,21.28711661662968,-1.233588368132239,391.6523775352701,0.39911583346034313,41.26524713745523,-1.7118165493,-40.481136322,53.3433837891,0
1.5,21.3010274472431,-0.6658744252066373,391.5543782103624,0.40611581951952835,39.165252446241816,-1.7118165493,-40.481136322,53.3433837891,0
1.6,21.323211274661006,-0.5296648632329692,391.4435906539108,0.41296887134658905,37.10933755861226,-1.7118165493,-40.481136322,53.3433837891,0
1.7000000000000002,21.355708244355334,-0.9313699383404311,391.3168612502069,0.4196387545254574,35.10837268445677,-3.62446546555,-36.4699211121,44.6489372253,0
1.8,21.388205214049663,-1.3330750134478921,391.19013184650294,0.42630863770432575,33.107407810301275,-3.62446546555,-36.4699211121,44.6489372253,0
1.9000000000000001,21.42070218374399,-1.7347800885553544,391.06340244279903,0.4329785208831941,31.106442936145775,-3.62446546555,-36.4699211121,44.6489372253,0
2.0,21.45319915343832,-2.1364851636628153,390.93667303909507,0.4396484040620624,29.105478061990283,-4.90568161011,-37.7869338989,37.9052124023,0
2.1,21.456960387446827,-2.275413802899161,390.76545439373575,0.44620900702280736,27.13729817720418,-4.90568161011,-37.7869338989,37.9052124023,0
2.2,21.45912256537615,-2.399719734652389,390.59176005772053,0.45276352887259574,25.170942677119076,-4.90568161011,-37.7869338989,37.9052124023,0
2.3000000000000003,21.46128474330547,-2.524025666405617,390.41806572170526,0.45931805072238413,23.204587177033968,-4.90568161011,-37.7869338989,37.9052124023,0
2.4000000000000004,21.469779806619563,-2.777211235287781,390.21024384157977,0.4701200091361287,20.722999346956776,-4.88784148152067,-38.061999234035284,34.62456526841646,0
2.5,21.479010282828984,-3.0453630859405836,389.99845886493506,0.48141520553405137,18.181579627220486,-4.86011075974,-38.4522590637,29.5141963959,0
2.6,21.488240759038405,-3.313514936593388,389.78667388829035,0.49271040193197413,15.640159907484183,-4.86011075974,-38.4522590637,29.5141963959,0
2.7,21.490042892557447,-3.4187124909725157,389.5939939044109,0.5024347713075884,13.026090548179647,-4.733759478530878,-38.38490632263616,27.59657107593061,0
2.8000000000000003,21.478326538184124,-3.2273572646029822,389.43608218906,0.5093004672257178,10.279809561891277,-4.45135641098,-38.2340126038,23.3063297272,0
2.9000000000000004,21.466610183810797,-3.0360020382334483,389.2781704737091,0.5161661631438471,7.533528575602908,-4.45135641098,-38.2340126038,23.3063297272,0
3.0,21.454893829437474,-2.844646811863915,389.1202587583582,0.5230318590619764,4.78724758931455,-4.45135641098,-38.2340126038,23.3063297272,0
3.1,21.44317747506415,-2.6532915854943813,388.9623470430073,0.5298975549801057,2.040966603026181,-4.10612678528,-36.0375442505,14.1859369278,0
3.2,21.402772222106336,-2.4814279549181584,388.880864165331,0.52999997139,85.92629801967063,-4.10612678528,-36.0375442505,14.1859369278,0
3.3000000000000003,21.361932532867534,-2.3098594857738757,388.8005386503154,0.52999997139,171.12349281780843,-4.10612678528,-36.0375442505,14.1859369278,0
3.4000000000000004,21.321092843628733,-2.1382910166295925,388.72021313529984,0.52999997139,256.3206876159462,-4.10612678528,-36.0375442505,14.1859369278,0
3.5,21.280253154389932,-1.9667225474853103,388.63988762028424,0.52999997139,341.51788241408366,-3.466110316511096,-37.472513727627714,8.570273867949933,0
3.6,21.21054701296444,-1.3010316995113937,388.6227997777585,0.5348035801255642,349.8383804496262,-2.73133182526,-39.1215782166,1.7881398201,0
3.7,21.13679106583173,-0.5660181783906213,388.61458383557243,0.5402811089517133,347.3734974730677,-2.73133182526,-39.1215782166,1.7881398201,0
3.8000000000000003,21.063035118699023,0.16899534273015115,388.60636789338633,0.5457586377778625,344.9086144965092,-2.73133182526,-39.1215782166,1.7881398201,0
3.9000000000000004,20.98562928815964,0.6634578646837808,388.5914706444047,0.5508984689476774,342.50584816405484,-0.8085444632785801,-37.86408484902074,-3.7202909646482882,0
4.0,20.89570033141341,0.3325651119335812,388.5536491430827,0.5548796246479429,340.3162104406513,0.384444653988,-37.0913925171,-7.14013910294,0
4.1000000000000005,20.805771374667177,0.0016723591833787133,388.51582764176067,0.5588607803482085,338.1265727172477,0.384444653988,-37.0913925171,-7.14013910294,0
4.2,20.715842417920946,-0.329220393566821,388.4780061404387,0.5628419360484741,335.93693499384415,0.384444653988,-37.0913925171,-7.14013910294,0
4.3,20.625913461174715,-0.6601131463170204,388.4401846391167,0.5668230917487396,333.74729727044064,1.12626838684,-39.4938583374,-16.0545883179,0
4.4,20.535930335860286,-0.8502359026341104,388.40680726902605,0.5695434134860263,331.4521042443034,1.12626838684,-39.4938583374,-16.0545883179,0
4.5,20.44573323827467,-0.484300471462495,388.3909847445708,0.5672832914786026,328.7399552488183,1.12626838684,-39.4938583374,-16.0545883179,0
4.6000000000000005,20.355536140689054,-0.11836504029087636,388.3751622201155,0.5650231694711787,326.0278062533332,1.12626838684,-39.4938583374,-16.0545883179,0
4.7,20.265339043103438,0.24757039088073896,388.35933969566025,0.5627630474637548,323.3156572578481,1.12626838684,-39.4938583374,-16.0545883179,0
4.800000000000001,20.175141945517822,0.6135058220523575,388.343517171205,0.5605029254563311,320.603508262363,3.24733614922,-40.9873008728,-27.2490196228,0
4.9,20.078223485229447,0.4710582157083788,388.3531401091781,0.5512371269157795,318.68556938486034,3.24733614922,-40.9873008728,-27.2490196228,0
5.0,19.97938132221555,0.18310769899825896,388.37004572294046,0.5399662529705975,316.99493919997934,3.24733614922,-40.9873008728,-27.2490196228,0
5.1000000000000005,19.88053915920165,-0.10484281771186343,388.3869513367028,0.5286953790254154,315.30430901509834,3.24733614922,-40.9873008728,-27.2490196228,0
5.2,19.776451913143582,-0.15091923305277608,388.4046274476899,0.5180143827323622,313.6028799823523,3.177341811209764,-40.377398597634254,-29.445297895261877,0
5.300000000000001,19.654656061825033,0.6196268812807069,388.42490493430705,0.509324948899915,311.8649915584966,2.86726307869,-37.6881408691,-39.3609275818,0
5.4,19.532860210506488,1.390172995614183,388.44518242092414,0.5006355150674678,310.12710313464095,2.86726307869,-37.6881408691,-39.3609275818,0
5.5,19.41106435918794,2.1607191099476593,388.46545990754123,0.4919460812350207,308.3892147107852,2.86726307869,-37.6881408691,-39.3609275818,0
5.6000000000000005,19.291216338846155,1.4530389350049682,388.5134345804428,0.490000009537,307.45709543269356,3.86030220985,-26.7203083038,-45.3059616089,0
5.7,19.17193044443812,0.3187563787154346,388.5694024041301,0.490000009537,306.75751364828096,3.86030220985,-26.7203083038,-45.3059616089,0
5.800000000000001,19.052644550030088,-0.8155261775741085,388.6253702278173,0.490000009537,306.0579318638683,3.86030220985,-26.7203083038,-45.3059616089,0
5.9,18.951065444023918,-0.637149862156298,388.7044420891762,0.48404502984835673,305.7022511752952,3.844017947218477,-22.69681214403586,-47.0896651084934,0
6.0,18.851085009228324,-0.3402591160084294,388.7855999166085,0.47755240017080913,305.37761986556626,3.80573487282,-13.262597084,-51.3169937134,0
6.1000000000000005,18.75110457443273,-0.043368369860558253,388.8667577440407,0.4710597704932615,305.0529885558374,3.80573487282,-13.262597084,-51.3169937134,0
6.2,18.678018405509153,0.259994354095732,388.93616427708787,0.469999998808,305.0,3.82396711183653,-9.328160629345378,-52.77653181910461,0
6.300000000000001,18.610178422204182,0.564619547794239,389.00327851958156,0.469999998808,305.0,3.83602237701,-7.16955757141,-53.74426651,0
6.4,18.542338438899215,0.869244741492743,389.0703927620752,0.469999998808,305.0,3.83602237701,-7.16955757141,-53.74426651,0
6.5,18.474498455594244,1.1738699351912472,389.1375070045689,0.469999998808,305.0,3.8195026363217988,-5.184902305374754,-53.9149689939882,0
6.6000000000000005,18.42092015273756,1.1138489346356404,389.2048664071299,0.4688372876472971,304.65118631912554,3.7901995182,-1.6583288908,-54.2196388245,0
6.7,18.380713189985652,0.7119461832606722,389.27245566469657,0.46658445204931215,303.9753349951706,3.7901995182,-1.6583288908,-54.2196388245,0
6.800000000000001,18.340506227233746,0.3100434318857004,389.34004492226325,0.46433161645132714,303.29948367121574,3.7901995182,-1.6583288908,-54.2196388245,0
6.9,18.300299264481843,-0.09185931948926807,389.40763417983,0.4620787808533422,302.62363234726087,3.5743940158366443,0.05335774433599472,-54.25264229435291,0
7.0,18.26270921084286,-0.4410245064160894,389.4694652697045,0.460000008345,302.0535973091761,2.59739279747,7.83797740936,-54.4030456543,0
7.1000000000000005,18.25637195601346,-0.160364040145766,389.46252864597903,0.460000008345,302.7472878918029,2.59739279747,7.83797740936,-54.4030456543,0
7.2,18.25003470118406,0.12029642612455499,389.4555920222536,0.460000008345,303.44097847442976,2.59739279747,7.83797740936,-54.4030456543,0
7.300000000000001,18.243697446354663,0.40095689239487836,389.44865539852816,0.460000008345,304.1346690570566,2.59739279747,7.83797740936,-54.4030456543,0
7.4,18.237360191525262,0.6816173586651992,389.4417187748027,0.460000008345,304.8283596396834,1.70665860176,8.00075435638,-57.1562423706,0
7.5,18.254986147787893,0.5181216785849632,389.37943755022417,0.46310578056795004,305.0,1.70665860176,8.00075435638,-57.1562423706,0
7.6000000000000005,18.28049076018437,0.20859575517092444,389.29896005481555,0.46723267267674046,305.0,1.70665860176,8.00075435638,-57.1562423706,0
7.7,18.305995372580846,-0.10093016824311152,389.218482559407,0.47135956478553087,305.0,1.70665860176,8.00075435638,-57.1562423706,0
7.800000000000001,18.331499984977324,-0.41045609165715013,389.13800506399843,0.4754864568943213,305.0,1.3223017119361287,8.008280903054708,-56.7239799514609,0
7.9,18.3570045973738,-0.7199820150711863,389.0575275685899,0.47961334900311164,305.0,-0.775332272053,8.04893302917,-54.3394470215,0
8.0,18.382703896947472,-0.9024729000680214,388.9817787124042,0.48235196199747016,305.0,-0.775332272053,8.04893302917,-54.3394470215,0
8.1,18.408423321877823,-1.0718318187229892,388.90651866884764,0.48494706470654847,305.0,-0.775332272053,8.04893302917,-54.3394470215,0
8.200000000000001,18.434142746808174,-1.24119073737796,388.8312586252911,0.4875421674156268,305.0,-0.775332272053,8.04893302917,-54.3394470215,0
8.3,18.459797758934563,-1.3986283946850777,388.7558730242828,0.4901416140524729,305.02832093010426,-0.8324099283359457,6.780329467916668,-54.587189726993444,0
8.4,18.484299370034645,-1.342599253033051,388.67823914211164,0.4928188447700858,305.5637675842823,-0.849254667759,6.40506410599,-54.6917266846,0
8.5,18.50880098113473,-1.2865701113810246,388.6006052599405,0.4954960754876987,306.0992142384604,-0.849254667759,6.40506410599,-54.6917266846,0
8.6,18.53330259223481,-1.230540969728998,388.52297137776935,0.49817330620531153,306.6346608926384,-0.849254667759,6.40506410599,-54.6917266846,0
8.700000000000001,18.55441074811083,-1.1709487906479161,388.448308080387,0.5006025601033784,306.93974393219594,-1.154707551,3.38126540184,-54.2896614075,0
8.8,18.568230797576323,-1.1037042943229027,388.38002469274653,0.5024992354557264,306.75007621607506,-1.154707551,3.38126540184,-54.2896614075,0
8.9,18.582050847041813,-1.0364597979978896,388.311741305106,0.5043959108080744,306.5604084999541,-1.154707551,3.38126540184,-54.2896614075,0
9.0,18.595870896507307,-0.9692153016728762,388.2434579174655,0.5062925861604224,306.37074078383324,-1.154707551,3.38126540184,-54.2896614075,0
9.1,18.6096909459728,-0.9019708053478628,388.175174529825,0.5081892615127704,306.18107306771236,-0.960291385651,-0.724601149559,-53.0023574829,0
9.200000000000001,18.622334902010326,-0.8270212187622149,388.10958212087627,0.509999990463,305.9798427499052,-0.960291385651,-0.724601149559,-53.0023574829,0
9.3,18.610200782809073,-0.5897398805828318,388.1006835688152,0.509999990463,305.53501017421064,-0.960291385651,-0.724601149559,-53.0023574829,0
9.4,18.598066663607824,-0.3524585424034487,388.0917850167541,0.509999990463,305.09017759851616,-0.960291385651,-0.724601149559,-53.0023574829,0
9.5,18.58593254440657,-0.11517720422406563,388.08288646469305,0.509999990463,304.6453450228217,-0.960291385651,-0.724601149559,-53.0023574829,0
9.600000000000001,18.57379842520532,0.12210413395532171,388.073987912632,0.509999990463,304.2005124471272,0.284097015858,0.201834917068,-53.8085632324,0
9.700000000000001,18.55072390028044,0.11313046722753511,388.075913141838,0.509999990463,304.0,0.284097015858,0.201834917068,-53.8085632324,0
9.8,18.518670632846398,-0.09794359106768008,388.0867214003783,0.509999990463,304.0,0.284097015858,0.201834917068,-53.8085632324,0
9.9,18.48661736541236,-0.30901764936289533,388.0975296589186,0.509999990463,304.0,0.284097015858,0.201834917068,-53.8085632324,0
10.0,18.45456409797832,-0.5200917076581105,388.1083379174589,0.509999990463,304.0,0.3352162684652244,0.23156341249375406,-53.876345940666155,0
10.100000000000001,18.420984465695664,-0.27832924491899147,388.1334086971126,0.509999990463,304.2342191567309,1.47179079056,0.825536310673,-55.3920059204,0
10.200000000000001,18.38713033996415,0.044868962714983085,388.16104437375895,0.509999990463,304.51055905817,1.47179079056,0.825536310673,-55.3920059204,0
10.3,18.353276214232633,0.36806717034895775,388.18868005040525,0.509999990463,304.786898959609,1.47179079056,0.825536310673,-55.3920059204,0
10.4,18.319563928977477,0.6342646879760021,388.22341454775614,0.5095371392751317,305.0,2.06311123879602,1.7427208052287835,-55.408577429603085,0
10.5,18.286329614903046,0.7083824283558501,388.2820705081539,0.5075145814757546,305.0,2.3281006813,2.14583945274,-55.4160995483,0
10.600000000000001,18.253095300828612,0.7825001687356994,388.3407264685517,0.5054920236763776,305.0,2.3281006813,2.14583945274,-55.4160995483,0
10.700000000000001,18.219860986754178,0.8566179091155472,388.3993824289494,0.5034694658770006,305.0,2.3281006813,2.14583945274,-55.4160995483,0
10.8,18.186626672679747,0.9307356494953952,388.45803838934717,0.5014469080776235,305.0,3.19881916046,4.95124959946,-54.99010849,0
10.9,18.155543534705245,0.9604087571293844,388.5175833768694,0.5,305.1701630515365,3.19881916046,4.95124959946,-54.99010849,0
11.0,18.129867424577302,0.8783693151053903,388.5793629533771,0.5,305.76803462872175,3.19881916046,4.95124959946,-54.99010849,0
11.100000000000001,18.104191314449356,0.7963298730813946,388.6411425298847,0.5,306.365906205907,3.19881916046,4.95124959946,-54.99010849,0
11.200000000000001,18.078515204321413,0.7142904310574003,388.70292210639235,0.5,306.9637777830922,3.19881916046,4.95124959946,-54.99010849,0
11.3,18.052839094193466,0.632250989033406,388.76470168289995,0.5,307.56164936027744,3.60072207451,8.37508869171,-54.9543571472,0
11.4,18.043071980795727,0.5589269140579894,388.8055315178591,0.5027906802195016,308.2790679554148,3.60072207451,8.37508869171,-54.9543571472,0
11.5,18.077021504254283,0.5095519631406992,388.7887931567188,0.5132499240704467,309.3249920911401,3.60072207451,8.37508869171,-54.9543571472,0
11.600000000000001,18.11097102771284,0.46017701222340796,388.77205479557847,0.5237091679213919,310.37091622686535,3.60072207451,8.37508869171,-54.9543571472,0
11.700000000000001,18.144920551171392,0.4108020613061176,388.7553164344382,0.5341684117723369,311.4168403625906,3.60072207451,8.37508869171,-54.9543571472,0
11.8,18.17887007462995,0.3614271103888273,388.7385780732979,0.5446276556232819,312.4627644983159,2.36027860641,17.4595546722,-51.713634491,0
11.9,18.24879782573559,0.1949999009295835,388.6740161719964,0.5542237381440561,314.0559325627805,2.36027860641,17.4595546722,-51.713634491,0
12.0,18.356722850391726,-0.09504836988791199,388.5589469428887,0.562908219973923,316.22705509079253,2.36027860641,17.4595546722,-51.713634491,0
12.100000000000001,18.464647875047866,-0.3850966407054126,388.44387771378103,0.5715927018037901,318.39817761880454,2.36027860641,17.4595546722,-51.713634491,0
12.200000000000001,18.572572899704,-0.675144911522908,388.32880848467335,0.580277183633657,320.56930014681654,1.6851751222275064,24.137489696806515,-49.45654464400448,0
12.3,18.680497924360136,-0.9651931823404036,388.21373925556566,0.5889616654635238,322.74042267482855,0.685386538506,33.9825820923,-46.0973625183,0
12.4,18.847483662434968,-1.5437462317012778,388.0523466485383,0.6015342500740165,325.306854710003,0.685386538506,33.9825820923,-46.0973625183,0
12.5,19.022489520561976,-2.1614766432308263,387.8846635815649,0.6146348176578058,327.92696760207355,0.685386538506,33.9825820923,-46.0973625183,0
12.600000000000001,19.197495378688984,-2.779207054760385,387.7169805145915,0.6277353852415952,330.5470804941441,0.685386538506,33.9825820923,-46.0973625183,0
12.700000000000001,19.373672700597595,-3.3550049199957206,387.54883387777267,0.6406378995544713,333.1594783793156,-1.067064820793708,37.18403050008694,-39.29697151943161,0
12.8,19.567036745171265,-3.315604044036664,387.3738861375002,0.6506347443165312,335.6586882291295,-1.75028502941,38.4336242676,-36.629234314,0
12.9,19.76040078974493,-3.276203168077607,387.1989383972278,0.6606315890785912,338.1578980789434,-1.75028502941,38.4336242676,-36.629234314,0
13.0,19.953764834318598,-3.2368022921185506,387.0239906569554,0.6706284338406513,340.6571079287573,-1.75028502941,38.4336242676,-36.629234314,0
13.100000000000001,20.145731760405983,-3.181618974756476,386.8521060211072,0.6801575936205656,343.1733452796415,-2.13766860962,42.3014335632,-26.7906494141,0
13.200000000000001,20.316758663841924,-2.8898883038817953,386.7261312180028,0.6826770872798104,345.9447909479385,-2.13766860962,42.3014335632,-26.7906494141,0
13.3,20.48778556727786,-2.5981576330071148,386.60015641489844,0.685196580939055,348.7162366162354,-2.13766860962,42.3014335632,-26.7906494141,0
13.4,20.658812470713798,-2.3064269621324343,386.474181611794,0.6877160745982998,351.4876822845323,-2.13766860962,42.3014335632,-26.7906494141,0
13.5,20.82650784288392,-2.0343963093179234,386.35225414922337,0.690883548712456,346.3131095842722,-0.7484770422257288,42.98159777304688,-20.94603360341342,0
13.600000000000001,20.961903091013518,-1.9533628215225538,386.2695667810247,0.7003333739136995,264.09967443479565,0.268497079611,43.4573898315,-16.6407356262,0
13.700000000000001,21.097298339143116,-1.8723293337271858,386.18687941282604,0.7097831991149429,181.8862392853206,0.268497079611,43.4573898315,-16.6407356262,0
13.8,21.23269358727271,-1.7912958459318178,386.10419204462744,0.7192330243161863,99.67280413584555,0.268497079611,43.4573898315,-16.6407356262,0
13.9,21.368088835402308,-1.7102623581364498,386.0215046764288,0.7286828495174297,17.45936898637052,1.32667899132,43.6004524231,-5.13007545471,0
14.0,21.480035179278342,-1.8557242086476788,386.009979248,0.7332369025948965,8.58950928687323,1.32667899132,43.6004524231,-5.13007545471,0
14.100000000000001,21.588183725222198,-2.037869373575992,386.009979248,0.7369980336216333,11.598416977557083,1.32667899132,43.6004524231,-5.13007545471,0
14.200000000000001,21.68698957707122,-2.057035060628186,386.0188184817692,0.7389601828075856,14.675888018679968,1.32667899132,43.6004524231,-5.13007545471,0
14.3,21.74885101237446,-1.4317205091160425,386.06261126651646,0.7338085023198228,18.02448352911389,2.608246464042104,44.85434294641101,2.4062584198647032,0
14.4,21.810712447677698,-0.8064059576038995,386.1064040512637,0.72865682183206,21.373079039547815,3.38155794144,45.6117744446,6.97093057632,0
14.5,21.872573882980937,-0.18109140609175656,386.150196836011,0.7235051413442972,24.721674549981735,3.38155794144,45.6117744446,6.97093057632,0
14.600000000000001,21.905181136673935,0.3677323625677626,386.2197256531571,0.72000002861,27.993301694735504,4.24624967575,46.9833145142,14.7565727234,0
14.700000000000001,21.875513877655465,0.7537272306437269,386.3440397621333,0.72000002861,31.10108328978989,4.24624967575,46.9833145142,14.7565727234,0
14.8,21.845846618636994,1.1397220987196912,386.46835387110957,0.72000002861,34.208864884844274,4.24624967575,46.9833145142,14.7565727234,0
14.9,21.816179359618523,1.5257169667956556,386.5926679800858,0.72000002861,37.316646479898665,4.24624967575,46.9833145142,14.7565727234,0
15.0,21.75431184314435,1.7401251830629099,386.73282767577746,0.7186995876130295,40.560521383146146,4.83222150803,45.7059936523,27.0726070404,0
15.100000000000001,21.654390866696065,1.751756580055442,386.8917132900637,0.7158623179278105,43.965227958724114,4.83222150803,45.7059936523,27.0726070404,0
15.200000000000001,21.554469890247784,1.763387977047974,387.05059890434995,0.7130250482425915,47.36993453430201,4.83222150803,45.7059936523,27.0726070404,0
15.3,21.4545489137995,1.7750193740405058,387.20948451863615,0.7101877785573725,50.774641109879916,4.83222150803,45.7059936523,27.0726070404,0
15.4,21.322624761108937,1.7724730467162144,387.4237105483424,0.7040666957881334,53.5710916453923,5.75408983231,47.2902679443,39.5054397583,0
15.5,21.188432155580937,1.76892177229819,387.6418592237709,0.6977128494003189,56.32442770596853,5.75408983231,47.2902679443,39.5054397583,0
15.600000000000001,21.054239550052937,1.7653704978801654,387.8600078991994,0.6913590030125042,59.07776376654481,5.75408983231,47.2902679443,39.5054397583,0
15.700000000000001,20.920046944524934,1.761819223462141,388.0781565746278,0.6850051566246897,61.831099827121044,6.829392716249831,48.28269940594596,45.79615053931365,0
15.8,20.7828383037909,1.8685565724257993,388.3021649441371,0.6773384767335489,64.58553655267565,7.77749204636,49.1545982361,51.3644485474,0
15.9,20.634436854029413,2.384586059936255,388.5479192258538,0.6647997400911622,67.34405795631403,7.77749204636,49.1545982361,51.3644485474,0
16.0,20.486035404267927,2.900615547446711,388.79367350757053,0.6522610034487755,70.10257935995243,7.77749204636,49.1545982361,51.3644485474,0
16.1,20.337633954506437,3.4166450349571758,389.0394277892873,0.6397222668063886,72.86110076359087,7.77749204636,49.1545982361,51.3644485474,0
16.2,20.189063961118404,3.914068896803288,389.27285720950374,0.6278011834051439,75.54970266182605,8.73903083801,49.1531600952,64.6894836426,0
16.3,20.039912165055767,4.347267234400802,389.4637419335392,0.6180122026233892,77.99694654444075,8.73903083801,49.1531600952,64.6894836426,0
16.400000000000002,19.890760368993135,4.780465571998316,389.6546266575747,0.6082232218416344,80.44419042705546,8.73903083801,49.1531600952,64.6894836426,0
16.5,19.74160857293051,5.213663909595815,389.8455113816101,0.59843424105988,82.89143430967007,8.73903083801,49.1531600952,64.6894836426,0
16.6,19.592168115216264,5.53670317478923,390.0307318499351,0.5892760598478007,85.3378268210672,8.538026800744516,48.01794416329389,74.21705986674773,0
16.7,19.44093048818742,5.173906605726938,390.18068741037854,0.5840451534363802,87.77891880771818,8.50427341461,47.8346595764,75.9006652832,0
16.8,19.28969286115857,4.8111100366646316,390.33064297082205,0.5788142470249593,90.22001079436927,8.50427341461,47.8346595764,75.9006652832,0
16.900000000000002,19.13845523412972,4.4483134676023255,390.4805985312655,0.5735833406135386,92.66110278102036,8.50427341461,47.8346595764,75.9006652832,0
17.0,18.987217607100874,4.085516898540032,390.630554091709,0.568352434202118,95.10219476767136,7.11300086975,45.4292221069,85.580909729,0
17.1,18.835979980072025,3.722720329477726,390.7805096521525,0.5631215277906972,97.54328675432245,7.11300086975,45.4292221069,85.580909729,0
17.2,18.695076246552958,3.196135849851145,390.90052939283134,0.5590458290129298,99.95417428106626,7.11300086975,45.4292221069,85.580909729,0
17.3,18.569464919227283,2.4271730976453245,390.97624920772336,0.5566796412103651,102.32036434026648,7.11300086975,45.4292221069,85.580909729,0
17.400000000000002,18.44385359190161,1.658210345439504,391.05196902261537,0.5543134534078002,104.68655439946669,7.11300086975,45.4292221069,85.580909729,0
17.5,18.318242264575943,0.8892475932337107,391.1276888375074,0.5519472656052355,107.05274445866682,7.11300086975,45.4292221069,85.580909729,0
17.6,18.19385327742651,0.23381689215899537,391.1918209305668,0.550454883740221,109.45487225303266,3.66400933266,44.8182640076,99.433883667,0
17.7,18.075145867182435,0.10609614635259387,391.202091967572,0.553024051786652,112.02404274968161,3.66400933266,44.8182640076,99.433883667,0
17.8,17.956438456938358,-0.021624599453812177,391.2123630045772,0.5555932198330832,114.59321324633066,3.66400933266,44.8182640076,99.433883667,0
17.900000000000002,17.837731046694277,-0.1493453452602182,391.22263404158235,0.5581623878795143,117.16238374297971,3.66400933266,44.8182640076,99.433883667,0
18.0,17.717468355034086,-0.2785353198857106,391.2234969387675,0.5592795815098547,119.72042156121142,1.91840291023,45.4789848328,109.049690247,0
18.1,17.593298898489365,-0.4114159009173912,391.20072720593674,0.556749510662389,122.25049482160799,1.91840291023,45.4789848328,109.049690247,0
18.2,17.469129441944652,-0.5442964819490671,391.177957473106,0.5542194398149234,124.78056808200445,1.91840291023,45.4789848328,109.049690247,0
18.3,17.34495998539993,-0.6771770629807478,391.15518774027527,0.5516893689674577,127.31064134240101,1.91840291023,45.4789848328,109.049690247,0
18.400000000000002,17.225550768396225,-0.836604028454021,391.1407817162122,0.5484063944314647,129.87648784299805,0.201056972146,45.1658935547,119.438194275,0
18.5,17.11570692810192,-1.0493741429996648,391.1431819945129,0.5436105112813958,132.51421823004338,0.201056972146,45.1658935547,119.438194275,0
18.6,17.00586308780761,-1.262144257545316,391.14558227281356,0.5388146281313267,135.1519486170888,0.201056972146,45.1658935547,119.438194275,0
18.7,16.896019247513305,-1.4749143720909599,391.14798255111424,0.5340187449812579,137.78967900413417,0.201056972146,45.1658935547,119.438194275,0
18.8,16.78720270594841,-1.559508149065619,391.15355470672284,0.5280216634229606,140.31652938792354,0.696137070656,43.4380874634,129.53805542,0
18.900000000000002,16.683698775658563,-0.9812459945773749,391.1755300279018,0.5158126592520603,142.26997075385728,0.696137070656,43.4380874634,129.53805542,0
19.0,16.580194845368723,-0.40298384008915145,391.19750534908076,0.5036036550811605,144.22341211979096,0.696137070656,43.4380874634,129.53805542,0
19.1,16.47669091507888,0.17527831439909258,391.2194806702597,0.4913946509102601,146.17685348572473,0.696137070656,43.4380874634,129.53805542,0
19.200000000000003,16.374103709799037,0.7357635120311761,391.24546342106186,0.47940828568857424,148.10354814852724,1.17099785805,40.4878616333,140.257202148,0
19.3,16.284343749688645,1.0475052135527507,391.32752000176356,0.470537188791275,149.65599042943288,1.17099785805,40.4878616333,140.257202148,0
19.400000000000002,16.19458378957825,1.359246915074336,391.40957658246526,0.4616660918939754,151.20843271033857,1.17099785805,40.4878616333,140.257202148,0
19.5,16.104823829467858,1.6709886165959107,391.49163316316697,0.45279499499667614,152.7608749912442,1.17099785805,40.4878616333,140.257202148,0
19.6,16.015063869357462,1.9827303181174962,391.57368974386867,0.4439238980993766,154.3133172721499,1.7722327754557063,32.35294071527935,145.7916689067938,0
19.700000000000003,15.933295626152514,1.9570661473836557,391.6508039662984,0.44127554890212134,155.76533150156945,2.10313129425,27.8662567139,148.850616455,0
19.8,15.857866064334875,1.6637863506538275,391.72399812564794,0.44356281185064944,157.13769057950515,2.10313129425,27.8662567139,148.850616455,0
19.900000000000002,15.782436502517234,1.3705065539239891,391.79719228499744,0.4458500747991776,158.5100496574409,2.10313129425,27.8662567139,148.850616455,0
20.0,15.707006940699594,1.077226757194161,391.870386444347,0.44813733774770564,159.8824087353766,1.8730322653043388,27.988869621432027,150.0040200549911,0
20.1,15.634918908711787,0.8020416857220986,391.92953463803934,0.45137276136506804,161.32031375402207,0.749275684357,28.5278759003,155.641708374,0
20.200000000000003,15.577489182652611,0.6062328377255556,391.9270673226233,0.4587674862190016,163.0457494847159,0.749275684357,28.5278759003,155.641708374,0
20.3,15.520059456593438,0.4104239897290195,391.9246000072073,0.4661622110729349,164.7711852154097,0.749275684357,28.5278759003,155.641708374,0
20.400000000000002,15.462629730534262,0.21461514173247642,391.92213269179126,0.4735569359268684,166.49662094610355,0.749275684357,28.5278759003,155.641708374,0
20.5,15.412288386255227,0.013680006993159292,391.91220097463423,0.4810151105604904,168.33837374971873,-0.0758670717478,36.8260765076,161.274673462,0
20.6,15.409937153545794,-0.22196136682222722,391.8517333970424,0.48890285601870587,170.96762213132175,-0.0758670717478,36.8260765076,161.274673462,0
20.700000000000003,15.407585920836363,-0.45760274063761364,391.79126581945053,0.49679060147692133,173.59687051292477,-0.0758670717478,36.8260765076,161.274673462,0
20.8,15.405234688126932,-0.6932441144529917,391.7307982418587,0.5046783469351366,176.2261188945277,-0.0758670717478,36.8260765076,161.274673462,0
20.900000000000002,15.413505716013855,-0.9321062407633565,391.65846770294365,0.5109555381917674,178.668884047985,-0.5417222986901453,39.4504346289565,165.23332127018122,0
21.0,15.443805441859054,-1.1776476405924379,391.5615354712431,0.5138927236435779,180.7249158248842,-0.962928295135,41.8033752441,168.817230225,0
21.1,15.474105167704252,-1.423189040421528,391.46460323954256,0.5168299090953884,182.7809476017835,-0.962928295135,41.8033752441,168.817230225,0
21.200000000000003,15.50440489354945,-1.6687304402506182,391.36767100784203,0.5197670945471989,184.8369793786828,-0.962928295135,41.8033752441,168.817230225,0
21.3,15.566517017814938,-1.6699673606117353,391.2393235986587,0.5243093567779902,187.5856202707054,-3.15654110909,44.3483734131,178.812515259,0
21.400000000000002,15.631368733413936,-1.6501654889319253,391.108270805655,0.5289898435580664,190.39390664761834,-3.15654110909,44.3483734131,178.812515259,0
21.5,15.696220449012932,-1.6303636172521159,390.97721801265135,0.5336703303381424,193.2021930245312,-3.15654110909,44.3483734131,178.812515259,0
21.6,15.76107216461193,-1.6105617455723058,390.8461652196476,0.5383508171182186,196.01047940144414,-3.38845038414,43.5274009705,-174.199432373,0
21.700000000000003,15.829018987188613,-1.7271740825768245,390.7134172427963,0.5432668390836828,198.6334103706249,-3.38845038414,43.5274009705,-174.199432373,0
21.8,15.898649738584274,-1.918004150657611,390.57974698152793,0.5483110066962662,201.1554965822302,-3.38845038414,43.5274009705,-174.199432373,0
21.900000000000002,15.968280489979936,-2.1088342187384046,390.44607672025955,0.5533551743088498,203.6775827938356,-3.38845038414,43.5274009705,-174.199432373,0
22.0,16.037911241375596,-2.2996642868191914,390.3124064589912,0.5583993419214331,206.1996690054409,-3.2891956796733357,43.530774742484,-169.703274123476,0
22.1,16.111297702985592,-2.205447494519314,390.1681025421476,0.5618194098625828,209.183291056504,-3.12401580811,43.535697937,-162.196060181,0
22.200000000000003,16.186429947771593,-1.9787311256212168,390.0188557367574,0.5644845404627952,212.38145082684377,-3.12401580811,43.535697937,-162.196060181,0
22.3,16.261562192557587,-1.7520147567231277,389.8696089313672,0.5671496710630074,215.57961059718346,-3.12401580811,43.535697937,-162.196060181,0
22.400000000000002,16.33669443734359,-1.5252983878250306,389.72036212597703,0.5698148016632197,218.77777036752326,-3.0018061569918233,43.60668225340164,-160.14759230419006,0
22.5,16.409670284736258,-1.4204548147075744,389.57557312943743,0.5749783658234696,221.24026997584477,-2.49738812447,43.8955612183,-151.613601685,0
22.6,16.48248510166854,-1.3247121765450913,389.4311170228437,0.5803285022304101,223.64783365494108,-2.49738812447,43.8955612183,-151.613601685,0
22.700000000000003,16.55529991860082,-1.228969538382608,389.28666091624996,0.5856786386373505,226.0553973340374,-2.49738812447,43.8955612183,-151.613601685,0
22.8,16.62866134775127,-1.193995878143498,389.159212295676,0.5895316468722034,228.5151600832845,-2.296512177250858,43.438869374747014,-146.88460774771977,0
22.900000000000002,16.70431874469716,-1.4142737685214726,389.10320122970637,0.5870961786432966,231.19417769006105,-2.0510225296,42.8798065186,-140.9894104,0
23.0,16.77997614164305,-1.634551658899439,389.0471901637368,0.5846607104143898,233.8731952968375,-2.0510225296,42.8798065186,-140.9894104,0
23.1,16.85563353858894,-1.8548295492774136,388.99117909776714,0.5822252421854831,236.55221290361405,-2.0510225296,42.8798065186,-140.9894104,0
23.200000000000003,16.930030724806702,-1.9977548844503588,388.94169829241133,0.579999983311,239.1938758264665,0.387761473656,42.4296302795,-131.712936401,0
23.3,16.991087424278874,-1.3218324551845846,388.96134628688117,0.579999983311,241.4401051486901,0.387761473656,42.4296302795,-131.712936401,0
23.400000000000002,17.052144123751045,-0.6459100259187867,388.98099428135106,0.579999983311,243.68633447091378,0.387761473656,42.4296302795,-131.712936401,0
23.5,17.113200823223217,0.030012403346987515,389.00064227582095,0.579999983311,245.9325637931374,0.387761473656,42.4296302795,-131.712936401,0
23.6,17.17599850051104,0.29618425922744657,389.04470927184815,0.5781721125454027,248.0967235051939,2.68327260017,40.7947311401,-120.930030823,0
23.700000000000003,17.240372690871045,0.19131340022044963,389.11088848252786,0.5746890442636013,250.18656646714896,2.68327260017,40.7947311401,-120.930030823,0
23.8,17.304746881231047,0.0864425412134564,389.17706769320756,0.5712059759818001,252.27640942910395,2.68327260017,40.7947311401,-120.930030823,0
23.900000000000002,17.37903465249504,0.0707892378407818,389.2347109516856,0.569999992847,254.57859408814684,2.68327260017,40.7947311401,-120.930030823,0
24.0,17.458572825304802,0.10238707374358758,389.28783342427727,0.569999992847,256.9932385319456,4.60794830322,41.5496101379,-112.710952759,0
24.1,17.538110998114572,0.13398490964639448,389.3409558968689,0.569999992847,259.4078829757445,4.60794830322,41.5496101379,-112.710952759,0
24.200000000000003,17.617649170924338,0.1655827455492014,389.39407836946054,0.569999992847,261.82252741954335,4.597521624828158,41.62106111894846,-111.14816484683517,0
24.3,17.70671286542487,0.2819337598387646,389.41742507280577,0.5712796131199499,264.27962149319694,4.56154203415,41.8364028931,-105.74230957,0
24.400000000000002,17.80484243099615,0.4789482184030621,389.4124328259303,0.57377710605024,266.77711680509856,4.56154203415,41.8364028931,-105.74230957,0
24.5,17.902971996567427,0.6759626769673527,389.4074405790549,0.57627459898053,269.2746121170001,4.56154203415,41.8364028931,-105.74230957,0
24.6,18.001101562138707,0.8729771355316502,389.4024483321794,0.5787720919108201,271.77210742890173,3.4467806376220578,42.14908475474244,-100.19153185919811,0
24.700000000000003,18.106944559006525,0.6837678992083334,389.38308192841515,0.5824157308201926,274.32865843746316,2.66547870636,42.364906311,-96.296661377,0
24.8,18.22024757835404,0.12102354792888947,389.34981360092905,0.587167861455267,276.94232499002817,2.66547870636,42.364906311,-96.296661377,0
24.900000000000002,18.333550597701564,-0.4417208033505745,389.31654527344296,0.5919199920903417,279.5559915425933,2.66547870636,42.364906311,-96.296661377,0
25.0,18.44685361704908,-1.0044651546300183,389.2832769459569,0.5966721227254163,282.1696580951583,2.320216606941521,42.53478225740936,-94.63743846432786,0
25.1,18.56335819721342,-1.3005197998308493,389.24698219435646,0.5992354105807515,284.764609433002,0.582411170006,43.3920936584,-86.231086731,0
25.200000000000003,18.68734364873929,-0.9734185848856891,389.2036158015222,0.596684177050208,287.3158301900934,0.582411170006,43.3920936584,-86.231086731,0
25.3,18.811329100265155,-0.6463173699405406,389.1602494086879,0.5941329435196647,289.8670509471846,0.582411170006,43.3920936584,-86.231086731,0
25.400000000000002,18.935314551791024,-0.3192161549953805,389.11688301585366,0.5915817099891213,292.4182717042759,0.582411170006,43.3920936584,-86.231086731,0
25.5,19.04009608485989,-0.16781897022439884,389.0892601519864,0.5863226385020877,294.88256130694003,0.6357049922736964,44.30720226790832,-77.1743873349024,0
25.6,19.11354639832404,-0.3030831544415978,389.0873228774703,0.5766457256323819,297.2050226105543,0.644090771675,44.4486656189,-75.7456283569,0
25.700000000000003,19.186996711788193,-0.4383473386587967,389.0853856029542,0.5669688127626761,299.5274839141686,0.644090771675,44.4486656189,-75.7456283569,0
25.8,19.26044702525234,-0.5736115228759908,389.08344832843807,0.5572918998929707,301.8499452177828,0.644090771675,44.4486656189,-75.7456283569,0
25.900000000000002,19.333897338716493,-0.7088757070931898,389.081511053922,0.5476149870232648,304.1724065213971,1.57842755318,42.5619010925,-65.506477356,0
26.0,19.387170035212037,-0.6469950255539446,389.10086579397387,0.5373232980316619,306.3747411903415,1.57842755318,42.5619010925,-65.506477356,0
26.1,19.365924892151693,0.1429602100105426,389.1988539488568,0.5247611829295006,308.13343688533587,1.57842755318,42.5619010925,-65.506477356,0
26.200000000000003,19.344679749091345,0.9329154455750299,389.29684210373983,0.5121990678273393,309.89213258033027,1.57842755318,42.5619010925,-65.506477356,0
26.3,19.323434606030997,1.7228706811394892,389.39483025862285,0.49963695272517844,311.65082827532456,1.57842755318,42.5619010925,-65.506477356,0
26.400000000000002,19.28938347917625,2.2846761936280493,389.50341244863665,0.48837020723732744,313.24447021380485,3.21031022072,31.0856323242,-53.5960617065,0
26.5,19.21314319492347,2.0948452265062,389.6468965581584,0.4813710411423759,314.2943445648425,3.21031022072,31.0856323242,-53.5960617065,0
26.6,19.136902910670692,1.9050142593843438,389.7903806676802,0.47437187504742406,315.34421891588016,3.21031022072,31.0856323242,-53.5960617065,0
26.700000000000003,19.054412174618978,1.75954674591668,389.9277251705375,0.46776305477507674,315.92543520186524,3.21031022072,31.0856323242,-53.5960617065,0
26.8,18.961520529947332,1.6879011324276165,390.05485321385964,0.46180377974548703,315.72679270877165,3.77660536766,19.3683853149,-46.4977531433,0
26.900000000000002,18.868628885275687,1.6162555189385506,390.1819812571818,0.45584450471589716,315.52815021567807,3.77660536766,19.3683853149,-46.4977531433,0
27.0,18.77573724060404,1.5446099054494873,390.30910930050396,0.4498852296863075,315.3295077225845,3.77660536766,19.3683853149,-46.4977531433,0
27.1,18.682845595932395,1.4729642919604213,390.4362373438261,0.44392595465671764,315.1308652294909,4.23938465118,8.17945766449,-43.6831741333,0
27.200000000000003,18.589793163574598,1.4397199661300397,390.5596092984562,0.4417608523259059,314.64782924694083,4.23938465118,8.17945766449,-43.6831741333,0
27.3,18.496430280243587,1.4806213501597534,390.675728947777,0.44692158840403295,313.61568258501046,4.23938465118,8.17945766449,-43.6831741333,0
27.400000000000002,18.403067396912572,1.5215227341894684,390.7918485970977,0.4520823244821602,312.5835359230801,4.23938465118,8.17945766449,-43.6831741333,0
27.5,18.30970451358156,1.562424118219182,390.9079682464185,0.4572430605602872,311.5513892611498,4.23938465118,8.17945766449,-43.6831741333,0
27.6,18.237470440034365,1.4893271320713524,390.9925348233112,0.46132564636477835,310.2046164295757,4.30874681473,-14.0700616837,-44.2802200317,0
27.700000000000003,18.189469376310328,1.2854833763419882,391.0409126171194,0.4641716823380585,308.4969932170473,4.30874681473,-14.0700616837,-44.2802200317,0
27.8,18.14146831258629,1.081639620612631,391.08929041092756,0.46701771831133854,306.789370004519,4.30874681473,-14.0700616837,-44.2802200317,0
27.900000000000002,18.093467248862254,0.877795864883267,391.1376682047357,0.46986375428461874,305.08174679199067,4.30874681473,-14.0700616837,-44.2802200317,0
28.0,18.070672092817468,0.6438519412439532,391.1076745805656,0.47969227270705767,303.06154529720976,3.08050322533,-31.4957294464,-48.6094398499,0
28.1,18.049144254550317,0.40839462326915904,391.0737405511331,0.4898718605792655,301.02562780366196,3.08050322533,-31.4957294464,-48.6094398499,0
28.200000000000003,18.027783042377287,0.17204618969332913,391.03948407305825,0.5000548860177666,298.98682735887667,3.08050322533,-31.4957294464,-48.6094398499,0
28.3,18.039223834230054,-0.239727213707833,390.9417503724102,0.5109146305739167,296.3804892868037,2.3810269744290466,-34.28902063518736,-51.01334613796574,0
28.400000000000002,18.05066462608282,-0.6515006171090099,390.8440166717622,0.5217743751300673,293.77415121473075,1.35045695305,-38.3903503418,-54.5592079163,0
28.5,18.06210541793559,-1.0632740205101718,390.7462829711141,0.5326341196862174,291.1678131426578,1.35045695305,-38.3903503418,-54.5592079163,0
28.6,18.073546209788358,-1.4750474239113487,390.6485492704661,0.5434938642423679,288.56147507058483,1.0613416847931116,-39.765499569696544,-56.37108118734552,0
28.700000000000003,18.088563565492386,-1.8121408821143827,390.53741771078484,0.5528421346764144,285.43683099372777,0.480926960707,-42.5244560242,-60.0109367371,0
28.8,18.10892584707105,-2.03763035727518,390.4062639827909,0.5599316121795808,281.53761464830365,0.480926960707,-42.5244560242,-60.0109367371,0
28.900000000000002,18.129288128649712,-2.2631198324359856,390.27511025479697,0.5670210896827473,277.6383983028794,0.480926960707,-42.5244560242,-60.0109367371,0
29.0,18.142564682323673,-2.2746885014471423,390.124229756519,0.5764563900576889,274.0630809137859,0.480926960707,-42.5244560242,-60.0109367371,0
29.1,18.15070626080049,-2.131230326567897,389.959053412071,0.5875916911136436,270.7224907297879,-1.06205105782,-44.4251670837,-73.509147644,0
29.200000000000003,18.15884783927731,-1.9877721516886524,389.793877067623,0.5987269921695983,267.3819005457899,-1.06205105782,-44.4251670837,-73.509147644,0
29.3,18.166989417754127,-1.8443139768094126,389.62870072317503,0.6098622932255527,264.04131036179206,-1.06205105782,-44.4251670837,-73.509147644,0
29.400000000000002,18.175130996230944,-1.7008558019301678,389.463524378727,0.6209975942815076,260.7007201777941,-2.20015716553,-45.7187042236,-84.2516479492,0
29.5,18.18348320589625,-1.7296371360586915,389.29668128278604,0.6305371810345572,257.2479391591794,-2.20015716553,-45.7187042236,-84.2516479492,0
29.6,18.192724433479718,-2.4853953762472787,389.122803274527,0.6333416844518256,253.3216306304834,-2.20015716553,-45.7187042236,-84.2516479492,0
29.700000000000003,18.20196566106319,-3.2411536164358656,388.9489252662679,0.6361461878690938,249.3953221017874,-2.20015716553,-45.7187042236,-84.2516479492,0
29.8,18.21120688864666,-3.9969118566244255,388.77504725800884,0.638950691286362,245.46901357309153,-2.20015716553,-45.7187042236,-84.2516479492,0
29.900000000000002,18.184429141408046,-3.72040957220755,388.64010707229664,0.6330115457584793,241.62393098808533,-1.42979025841,-49.0497055054,-101.682579041,0
30.0,18.1361186258781,-2.826804030343542,388.528444592705,0.6218452951370554,237.82740668196854,-1.42979025841,-49.0497055054,-101.682579041,0
30.1,18.087808110348153,-1.9331984884795026,388.4167821131133,0.6106790445156313,234.03088237585163,-1.42979025841,-49.0497055054,-101.682579041,0
30.200000000000003,18.039497594818204,-1.0395929466154628,388.30511963352166,0.599512793894207,230.23435806973472,-1.42979025841,-49.0497055054,-101.682579041,0
30.3,17.974130913814758,-0.2783939623771916,388.213823932105,0.5876042757498221,226.6166879505745,-0.502049088478,-46.7436599731,-115.870445251,0
30.400000000000002,17.8106335681293,-0.27898071059181034,388.2397061205753,0.5714252077263798,224.0280345980768,-0.502049088478,-46.7436599731,-115.870445251,0
30.5,17.647136222443848,-0.2795674588064291,388.26558830904565,0.5552461397029381,221.4393812455792,-0.502049088478,-46.7436599731,-115.870445251,0
30.6,17.479768955339257,-0.24723322154927652,388.30101309774864,0.5392476340418675,218.94984086583236,-0.502049088478,-46.7436599731,-115.870445251,0
30.700000000000003,17.2491600423132,0.323090571852332,388.492381555515,0.5261998500495639,218.0799890663108,1.6765338023527643,-36.99527179098751,-128.20128604076243,0
30.8,17.018551129287147,0.8934143652539202,388.6837500132813,0.5131520660572607,217.21013726678925,2.47522592545,-33.4183578491,-132.729125977,0
30.900000000000002,16.787942216261087,1.4637381586555287,388.87511847104764,0.5001042820649572,216.34028546726768,2.47522592545,-33.4183578491,-132.729125977,0
31.0,16.557333303235033,2.034061952057117,389.06648692881396,0.48705649807265405,215.47043366774614,4.448905898564769,-21.907631704929145,-138.9755323155723,0
31.1,16.357143816151048,2.416395070788695,389.2857924895423,0.4767223519832379,215.21850914383538,4.91306591034,-19.2196502686,-140.485839844,0
31.200000000000003,16.192782252183754,2.5773132472541795,389.53800229964526,0.469584321768471,215.69437780591198,4.91306591034,-19.2196502686,-140.485839844,0
31.3,16.02842068821646,2.7382314237196583,389.79021210974815,0.46244629155370437,216.1702464679886,4.91306591034,-19.2196502686,-140.485839844,0
31.400000000000002,15.864059124249165,2.899149600185143,390.04242191985105,0.4553082613389374,216.6461151300652,4.91306591034,-19.2196502686,-140.485839844,0
31.5,15.725903369988231,3.0016494890816876,390.26871982586425,0.44940402092631815,217.23838708842248,7.08476161957,4.2917509079,-144.557022095,0
31.6,15.663772794127146,2.9346731899112433,390.4198451974978,0.4470791047500884,218.1683544458243,7.08476161957,4.2917509079,-144.557022095,0
31.700000000000003,15.601642218266063,2.8676968907407994,390.57097056913136,0.44475418857385857,219.0983218032261,7.08476161957,4.2917509079,-144.557022095,0
31.8,15.539511642404982,2.8007205915703572,390.7220959407649,0.4424292723976288,220.02828916062785,7.042073497787165,4.605476323556146,-144.5167690336455,0
31.900000000000002,15.477381066543899,2.7337442923999133,390.8732213123985,0.440104356221399,220.95825651802966,5.43419361115,16.1310997009,-142.988601685,0
32.0,15.467570455339697,2.411956739913313,390.89838420176306,0.439999997616,221.91912021247933,5.43419361115,16.1310997009,-142.988601685,0
32.1,15.46021870339582,2.0781939306779664,390.9176272856,0.439999997616,222.8814359290196,5.43419361115,16.1310997009,-142.988601685,0
32.2,15.452866951451941,1.7444311214426205,390.936870369437,0.439999997616,223.8437516455599,5.43419361115,16.1310997009,-142.988601685,0
32.300000000000004,15.445515199508064,1.4106683122072743,390.9561134532739,0.439999997616,224.80606736210018,3.47629748497391,20.631280994738148,-140.818434740062,0
32.4,15.480677288801088,1.0154676915084788,390.91734445407155,0.44213221548888243,226.06610995319028,1.68016576767,24.6892261505,-138.698196411,0
32.5,15.526569470423734,0.6047607469783367,390.8639337525639,0.44480258503136827,227.4012959978001,1.68016576767,24.6892261505,-138.698196411,0
32.6,15.57246165204638,0.1940538024481946,390.81052305105635,0.4474729545738541,228.73648204240996,1.68016576767,24.6892261505,-138.698196411,0
32.7,15.61901071287052,-0.21906314066841995,390.7562648874356,0.45035375128874194,230.05306445299487,0.239976862478678,23.390226066982365,-136.81604662516696,0
32.800000000000004,15.67714064185466,-0.6746686811286755,390.68706585343807,0.45694440719132234,231.04166230804861,-1.47624886036,21.8476734161,-134.57043457,0
32.9,15.735270570838795,-1.1302742215888988,390.61786681944056,0.4635350630939023,232.03026016310227,-1.47624886036,21.8476734161,-134.57043457,0
33.0,15.793479411808525,-1.5661426013859472,390.547781318419,0.469999998808,233.01002937425056,-1.47624886036,21.8476734161,-134.57043457,0
33.1,15.855746160422717,-0.9870628140952026,390.4321108370382,0.469999998808,233.53580137158352,-3.3713318436429422,24.305139391569185,-130.01924633170677,0
33.2,15.91658684704856,-0.4860933689261742,390.3224995058834,0.469999998808,234.11518130661875,-3.5447781086,24.5326938629,-129.601135254,0
33.300000000000004,15.966676521821764,-0.5739939874892822,390.2585678130826,0.469999998808,235.09870887222124,-3.5447781086,24.5326938629,-129.601135254,0
33.4,16.016766196594965,-0.6618946060523839,390.19463612028176,0.469999998808,236.08223643782364,-3.1888988018,23.9073295593,-126.608016968,0
33.5,16.066855871368166,-0.749795224615492,390.1307044274809,0.469999998808,237.0657640034261,-3.1888988018,23.9073295593,-126.608016968,0
33.6,16.115449962426368,-0.8369398291120262,390.0693340741198,0.4698714209635665,238.03857339011748,-2.2344041836894313,21.801211767696746,-125.40570862666017,0
33.7,16.135697864268433,-0.9097555013219929,390.05650945689985,0.4673058736130097,238.80823832931398,-1.91848278046,21.1059551239,-125.003768921,0
33.800000000000004,16.1559457661105,-0.9825711735319596,390.0436848396799,0.4647403262624529,239.57790326851048,-1.91848278046,21.1059551239,-125.003768921,0
33.9,16.17619366795256,-1.0553868457419209,390.0308602224599,0.4621747789118963,240.3475682077069,-1.91848278046,21.1059551239,-125.003768921,0
34.0,16.19254196546546,-1.0459436274953098,390.0245598204115,0.45958453958433243,241.08309358373606,-0.500283777714,14.8566484451,-121.415107727,0
34.1,16.187187989270647,-0.5787091040570923,390.0545683080426,0.4568568832272039,241.62862374959033,-0.500283777714,14.8566484451,-121.415107727,0
34.2,16.18183401307584,-0.11147458061887483,390.0845767956737,0.4541292268700754,242.1741539154446,-0.500283777714,14.8566484451,-121.415107727,0
34.300000000000004,16.176480036881028,0.35575994281934253,390.1145852833048,0.4514015705129469,242.71968408129885,-0.500283777714,14.8566484451,-121.415107727,0
34.4,16.153654897419788,0.7033731563231675,390.1845383694666,0.4467279787609954,242.6727990812003,0.221894487739,9.17508602142,-118.60899353,0
34.5,16.11236376212922,0.9245536545772584,390.2967105556749,0.43999764732108065,241.9997659639507,0.221894487739,9.17508602142,-118.60899353,0
34.6,16.071072626838653,1.145734152831349,390.4088827418832,0.43326731588116596,241.32673284670108,0.221894487739,9.17508602142,-118.60899353,0
34.7,16.029781491548082,1.3669146510854397,390.5210549280915,0.4265369844412512,240.65369972945146,0.638992977065375,7.575360583953498,-117.71581437502186,0
34.800000000000004,15.987844153259354,1.5787533359375057,390.632573411163,0.41988322826794333,239.99416206347982,1.13373744488,5.67693901062,-116.655891418,0
34.9,15.924057425226929,1.4747270023438046,390.72198891010794,0.4158186319245701,239.79093205250086,1.13373744488,5.67693901062,-116.655891418,0
35.0,15.860270697194498,1.370700668750096,390.8114044090529,0.4117540355811965,239.58770204152188,1.13373744488,5.67693901062,-116.655891418,0
35.1,15.796483969162068,1.2666743351563874,390.90081990799786,0.40768943923782297,239.3844720305429,1.13373744488,5.67693901062,-116.655891418,0
35.2,15.732697241129637,1.1626480015626788,390.9902354069428,0.40362484289444944,239.1812420195639,1.801686608527722,-3.673220380416023,-119.50774649280132,0
35.300000000000004,15.669663757043047,1.0437814985803773,391.0708814264263,0.40000000596,239.0,1.83613073826,-4.15339517593,-119.66166687,0
35.4,15.612839091733555,0.8025908496637066,391.07924261833665,0.40000000596,239.0,1.83613073826,-4.15339517593,-119.66166687,0
35.5,15.55601442642406,0.5614002007470188,391.08760381024695,0.40000000596,239.0,1.83613073826,-4.15339517593,-119.66166687,0
35.6,15.499189761114565,0.32020955183033095,391.0959650021573,0.40000000596,239.0,1.83613073826,-4.15339517593,-119.66166687,0
35.7,15.446482191925345,0.29472117869154246,391.08710645835214,0.4012898905601189,238.7420228339692,-0.352239578962,-7.31814622879,-120.07635498,0
35.800000000000004,15.397625839830633,0.4710051877200162,391.0621402166422,0.40378635996583717,238.24272847669843,-0.352239578962,-7.31814622879,-120.07635498,0
35.9,15.348769487735924,0.6472891967484775,391.03717397493233,0.40628282937155535,237.74343411942772,-0.352239578962,-7.31814622879,-120.07635498,0
36.0,15.299913135641212,0.8235732057769513,391.0122077332224,0.40877929877727365,237.24413976215695,-0.667832276149103,-6.6587633317997215,-120.13519146099718,0
36.1,15.261283537933112,0.8192622541698561,390.9728819823209,0.41100429384338244,236.79914032456364,-1.17143154144,-5.61643266678,-120.229141235,0
36.2,15.232439213276715,0.6421524912513616,390.9198166114955,0.41296953391399754,236.40609193559035,-1.17143154144,-5.61643266678,-120.229141235,0
36.300000000000004,15.203594888620318,0.46504272833286714,390.86675124067006,0.41493477398461265,236.0130435466171,-1.17143154144,-5.61643266678,-120.229141235,0
36.4,15.174750563963922,0.2879329654143852,390.8136858698446,0.41690001405522764,235.61999515764387,-1.17143154144,-5.61643266678,-120.229141235,0
36.5,15.145906239307525,0.11082320249589073,390.7606204990192,0.41886525412584275,235.2269467686706,-1.02505302429,-3.11339783669,-122.297538757,0
36.6,15.124395544822365,0.0018194064154855912,390.690785204661,0.4214517253555934,235.0,-1.02505302429,-3.11339783669,-122.297538757,0
36.7,15.11290488305546,-0.014130335930071165,390.5980369492511,0.42488699266515584,235.0,-1.02505302429,-3.11339783669,-122.297538757,0
36.800000000000004,15.101414221288556,-0.03008007827562792,390.5052886938412,0.4283222599747183,235.0,-1.02505302429,-3.11339783669,-122.297538757,0
36.9,15.099115439516957,-0.31301728702170134,390.39459550784585,0.4333535163158693,234.3292975277772,-1.2950567500617123,-3.6506979244307023,-122.93967411410735,0
37.0,15.10559132294023,-0.8508235356255267,390.26677190262035,0.439908320550817,233.0183354305231,-1.82244598866,-4.70183753967,-124.238098145,0
37.1,15.112067206363504,-1.388629784229352,390.13894829739485,0.44646312478576466,231.707373333269,-1.82244598866,-4.70183753967,-124.238098145,0
37.2,15.114405989697927,-1.8052165989595799,390.0102576189638,0.4518097377460894,230.45707620016256,-1.9037732418381543,-5.283473922291825,-124.30374835176688,0
37.300000000000004,15.111896315846707,-2.079740803991744,389.8805507777077,0.45574041598371656,229.27787511864332,-2.14557552338,-7.02742195129,-124.499320984,0
37.4,15.109386641995489,-2.354265009023889,389.7508439364516,0.45967109422134345,228.09867403712414,-2.14557552338,-7.02742195129,-124.499320984,0
37.5,15.106485098336087,-2.341088455156228,389.6600557671183,0.46210351791644266,228.42070231551233,-2.0682581335018164,-4.70519627954701,-125.5972593639488,0
37.6,15.103547769014307,-2.30163898612963,389.57282166197814,0.46439912058043703,228.87982328617488,-1.88012886047,0.784192144871,-128.320205688,0
37.7,15.100610439692527,-2.262189517103032,389.48558755683797,0.4666947232444314,229.33894425683744,-1.88012886047,0.784192144871,-128.320205688,0
37.800000000000004,15.09767311037075,-2.2227400480764343,389.3983534516978,0.46899032590842576,229.79806522749996,-1.798349187375067,1.1984657704372335,-129.08871866148954,0
37.9,15.09170492852311,-1.8003259420934694,389.31625128814545,0.4720826560255091,230.41653184074823,-1.58689117432,2.25812482834,-131.105911255,0
38.0,15.083357013549575,-1.0772196629228066,389.2381785688807,0.4758005522815752,231.16011180111366,-1.58689117432,2.25812482834,-131.105911255,0
38.1,15.075009098576038,-0.35411338375214374,389.1601058496159,0.4795184485376413,231.90369176147908,-1.58689117432,2.25812482834,-131.105911255,0
38.2,15.06183868262674,-0.3768861949340057,389.1072291221183,0.48225074248888955,231.54985026869554,-1.58689117432,2.25812482834,-131.105911255,0
38.300000000000004,15.04795072169816,-0.5106391384422518,389.05810133266795,0.48483638763924675,231.03272228663567,-1.40682673454,2.93502020836,-129.01675415,0
38.400000000000006,15.034062760769578,-0.644392081950498,389.00897354321756,0.487422032789604,230.51559430457579,-1.40682673454,2.93502020836,-129.01675415,0
38.5,15.020092400229348,-0.77712398783933,388.960042484746,0.48999362973497834,229.99936202109075,-1.1717228842400644,3.64264378043478,-128.72396329370946,0
38.6,14.978420798126152,-0.5666017305841747,388.97724878126326,0.48784247724058605,229.78424720760322,-0.528913915157,5.29331922531,-127.906303406,0
38.7,14.936749196022953,-0.3560794733290194,388.9944550777806,0.4856913247461938,229.56913239411568,-0.528913915157,5.29331922531,-127.906303406,0
38.800000000000004,14.895077593919757,-0.14555721607386418,389.01166137429783,0.48354017225180157,229.35401758062812,-0.528913915157,5.29331922531,-127.906303406,0
38.900000000000006,14.853405991816558,0.0649650411812912,389.02886767081515,0.48138901975740933,229.1389027671406,0.5570831387293104,5.843607711714671,-128.88219553062825,0
39.0,14.81462280682584,0.2234102395614267,389.0614733621592,0.47914017668463665,229.08598134063675,1.212485075,6.17466688156,-129.472671509,0
39.1,14.781104001271311,0.2869406845789471,389.12214572611293,0.47671328444101685,229.32867079645166,1.212485075,6.17466688156,-129.472671509,0
39.2,14.747585195716782,0.35047112959646753,389.18281809006663,0.47428639219739704,229.57136025226657,1.212485075,6.17466688156,-129.472671509,0
39.300000000000004,14.714066390162252,0.4140015746139879,389.2434904540204,0.47185949995377724,229.81404970808148,1.212485075,6.17466688156,-129.472671509,0
39.400000000000006,14.683034103627316,0.46552732818709014,389.3013468040257,0.46936848206114956,230.06315173491285,1.69901418686,5.64869070053,-130.063110352,0
39.5,14.660150843369863,0.4777103117017979,389.3499742796556,0.46666730627521485,230.3332695711177,1.69901418686,5.64869070053,-130.063110352,0
39.6,14.637267583112408,0.48989329521650654,389.3986017552856,0.46396613048928,230.60338740732257,1.69901418686,5.64869070053,-130.063110352,0
39.7,14.614384322854953,0.5020762787312152,389.4472292309156,0.4612649547033451,230.87350524352743,1.6736292696725896,5.327205521273132,-129.86828179285706,0
39.800000000000004,14.596806558730998,0.5001970887556147,389.4771274819406,0.460000008345,231.0,1.57796609402,4.29697799683,-129.072113037,0
39.900000000000006,14.583901563375294,0.4859327639225325,389.4905301341404,0.460000008345,231.0,1.57796609402,4.29697799683,-129.072113037,0
40.0,14.570996568019591,0.47166843908945116,389.5039327863401,0.460000008345,231.0,1.57796609402,4.29697799683,-129.072113037,0
40.1,14.558091572663889,0.45740411425636884,389.5173354385398,0.460000008345,231.0,1.5354882403981494,4.221244964469005,-129.0310164742159,0
