t_sec,airspeed,climb,altitude,throttle,heading,pitch,roll,yaw,is_boundary
0.0,19.4390602112,2.05125331879,380.470001221,0.52999997139,82.0,0.721475124359,-50.9912910461,88.8500442505,0
0.1,19.303020101986668,1.442222547386501,380.652391789966,0.4619074992669637,81.02725029884816,1.891781120636446,-34.269900015303364,85.18813593279094,0
0.2,19.166979992773335,0.8331917759830016,380.83478235893193,0.39381502714392735,80.05450059769633,2.71851015091,-22.4634304047,82.6015853882,0
0.30000000000000004,19.030939883560002,0.22416100457950217,381.01717292789795,0.325722555020891,79.08175089654449,2.71851015091,-22.4634304047,82.6015853882,0
0.4,18.89489977434667,-0.3848697668239969,381.1995634968639,0.25763008289785466,78.10900119539265,2.71851015091,-22.4634304047,82.6015853882,0
0.5,18.62484605919876,0.8102454537647554,381.5015788088555,0.28519773696857353,77.530696859066,4.056556957500319,-10.608172683443483,81.09756654734498,0
0.6000000000000001,18.337880426810642,2.2330358234030254,381.818690227991,0.3248372708017547,77.0021697622904,6.68500089645,12.6104841232,78.1361999512,0
0.7000000000000001,18.05091479442253,3.6558261930412934,382.1358016471265,0.3644768046349358,76.47364266551479,6.68500089645,12.6104841232,78.1361999512,0
0.8,17.76846528246527,4.892834922180201,382.4564232354673,0.40530685597648647,76.03537899870395,6.68500089645,12.6104841232,78.1361999512,0
0.9,17.524989068937447,4.526581863077786,382.80733694601065,0.45641085701656864,76.376072325432,7.341098658931696,4.197341050556917,77.50824157113584,0
1.0,17.28151285540962,4.160328803975371,383.158250656554,0.5075148580566509,76.71676565216008,8.54761123657,-11.3837566376,76.3517608643,0
1.1,17.069142211378896,3.607240335369012,383.50051630869183,0.5457494653623818,76.85831512034234,8.54761123657,-11.3837566376,76.3517608643,0
1.2000000000000002,17.0101012272409,2.1331782193318376,383.8001528151334,0.5205465662595716,76.01821851696184,7.99544334412,-26.8369846344,77.3887176514,0
1.3,16.951060243102898,0.6591161032946662,384.099789321575,0.4953436671567615,75.17812191358134,7.99544334412,-26.8369846344,77.3887176514,0
1.4000000000000001,16.8920192589649,-0.8149460127425079,384.39942582801655,0.47014076805395133,74.33802531020083,7.99544334412,-26.8369846344,77.3887176514,0
1.5,16.813575257355918,-0.6366002231898639,384.6256329402538,0.4927351398543224,72.51203946878694,7.99544334412,-26.8369846344,77.3887176514,0
1.6,16.722067949621778,0.6542483173723739,384.8024028628112,0.5475095776000689,70.02229228503583,7.02017068863,-35.9716186523,74.4174423218,0
1.7000000000000002,16.630560641887637,1.9450968579346115,384.9791727853686,0.6022840153458153,67.53254510128473,7.02017068863,-35.9716186523,74.4174423218,0
1.8,16.539053334153497,3.2359453984968463,385.15594270792593,0.6570584530915617,65.04279791753362,7.02017068863,-35.9716186523,74.4174423218,0
1.9000000000000001,16.52454713546142,3.08708284635692,385.29971568663797,0.680000007153,62.20379981490822,7.02017068863,-35.9716186523,74.4174423218,0
2.0,16.565534655886918,1.9006388361990898,385.41970818794823,0.680000007153,59.113101020764546,7.09003400803,-44.0311164856,64.9984054565,0
2.1,16.606522176312414,0.7141948260412567,385.53970068925844,0.680000007153,56.02240222662086,7.09003400803,-44.0311164856,64.9984054565,0
2.2,16.64750969673791,-0.4722491841165759,385.65969319056865,0.680000007153,52.93170343247717,7.09003400803,-44.0311164856,64.9984054565,0
2.3000000000000003,16.688497217163405,-1.6586931942744094,385.77968569187885,0.680000007153,49.84100463833349,7.09003400803,-44.0311164856,64.9984054565,0
2.4000000000000004,16.735596039809224,-2.619029863847305,385.90174475882617,0.680000007153,46.699729431311425,7.09003400803,-44.0311164856,64.9984054565,0
2.5,16.852228880573556,-1.0067312177128536,386.04731708158545,0.680000007153,42.98299893134707,8.135388681115424,-50.254693666454536,49.914719089960776,0
2.6,16.96886172133789,0.6055674284216055,386.1928894043447,0.680000007153,39.2662684313827,8.323554039,-50.8460617065,47.1687088013,0
2.7,17.085494562102223,2.217866074556064,386.338461727104,0.680000007153,35.54953793141833,8.323554039,-50.8460617065,47.1687088013,0
2.8000000000000003,17.211246349538126,2.338524980383322,386.52014362829163,0.6774167912667255,31.125172475552752,8.467704824517547,-50.941153379344506,46.174662086386014,0
2.9000000000000004,17.33858036065704,2.2003702525052926,386.70809088360744,0.6743853629387295,26.578025647399556,10.201965332,-52.2434539795,34.2489929199,0
3.0,17.465914371775952,2.062215524627264,386.89603813892325,0.6713539346107336,22.030878819246382,10.201965332,-52.2434539795,34.2489929199,0
3.1,17.57464711876179,2.154844973952881,387.0834622210282,0.670000016689,17.75791817843121,10.201965332,-52.2434539795,34.2489929199,0
3.2,17.66836679352902,2.4337402326601123,387.27046405026147,0.670000016689,13.706253090563369,10.0506305695,-54.1701164246,20.5177364349,0
3.3000000000000003,17.762086468296257,2.712635491367344,387.45746587949475,0.670000016689,9.654588002695524,10.0506305695,-54.1701164246,20.5177364349,0
3.4000000000000004,17.855520109488957,2.9347296894946324,387.6741809075622,0.6665113909269622,36.914949862347136,10.0506305695,-54.1701164246,20.5177364349,0
3.5,17.948410257911377,3.0488961178830736,387.94735402372214,0.6563940227769138,123.67133521071796,10.9398670197,-54.9443626404,7.11999130249,0
3.6,18.041300406333797,3.163062546271515,388.2205271398821,0.6462766546268655,210.42772055908918,10.9398670197,-54.9443626404,7.11999130249,0
3.7,18.134190554756213,3.2772289746599568,388.4937002560421,0.636159286476817,297.1841059074604,10.9398670197,-54.9443626404,7.11999130249,0
3.8000000000000003,18.20626557304244,3.514242719717098,388.78843443033225,0.6162394952276489,348.39460839662667,10.9398670197,-54.9443626404,7.11999130249,0
3.9000000000000004,18.245949495380493,3.94242313993578,389.11672046320166,0.5810658369572008,344.2910150948247,11.3321151733,-55.0516891479,-10.6811885834,0
4.0,18.28563341771855,4.370603560154461,389.4450064960711,0.5458921786867529,340.18742179302274,11.3321151733,-55.0516891479,-10.6811885834,0
4.1000000000000005,18.325317340056603,4.798783980373145,389.7732925289405,0.5107185204163047,336.08382849122074,11.3321151733,-55.0516891479,-10.6811885834,0
4.2,18.177078825539898,5.587288233773675,390.1870472242487,0.4776942921870261,332.3386869467694,11.536998556183176,-53.72864201991163,-15.519157546448309,0
4.3,18.02492136175865,6.383306708704527,390.60258428975936,0.4447148883407217,328.601020583432,11.8659725189,-52.1723060608,-23.2717208862,0
4.4,17.8727638979774,7.179325183635386,391.01812135526995,0.411735484494417,324.86335422009455,11.8659725189,-52.1723060608,-23.2717208862,0
4.5,17.72060643419615,7.975343658566239,391.43365842078055,0.3787560806481126,321.1256878567571,11.8659725189,-52.1723060608,-23.2717208862,0
4.6000000000000005,17.519622763890307,8.390778592815364,391.9221941632734,0.3545644428135542,318.02159736481053,11.8659725189,-52.1723060608,-23.2717208862,0
4.7,17.254252829203676,8.304344669876699,392.5069919840675,0.3419610782859517,315.7529922907229,16.0793743134,-43.1513748169,-40.8932800293,0
4.800000000000001,16.98888289451704,8.217910746938031,393.0917898048616,0.32935771375834905,313.48438721663524,16.0793743134,-43.1513748169,-40.8932800293,0
4.9,16.72351295983041,8.131476823999364,393.6765876256557,0.3167543492307465,311.2157821425476,16.0793743134,-43.1513748169,-40.8932800293,0
5.0,16.424775698272512,7.729749502717793,394.2889861090286,0.3173373009596397,309.63313499468995,16.0793743134,-43.1513748169,-40.8932800293,0
5.1000000000000005,16.087506411110557,6.963926689321756,394.933257371461,0.3331475880270425,308.8426204764185,17.1423034668,-25.2130870819,-49.2558746338,0
5.2,15.750237123948606,6.198103875925725,395.57752863389345,0.34895787509444504,308.052105958147,17.1423034668,-25.2130870819,-49.2558746338,0
5.300000000000001,15.455752182017134,6.086116569756065,396.2114090460966,0.3290444520442998,307.5343213074926,17.486352498878606,-19.391444964040847,-50.1290246245804,0
5.4,15.16428632656748,6.020267306147629,396.8445562257286,0.3066101777408477,307.03578189834116,17.9902896881,-10.7528896332,-51.4210205078,0
5.5,14.872820471117826,5.954418042539193,397.4777034053605,0.28417590343739557,306.53724248918974,17.9902896881,-10.7528896332,-51.4210205078,0
5.6000000000000005,14.58135461566817,5.8885687789307575,398.1108505849925,0.2617416291339433,306.03870308003826,17.9902896881,-10.7528896332,-51.4210205078,0
5.7,14.415699970847482,6.061227673722763,398.63677688684146,0.25733642273785917,306.53271405307754,16.719961999543603,-4.27892372329968,-52.44181741363093,0
5.800000000000001,14.260634487966387,6.253961103213146,399.1536787207399,0.2544486703010573,307.1102650912484,14.9462976456,4.26345920563,-53.8649635315,0
5.9,14.105569005085291,6.446694532703528,399.67058055463826,0.2515609178642554,307.68781612941916,14.9462976456,4.26345920563,-53.8649635315,0
6.0,13.975782835802162,6.232863494901312,400.0897793638356,0.24754744063063253,308.2452559271919,14.9462976456,4.26345920563,-53.8649635315,0
6.1000000000000005,13.875735816378121,5.540740925434715,400.39403814976004,0.2422096355705038,308.7790364119959,10.947998026915114,11.627750567117621,-52.03123303898321,0
6.2,13.775688796954082,4.8486183559681235,400.69829693568454,0.23687183051037514,309.3128168967999,10.1779193878,13.0547399521,-51.6772994995,0
6.300000000000001,13.675641777530041,4.156495786501527,401.002555721609,0.23153402545024643,309.8465973816039,10.1779193878,13.0547399521,-51.6772994995,0
6.4,13.575594758106,3.464373217034936,401.30681450753343,0.22619622039011775,310.38037786640785,10.1779193878,13.0547399521,-51.6772994995,0
6.5,13.47554773868196,2.772250647568345,401.61107329345793,0.22085841532998907,310.9141583512119,10.1779193878,13.0547399521,-51.6772994995,0
6.6000000000000005,13.443519275440396,2.575542767711684,401.7273318518211,0.219999998808,310.77556356827813,5.236420948661303,14.58059756445752,-50.172180843719254,0
6.7,13.424525683349602,2.473774666169919,401.8075626130636,0.219999998808,310.5081168150612,0.830059349537,15.949555397,-48.6635704041,0
6.800000000000001,13.405532091258806,2.372006564628153,401.88779337430617,0.219999998808,310.24067006184436,0.830059349537,15.949555397,-48.6635704041,0
6.9,13.39206737712178,2.228729544760065,401.9479609023895,0.21960554506968644,310.0788907641193,0.830059349537,15.949555397,-48.6635704041,0
7.0,13.428296457507457,1.7123685690846981,401.8277992218323,0.2156657240462979,310.8668551331664,-3.0166584992036247,14.178037534201014,-49.18112844681764,0
7.1000000000000005,13.464525537893133,1.1960075934093262,401.7076375412752,0.21172590302290933,311.65481950221346,-4.72642850876,13.3839712143,-49.4110641479,0
7.2,13.50075461827881,0.6796466177339591,401.587475860718,0.2077860819995208,312.44278387126053,-4.72642850876,13.3839712143,-49.4110641479,0
7.300000000000001,13.536983698664487,0.1632856420585873,401.4673141801608,0.20384626097613226,313.23074824030766,-4.72642850876,13.3839712143,-49.4110641479,0
7.4,13.574651844196795,-0.35784542297043165,401.3438701563037,0.19993330883401383,314.02000823306344,-4.72642850876,13.3839712143,-49.4110641479,0
7.5,13.671478142147917,-1.0750688426054147,401.0854931409246,0.19712490249874798,314.8625296817147,-6.869105056269957,10.24220446984271,-48.06506341139275,0
7.6000000000000005,13.768304440099039,-1.7922922622404043,400.82711612554556,0.19431649616348207,315.705051130366,-10.3147382736,5.46082210541,-45.8726882935,0
7.7,13.86513073805016,-2.509515681875387,400.5687391101665,0.19150808982821618,316.54757257901724,-10.3147382736,5.46082210541,-45.8726882935,0
7.800000000000001,13.971397287418942,-2.943343908507567,400.2910184386225,0.189999997616,316.91727687902284,-10.3147382736,5.46082210541,-45.8726882935,0
7.9,14.088612552480313,-3.048493029090617,399.9908631747742,0.189999997616,316.7386122526014,-11.8759078979,3.85962629318,-42.9850196838,0
8.0,14.205827817541687,-3.1536421496736673,399.6907079109259,0.189999997616,316.55994762617996,-11.8759078979,3.85962629318,-42.9850196838,0
8.1,14.323043082603059,-3.258791270256718,399.3905526470776,0.189999997616,316.38128299975847,-11.8759078979,3.85962629318,-42.9850196838,0
8.200000000000001,14.440258347664434,-3.36394039083977,399.0903973832293,0.189999997616,316.20261837333703,-11.8759078979,3.85962629318,-42.9850196838,0
8.3,14.557473612725806,-3.46908951142282,398.79024211938093,0.189999997616,316.0239537469156,-11.8759078979,3.85962629318,-42.9850196838,0
8.4,14.677013079297028,-3.433958318249821,398.49987345410887,0.18568748547645203,316.0,-11.872156128463452,3.801568304890284,-42.9962800887045,0
8.5,14.796912399906478,-3.377107649732327,398.21102003912944,0.18070727094460237,316.0,-11.6336011887,2.01265263557,-43.7151527405,0
8.6,14.916811720515927,-3.3202569812148335,397.92216662415007,0.17572705641275269,316.0,-11.6336011887,2.01265263557,-43.7151527405,0
8.700000000000001,15.036711041125379,-3.263406312697339,397.6333132091707,0.17074684188090294,316.0,-11.6336011887,2.01265263557,-43.7151527405,0
8.8,15.120699984699087,-3.226729811793546,397.3872931602014,0.170000001788,316.20897208519966,-11.6336011887,2.01265263557,-43.7151527405,0
8.9,15.198353719869113,-3.1936123811851282,397.1488296540119,0.170000001788,316.45481044192223,-10.1338701248,1.23303222656,-43.2242431641,0
9.0,15.276007455039139,-3.1604949505767106,396.9103661478223,0.170000001788,316.70064879864486,-10.1338701248,1.23303222656,-43.2242431641,0
9.1,15.353661190209165,-3.127377519968293,396.6719026416327,0.170000001788,316.9464871553675,-10.1338701248,1.23303222656,-43.2242431641,0
9.200000000000001,15.387589190767443,-3.114372046543698,396.4832900139172,0.17414255682025098,317.0,-10.1338701248,1.23303222656,-43.2242431641,0
9.3,15.409350898787132,-3.10696254438853,396.3085479449517,0.179437740546498,317.0,-6.82547426224,0.721256911755,-42.041267395,0
9.4,15.431112606806822,-3.099553042233362,396.13380587598624,0.184732924272745,317.0,-6.82547426224,0.721256911755,-42.041267395,0
9.5,15.452589214824833,-3.089739970038323,395.95947724453794,0.1900482037454195,317.0016068709168,-6.82547426224,0.721256911755,-42.041267395,0
9.600000000000001,15.420646322317461,-2.6295673389129033,395.8626148548811,0.19912884530337482,317.30429491082185,-5.253665839102433,2.832654201956426,-42.22431857830863,0
9.700000000000001,15.388703429810091,-2.1693947077874918,395.7657524652243,0.20820948686133,317.6069829507269,-3.71409726143,4.930352211,-42.4046897888,0
9.8,15.35676053730272,-1.70922207666208,395.66889007556745,0.2172901284192852,317.9096709906319,-3.71409726143,4.930352211,-42.4046897888,0
9.9,15.305459483532344,-1.5933788539851437,395.59373893768213,0.22478434701884095,318.4784348020743,-3.4265124994047076,5.301613712882446,-42.273422759334096,0
10.0,15.245924244826892,-1.6239995433104755,395.5278228950018,0.23160376495694765,319.16037656878916,-1.98043358326,7.2085943222,-41.6055450439,0
10.100000000000001,15.186389006121438,-1.654620232635808,395.46190685232153,0.23842318289505446,319.842318335504,-1.98043358326,7.2085943222,-41.6055450439,0
10.200000000000001,15.126853767415986,-1.6852409219611397,395.39599080964126,0.24524260083316118,320.5242601022189,-1.98043358326,7.2085943222,-41.6055450439,0
10.3,15.066017940253657,-1.6901097191223247,395.33668813934156,0.25,321.2102809498379,-1.98043358326,7.2085943222,-41.6055450439,0
10.4,15.002181452511818,-1.635564881435313,395.2926435514085,0.25,321.9057128738087,-0.951946079731,11.4126625061,-38.2407112122,0
10.5,14.93834496476998,-1.5810200437483013,395.24859896347544,0.25,322.6011447977794,-0.951946079731,11.4126625061,-38.2407112122,0
10.600000000000001,14.874508477028142,-1.5264752060612885,395.2045543755424,0.25,323.29657672175017,-0.951946079731,11.4126625061,-38.2407112122,0
10.700000000000001,14.810671989286304,-1.4719303683742768,395.1605097876093,0.25,323.99200864572094,-0.951946079731,11.4126625061,-38.2407112122,0
10.8,14.747266920678614,-1.2111800257774776,395.12483767537367,0.2625579700098935,324.7534780209494,-0.41911486913035456,14.08594379855631,-37.02052861565447,0
10.9,14.683866867229028,-0.9480325868836662,395.0892628914344,0.27526192382085907,325.51571506787474,0.177192181349,17.1157150269,-35.6404762268,0
11.0,14.620466813779442,-0.6848851479898548,395.05368810749513,0.2879658776318246,326.27795211480014,0.177192181349,17.1157150269,-35.6404762268,0
11.100000000000001,14.558586511216205,-0.4354677377227815,395.0145352931297,0.30082636659209117,327.09916259599345,0.177192181349,17.1157150269,-35.6404762268,0
11.200000000000001,14.524010408750826,-0.4327272350603309,394.9110987467467,0.31649920267927806,328.9799035990465,-0.6894200615339752,19.92135414040497,-32.525439536891874,0
11.3,14.489434306285448,-0.42998673239788027,394.80766220036367,0.33217203876646495,330.8606446020995,-0.729625880718,20.0679035187,-32.0906486511,0
11.4,14.45485820382007,-0.42724622973542964,394.7042256539807,0.3478448748536518,332.7413856051525,-0.729625880718,20.0679035187,-32.0906486511,0
11.5,14.461721446301807,-0.8413296045491301,394.5508837853252,0.36346253367452386,334.57062956162144,-1.2795998573186103,22.532553751319405,-30.405568723154236,0
11.600000000000001,14.475191331607947,-1.3218668888703795,394.3895855496057,0.37907139562635694,336.39166338364623,-2.5389418602,28.2128791809,-26.545135498,0
11.700000000000001,14.488661216914085,-1.8024041731916207,394.22828731388626,0.3946802575781898,338.21269720567096,-2.5389418602,28.2128791809,-26.545135498,0
11.8,14.50352823403484,-2.2758636835146078,394.0669362036675,0.409999996424,340.04165321486835,-2.5389418602,28.2128791809,-26.545135498,0
11.9,14.592424943308288,-2.3742938481911993,393.9027834373249,0.409999996424,342.2903814112194,-2.4042273212962644,34.01965388541627,-22.556440806023087,0
12.0,14.681321652581733,-2.4727240128677908,393.73863067098233,0.409999996424,344.5391096075705,-2.30051732063,38.5554122925,-19.4810161591,0
12.100000000000001,14.770218361855182,-2.571154177544384,393.5744779046397,0.409999996424,346.7878378039216,-2.30051732063,38.5554122925,-19.4810161591,0
12.200000000000001,14.85911507112863,-2.6695843422209755,393.41032513829714,0.409999996424,349.03656600027267,-2.30051732063,38.5554122925,-19.4810161591,0
12.3,14.959739642245976,-2.6658523409501442,393.2137027273428,0.4083808465788491,293.3297013789223,-2.475446416845532,38.879421983059295,-17.990012468152305,0
12.4,15.069155213022544,-2.5855413708968467,392.99274163995153,0.4055480103920269,194.1803402913151,-3.44254088402,40.705657959,-9.77401733398,0
12.5,15.178570783799113,-2.5052304008435486,392.7717805525602,0.40271517420520475,95.03097920370786,-3.44254088402,40.705657959,-9.77401733398,0
12.600000000000001,15.287477826397351,-2.4275497482759607,392.55139910393774,0.4001772933010101,0.12410125705621666,-3.44254088402,40.705657959,-9.77401733398,0
12.700000000000001,15.384650665587072,-2.410563235623099,392.34439272381064,0.40444545664418674,3.111818446516366,-4.431672178486496,41.10421337919938,-4.127672580907905,0
12.8,15.481823504776795,-2.393576722970238,392.13738634368354,0.4087136199873634,6.099535635976515,-5.43115901947,41.4833984375,1.6039134264,0
12.9,15.578996343966516,-2.376590210317376,391.9303799635565,0.41298178333054003,9.087252825436664,-5.43115901947,41.4833984375,1.6039134264,0
13.0,15.676169183156238,-2.3596036976645145,391.7233735834294,0.4172499466737167,12.074970014896813,-5.43115901947,41.4833984375,1.6039134264,0
13.100000000000001,15.78326846721439,-2.297637153071339,391.51950865982315,0.4207661476720704,15.072622925320859,-5.43115901947,41.4833984375,1.6039134264,0
13.200000000000001,15.908349245675454,-2.1541904609229943,391.32133440227057,0.4229201886147483,18.088274133551202,-3.04051232338,44.6786346436,15.3040943146,0
13.3,16.033430024136518,-2.0107437687746494,391.12316014471793,0.4250742295574262,21.103925341781547,-3.04051232338,44.6786346436,15.3040943146,0
13.4,16.158510802597583,-1.8672970766263048,390.92498588716535,0.4272282705001041,24.11957655001189,-3.04051232338,44.6786346436,15.3040943146,0
13.5,16.283591581058648,-1.7238503844779602,390.72681162961277,0.42938231144278205,27.13522775824223,-3.04051232338,44.6786346436,15.3040943146,0
13.600000000000001,16.43023927022799,-1.5614695374392928,390.58169751044494,0.4333956679450664,30.546748022883364,-3.04051232338,44.6786346436,15.3040943146,0
13.700000000000001,16.585558049687258,-1.3914761134841582,390.45791649998955,0.4381565720823776,34.117429531225774,-0.330300688744,45.8786659241,28.7482757568,0
13.8,16.740876829146526,-1.2214826895290236,390.33413548953416,0.4429174762196889,37.688111039568184,-0.330300688744,45.8786659241,28.7482757568,0
13.9,16.896195608605794,-1.0514892655738888,390.2103544790788,0.4476783803570002,41.258792547910595,-0.330300688744,45.8786659241,28.7482757568,0
14.0,17.03935376313072,-1.0038179379995498,390.11235954279937,0.44757194848078197,44.57822724399704,-0.330300688744,45.8786659241,28.7482757568,0
14.100000000000001,17.170938006188923,-1.0725670346697986,390.03890658040694,0.44283301487019167,47.6585370285722,1.37255990505,47.9599952698,43.5558357239,0
14.200000000000001,17.302522249247126,-1.1413161313400464,389.96545361801446,0.4380940812596014,50.7388468131473,1.37255990505,47.9599952698,43.5558357239,0
14.3,17.43410649230533,-1.2100652280102941,389.89200065562204,0.4333551476490112,53.819156597722404,1.37255990505,47.9599952698,43.5558357239,0
14.4,17.550039575494313,-1.091183815037499,389.84314234695364,0.42528200141894956,56.86496768352678,1.37255990505,47.9599952698,43.5558357239,0
14.5,17.62802490498117,-0.5173740500168907,389.85391615946395,0.4091247336073883,59.8271333312336,2.411712003382008,45.97673820102235,50.933243013967264,0
14.600000000000001,17.706010234468028,0.05643571500372779,389.8646899719743,0.39296746579582675,62.789298978940465,3.25276398659,44.3592987061,56.9968299866,0
14.700000000000001,17.783995563954882,0.630245480024336,389.8754637844847,0.37681019798426546,65.75146462664728,3.25276398659,44.3592987061,56.9968299866,0
14.8,17.800919437014006,0.8193435028910164,389.94306085084287,0.3656509854772347,68.30470508738578,3.25276398659,44.3592987061,56.9968299866,0
14.9,17.773354490378814,0.7281440626398852,390.0520588211882,0.3581333104354728,70.56000639017073,5.45142602921,37.9775238037,67.7455291748,0
15.0,17.74578954374362,0.636944622388754,390.1610567915335,0.35061563539371093,72.81530769295567,5.45142602921,37.9775238037,67.7455291748,0
15.100000000000001,17.637813957389575,1.011887312143343,390.33146953785246,0.3520185347769395,74.4129756524625,6.231055397283323,36.18402071467668,69.44920032461918,0
15.200000000000001,17.52266597557548,1.4284085256937793,390.50736030377067,0.354217123483503,75.95198462825525,7.98037147522,32.1356658936,73.7031784058,0
15.3,17.407517993761388,1.8449297392442157,390.6832510696889,0.35641571219006646,77.490993604048,7.98037147522,32.1356658936,73.7031784058,0
15.4,17.292370011947295,2.261450952794652,390.85914183560715,0.35861430089663,79.03000257984075,7.98037147522,32.1356658936,73.7031784058,0
15.5,17.160701228916626,2.433161495316068,391.0470282692589,0.3628528738243878,80.38038163200899,7.98037147522,32.1356658936,73.7031784058,0
15.600000000000001,17.000869336718164,2.1875418149719272,391.2553637898217,0.3705690201197393,81.40920211920766,8.30977249146,17.5694408417,80.069732666,0
15.700000000000001,16.841037444519703,1.9419221346277913,391.46369931038447,0.3782851664150907,82.43802260640632,8.30977249146,17.5694408417,80.069732666,0
15.8,16.681205552321245,1.6963024542836553,391.67203483094727,0.3860013127104421,83.46684309360498,8.30977249146,17.5694408417,80.069732666,0
15.9,16.537830824882437,1.5768459522743228,391.88323183022464,0.3935192748712557,84.11730963454742,8.30977249146,17.5694408417,80.069732666,0
16.0,16.412158126382423,1.593095950534566,392.0975067581582,0.4008240617168779,84.3608025197267,8.27117799131701,6.398555898642087,83.50171575813633,0
16.1,16.286485427882408,1.6093459487948096,392.31178168609176,0.4081288485625002,84.604295404906,8.26554107666,4.73923540115,84.0024414062,0
16.2,16.160812729382396,1.6255959470550527,392.52605661402526,0.4154336354081223,84.84778829008529,8.26554107666,4.73923540115,84.0024414062,0
16.3,16.048744461732127,1.5652854476748137,392.7284348750702,0.42150401478400157,84.84959729098338,8.26554107666,4.73923540115,84.0024414062,0
16.400000000000002,15.959361634711374,1.3773100247876011,392.91097539844185,0.4255160149688103,84.44839748772614,7.67787885666,-2.95120763779,85.1293640137,0
16.5,15.869978807690623,1.189334601900395,393.09351592181355,0.4295280151536189,84.04719768446891,7.67787885666,-2.95120763779,85.1293640137,0
16.6,15.780595980669869,1.0013591790131824,393.27605644518525,0.4335400153384276,83.64599788121168,7.67787885666,-2.95120763779,85.1293640137,0
16.7,15.691213153649118,0.8133837561259762,393.4585969685569,0.4375520155232362,83.24479807795446,7.67787885666,-2.95120763779,85.1293640137,0
16.8,15.624454950975258,0.7235666061233753,393.6165245527616,0.44193944367410054,82.80605549823147,7.67787885666,-2.95120763779,85.1293640137,0
16.900000000000002,15.593108535120495,0.7873855908306882,393.73592826397686,0.44691448711068404,82.30855142145919,6.28666353226,-7.93777179718,83.7728652954,0
17.0,15.561762119265733,0.8512045755379987,393.8553319751921,0.4518895305472674,81.81104734468691,6.28666353226,-7.93777179718,83.7728652954,0
17.1,15.53041570341097,0.9150235602453116,393.9747356864073,0.45686457398385094,81.31354326791462,6.28666353226,-7.93777179718,83.7728652954,0
17.2,15.513590417707361,0.9534956934831955,394.06792842176594,0.4591456561941277,80.82912991611086,6.28666353226,-7.93777179718,83.7728652954,0
17.3,15.521514982962108,0.9487665889660307,394.11644710357825,0.45683514407636994,80.36702842905417,4.597076377868567,-9.879690821833426,81.62105658584463,0
17.400000000000002,15.529439548216857,0.9440374844488659,394.1649657853906,0.4545246319586121,79.90492694199749,4.46522283554,-10.0337409973,81.453704834,0
17.5,15.537364113471604,0.9393083799317014,394.21348446720293,0.4522141198408544,79.44282545494082,4.46522283554,-10.0337409973,81.453704834,0
17.6,15.546799610125245,0.929841835090325,394.2601014323211,0.4501220534387127,78.97558697753288,4.46522283554,-10.0337409973,81.453704834,0
17.7,15.590945511911892,0.8115427694161791,394.26303053910755,0.45304830838071924,78.39033717519884,3.5431676517389428,-11.051671500688485,80.87345152060263,0
17.8,15.635091413698543,0.6932437037420289,394.265959645894,0.4559745633227259,77.80508737286475,1.7859069109,-12.9100570679,79.7645797729,0
17.900000000000002,15.679237315485192,0.5749446380678788,394.2688887526805,0.45890081826473256,77.21983757053067,1.7859069109,-12.9100570679,79.7645797729,0
18.0,15.741087448295406,0.34578735644450204,394.2582579649325,0.460000008345,76.7066745423021,1.7859069109,-12.9100570679,79.7645797729,0
18.1,15.813588716447006,0.049936081718124636,394.23946933786874,0.460000008345,76.2368800165687,0.932567894459,-7.43781328201,77.840713501,0
18.2,15.886089984598602,-0.24591519300824227,394.22068071080497,0.460000008345,75.76708549083533,0.932567894459,-7.43781328201,77.840713501,0
18.3,15.958591252750201,-0.5417664677346197,394.20189208374114,0.460000008345,75.29729096510194,0.932567894459,-7.43781328201,77.840713501,0
18.400000000000002,16.03747328728747,-0.7108947564461514,394.18248240856826,0.4574932287422328,75.0,0.932567894459,-7.43781328201,77.840713501,0
18.5,16.12735187279413,-0.6616298788076791,394.1620024251011,0.4506662894588394,75.0,-0.931258499622,0.115068547428,75.2184143066,0
18.6,16.217230458300794,-0.612365001169205,394.141522441634,0.4438393501754458,75.0,-0.931258499622,0.115068547428,75.2184143066,0
18.7,16.307109043807454,-0.5631001235307326,394.1210424581668,0.4370124108920524,75.0,-0.931258499622,0.115068547428,75.2184143066,0
18.8,16.39698762931412,-0.5138352458922585,394.10056247469964,0.4301854716086587,75.0,-0.931258499622,0.115068547428,75.2184143066,0
18.900000000000002,16.45759505080574,-0.23677389181178565,394.06757112413777,0.4213520821437287,76.0809900462618,-1.239750457468034,2.358665755249753,75.46361578997605,0
19.0,16.51738506944011,0.04664872247068175,394.0342303912552,0.4124626621734705,77.19216694645323,-1.64765977859,4.96444368362,75.7879180908,0
19.1,16.57717508807448,0.33007133675315914,394.00088965837267,0.40357324220321195,78.30334384664471,-1.64765977859,4.96444368362,75.7879180908,0
19.200000000000003,16.63696510670885,0.6134939510356366,393.9675489254901,0.3946838222329534,79.41452074683617,-1.64765977859,4.96444368362,75.7879180908,0
19.3,16.69032558811453,0.8541751700878925,393.94479750846125,0.3868887207538895,80.7259625119187,-1.64765977859,4.96444368362,75.7879180908,0
19.400000000000002,16.736525374249602,1.0472545018194568,393.9338396095745,0.38031238214464325,82.2604429841257,-0.783330976963,8.18325710297,80.3198699951,0
19.5,16.782725160384675,1.240333833551014,393.9228817106877,0.37373604353539724,83.79492345633265,-0.783330976963,8.18325710297,80.3198699951,0
19.6,16.82892494651975,1.4334131652825781,393.911923811801,0.36715970492615096,85.32940392853966,-0.783330976963,8.18325710297,80.3198699951,0
19.700000000000003,16.87512473265482,1.6264924970141423,393.9009659129142,0.3605833663169047,86.86388440074667,-0.783330976963,8.18325710297,80.3198699951,0
19.8,16.897995674256066,1.0979428537724627,393.86967208171075,0.3701076949244991,87.50538413641071,-1.2763550546771054,8.424889505062566,83.01794251057709,0
19.900000000000002,16.9185958067752,0.49915048471086765,393.8363987688518,0.3811992482307304,88.05996191742108,-2.1380147934,8.8420085907,87.7654647827,0
20.0,16.939195939294336,-0.09964188435070631,393.80312545599276,0.3922908015369614,88.61453969843141,-2.1380147934,8.8420085907,87.7654647827,0
20.1,16.963933748588857,-0.5049499065041133,393.77919888553464,0.4007991183293173,88.76026606059452,-2.1380147934,8.8420085907,87.7654647827,0
20.200000000000003,16.998102340218235,-0.469259547211626,393.77657583826294,0.4034196041952181,87.97411955115497,-0.451848715544,10.8136310577,89.1686935425,0
20.3,17.032270931847613,-0.43356918791913995,393.7739527909913,0.40604009006111874,87.18797304171547,-0.451848715544,10.8136310577,89.1686935425,0
20.400000000000002,17.06643952347699,-0.39787882862665264,393.7713297437196,0.40866057592701954,86.40182653227592,-0.451848715544,10.8136310577,89.1686935425,0
20.5,17.08570282041135,-0.25354781684908967,393.8163171802371,0.40735271737984774,85.867636118799,-0.451848715544,10.8136310577,89.1686935425,0
20.6,17.089381856220246,0.004372649669965589,393.91108385472756,0.40193757035722283,85.59687891291544,2.63133502007,6.16942596436,86.4145278931,0
20.700000000000003,17.09306089202914,0.2622931161890208,394.00585052921804,0.39652242333459786,85.3261217070319,2.63133502007,6.16942596436,86.4145278931,0
20.8,17.096739927838037,0.5202135827080667,394.1006172037085,0.3911072763119731,85.05536450114838,2.63133502007,6.16942596436,86.4145278931,0
20.900000000000002,17.104319863727753,0.6650407996500273,394.1968060237031,0.389999985695,85.67775059421193,2.63133502007,6.16942596436,86.4145278931,0
21.0,17.112902486255674,0.7807985485532116,394.29336039171613,0.389999985695,86.52971007631393,2.07897138596,-1.06159031391,85.7574768066,0
21.1,17.12148510878359,0.8965562974564001,394.38991475972915,0.389999985695,87.38166955841596,2.07897138596,-1.06159031391,85.7574768066,0
21.200000000000003,17.132939416939884,0.9227537968755987,394.4668670532087,0.3909821132424087,88.0,2.07897138596,-1.06159031391,85.7574768066,0
21.3,17.15199402443716,0.7119181411312536,394.4919398398623,0.39456357244282864,88.0,0.384516716003,-0.0691528394818,88.9184112549,0
21.400000000000002,17.171048631934433,0.5010824853869009,394.51701262651596,0.3981450316432487,88.0,0.384516716003,-0.0691528394818,88.9184112549,0
21.5,17.190451206302765,0.3345293097112714,394.5356970554166,0.3985746510214818,87.85746479499578,0.384516716003,-0.0691528394818,88.9184112549,0
21.6,17.210227644129155,0.2155542298455308,394.54751768859563,0.39561786257421033,87.56178654946059,-0.474199861288,1.10953581333,88.2921066284,0
21.700000000000003,17.230004081955546,0.09657914997979017,394.55933832177465,0.3926610741269389,87.2661083039254,-0.474199861288,1.10953581333,88.2921066284,0
21.8,17.24769507247648,0.007103583229162037,394.57642959407696,0.38904408658550044,87.0,-0.474199861288,1.10953581333,88.2921066284,0
21.900000000000002,17.246618530321687,0.18310251437530764,394.64095284498194,0.3794857798652663,87.0,0.48715995454282385,2.1673132686284813,87.15488623631975,0
22.0,17.245541988166895,0.35910144552144696,394.70547609588687,0.36992747314503255,87.0,0.57746142149,2.2673406601,87.0448074341,0
22.1,17.244465446012104,0.5351003766675925,394.76999934679185,0.36036916642479844,87.0,0.57746142149,2.2673406601,87.0448074341,0
22.200000000000003,17.24338890385731,0.7110993078137381,394.8345225976968,0.3508108597045643,87.0,0.57746142149,2.2673406601,87.0448074341,0
22.3,17.238264801699348,0.8733237767653441,394.8948487201718,0.34761490759752445,86.76149112831038,0.7565600844537033,1.7755514521807052,87.24924091666215,0
22.400000000000002,17.232765500964916,1.0342713879055907,394.9547857794555,0.34500872967344715,86.50087308737729,1.0756238699,0.898718953133,87.6163101196,0
22.5,17.22726620023048,1.1952189990458317,395.01472283873915,0.3424025517493699,86.2402550464442,1.0756238699,0.898718953133,87.6163101196,0
22.6,17.221491818573078,1.3357040063870882,395.07180116179194,0.3402605981749654,86.0,1.0756238699,0.898718953133,87.6163101196,0
22.700000000000003,17.212471864170443,1.2347587158034705,395.09515036871255,0.34359584702047047,86.0,0.5518135144326163,1.3671606078811085,87.3330974564781,0
22.8,17.20345190976781,1.1338134252198566,395.1184995756331,0.34693109586597537,86.0,-0.417160272598,2.13244104385,86.8037033081,0
22.900000000000002,17.19500756370048,1.025005293688673,395.1410687821343,0.34945764637772636,86.03615650938042,-0.417160272598,2.13244104385,86.8037033081,0
23.0,17.193195389271185,0.8256013393930658,395.15465080700176,0.3426663572684995,86.48890909865776,-0.663350522034767,-0.1696548967478142,86.64733622022806,0
23.1,17.191383214841892,0.6261973850974514,395.16823283186915,0.3358750681592723,86.9416616879351,-0.891726315022,-2.32428455353,86.5009918213,0
23.200000000000003,17.189571040412602,0.42679343080183685,395.18181485673654,0.3290837790500452,87.39441427721245,-0.891726315022,-2.32428455353,86.5009918213,0
23.3,17.18775886598331,0.22738947650622943,395.195396881604,0.3222924899408183,87.84716686648977,-0.891726315022,-2.32428455353,86.5009918213,0
23.400000000000002,17.18893970972939,0.17539583683110305,395.20971426371625,0.319999992847,87.80541976484892,-1.2331838230871162,-2.5777484109596127,87.11022314782598,0
23.5,17.191645737446027,0.1985196323938911,395.22440636960795,0.319999992847,87.51168521848044,-1.94976866245,-3.11442160606,88.388710022,0
23.6,17.19435176516267,0.2216434279566799,395.23909847549965,0.319999992847,87.21795067211193,-1.94976866245,-3.11442160606,88.388710022,0
23.700000000000003,17.19681820001123,0.2777133021568581,395.2573169544348,0.3221949452848486,86.85366984329582,-1.94976866245,-3.11442160606,88.388710022,0
23.8,17.19859557762772,0.42853446814452484,395.2856771077366,0.3307024723142674,86.2865013972223,-1.42701888084,3.95968270302,87.9716873169,0
23.900000000000002,17.200372955244212,0.579355634132197,395.3140372610384,0.33920999934368656,85.71933295114876,-1.42701888084,3.95968270302,87.9716873169,0
24.0,17.202150332860707,0.7301768001198637,395.34239741434016,0.3477175263731053,85.15216450507523,-1.42701888084,3.95968270302,87.9716873169,0
24.1,17.20985476254983,0.6294166873960064,395.3625869016945,0.3517978502024418,85.17978525190937,-1.42701888084,3.95968270302,87.9716873169,0
24.200000000000003,17.219732393156075,0.43641229219799665,395.3797805492093,0.354254904666703,85.4254902004144,-0.898278713226,4.96120500565,85.6550064087,0
24.3,17.229610023762323,0.24340789699999366,395.39697419672405,0.35671195913096404,85.67119514891944,-0.898278713226,4.96120500565,85.6550064087,0
24.400000000000002,17.23948765436857,0.05040350180198383,395.4141678442388,0.35916901359522524,85.91690009742447,-0.898278713226,4.96120500565,85.6550064087,0
24.5,17.264853136311224,0.20329336383182442,395.43586559797336,0.36226873019336436,86.0,-0.898278713226,4.96120500565,85.6550064087,0
24.6,17.298133741242854,0.5329537492655351,395.4598651916411,0.36569688162210173,86.0,-1.18420708179,2.93777489662,86.2719726562,0
24.700000000000003,17.331414346174483,0.8626141346992456,395.48386478530875,0.36912503305083905,86.0,-1.18420708179,2.93777489662,86.2719726562,0
24.8,17.352188442614057,0.6209600451568937,395.41748441849313,0.38611306051982125,85.19434704433966,-1.18420708179,2.812676285835106,86.2719726562,0
24.900000000000002,17.36867657314165,0.1835171496240251,395.3201309443547,0.4077480417342174,84.11259775795342,-1.63710927963,-1.96653735638,86.4248046875,0
25.0,17.385164703669236,-0.253925745908828,395.2227774702163,0.42938302294861286,83.03084847156724,-1.63710927963,-1.96653735638,86.4248046875,0
25.1,17.404954326001036,-0.7063145152467074,395.12311377402705,0.4498955780158794,82.01044101626965,-1.63710927963,-1.96653735638,86.4248046875,0
25.200000000000003,17.491606095674896,-1.4613886388941109,394.97666322622285,0.44767664474980406,82.23233455449706,-1.4172107329194579,-0.3003773938720453,84.84598814859356,0
25.3,17.578257865348753,-2.2164627625414877,394.8302126784186,0.44545771148372876,82.45422809272445,-1.17791593075,1.53224050999,82.990272522,0
25.400000000000002,17.664909635022614,-2.971536886188891,394.68376213061435,0.4432387782176534,82.67612163095185,-1.17791593075,1.53224050999,82.990272522,0
25.5,17.75156140469647,-3.7266110098362675,394.53731158281016,0.44101984495157814,82.89801516917926,-1.17791593075,1.53224050999,82.990272522,0
25.6,17.84588513980255,-3.6732869869022067,394.4073469019496,0.4360007959922305,83.13330671549559,-1.17791593075,1.53224050999,82.990272522,0
25.700000000000003,17.946734039874457,-2.93240365323925,394.29140379122805,0.4286001908353967,83.37999354425503,-2.93399381638,-0.813272297382,83.3782119751,0
25.8,18.04758293994636,-2.1915203195763198,394.1754606805065,0.42119958567856314,83.62668037301447,-2.93399381638,-0.813272297382,83.3782119751,0
25.900000000000002,18.148431840018265,-1.4506369859133632,394.05951756978493,0.4137989805217293,83.8733672017739,-2.93399381638,-0.813272297382,83.3782119751,0
26.0,18.223011621365302,-0.9292837419308867,393.98325114111356,0.4050742522949212,84.19702983562496,-2.93399381638,-0.813272297382,83.3782119751,0
26.1,18.269882778551327,-0.6394904832947091,393.9488356128245,0.39495284118456675,84.60188642482395,-2.08309555054,-1.64900231361,84.5469665527,0
26.200000000000003,18.31675393573735,-0.3496972246585316,393.91442008453544,0.38483143007421233,85.00674301402294,-2.08309555054,-1.64900231361,84.5469665527,0
26.3,18.36362509292337,-0.05990396602236436,393.8800045562464,0.37471001896385825,85.41159960322192,-2.08309555054,-1.64900231361,84.5469665527,0
26.400000000000002,18.410496250109393,0.2298892926138134,393.8455890279573,0.3645886078535038,85.81645619242092,-2.08309555054,-1.64900231361,84.5469665527,0
26.5,18.42399786378636,0.4402679320870024,393.8557779864819,0.35765535201626597,85.76553389690594,-2.08309555054,-1.64900231361,84.5469665527,0
26.6,18.409824740252052,0.584784756115434,393.90295928356437,0.35336616469462845,85.33661539483552,-1.18519115448,-3.00550723076,86.7200927734,0
26.700000000000003,18.395651616717743,0.7293015801438658,393.9501405806469,0.3490769773729909,84.90769689276509,-1.18519115448,-3.00550723076,86.7200927734,0
26.8,18.381478493183433,0.8738184041722923,393.9973218777294,0.34478779005135357,84.47877839069469,-1.18519115448,-3.00550723076,86.7200927734,0
26.900000000000002,18.36730536964912,1.0183352282007239,394.0445031748119,0.34049860272971605,84.04985988862427,-1.18519115448,-3.00550723076,86.7200927734,0
27.0,18.3349392676654,1.0899322820352413,394.1283711264208,0.3430146310602006,83.69853696410479,-0.09437768470158292,-2.043394856805647,85.90623285078001,0
27.1,18.300180132395916,1.1519377542741824,394.217064697192,0.3464257908622911,83.35742065860723,1.4462890625,-0.754795610905,84.7185134888,0
27.200000000000003,18.265420997126434,1.2139432265131236,394.3057582679632,0.3498369506643816,83.01630435310967,1.4462890625,-0.754795610905,84.7185134888,0
27.3,18.22722765283238,1.1836591963869851,394.38656821358404,0.35656307882367766,83.21876948409681,1.2249967244624913,-0.16406004977697175,84.21581945564732,0
27.400000000000002,18.188861924005742,1.1487425761612076,394.4669824305155,0.36345560607711425,83.44852038341594,1.10573410988,0.154743269086,83.9454269409,0
27.5,18.150496195179105,1.1138259559354313,394.54739664744693,0.3703481333305506,83.67827128273504,1.10573410988,0.154743269086,83.9454269409,0
27.6,18.11213046635247,1.0789093357096537,394.6278108643783,0.3772406605839872,83.90802218205415,1.10573410988,0.154743269086,83.9454269409,0
27.700000000000003,18.07911869252084,0.8934155154279635,394.6840512715171,0.3832064753484862,84.16032391982655,1.10573410988,0.154743269086,83.9454269409,0
27.8,18.049681238817005,0.6073958002799748,394.72415315396,0.38855361343285244,84.42768068063471,1.43790626526,3.91760778427,84.0169525146,0
27.900000000000002,18.02024378511317,0.3213760851319759,394.7642550364029,0.39390075151721893,84.69503744144286,1.43790626526,3.91760778427,84.0169525146,0
28.0,17.990806331409335,0.03535636998398739,394.8043569188458,0.3992478896015852,84.962394202251,1.43790626526,3.91760778427,84.0169525146,0
28.1,17.978468743458578,-0.21353020267481618,394.8648347076353,0.395937827470543,85.0,1.482443451848165,4.333548149300551,84.47154754938565,0
28.200000000000003,17.96893007345133,-0.4563387966925742,394.92864763897563,0.39121074877496376,85.0,1.62966060638,5.72782278061,85.9731445312,0
28.3,17.959391403444084,-0.6991473907103237,394.99246057031604,0.38648367007938467,85.0,1.62966060638,5.72782278061,85.9731445312,0
28.400000000000002,17.949852733436835,-0.9419559847280817,395.0562735016564,0.3817565913838054,85.0,1.62966060638,5.72782278061,85.9731445312,0
28.5,17.94246420748759,-0.7212778164352667,395.08729962931636,0.37707584597702976,84.85379239782061,1.62966060638,5.72782278061,85.9731445312,0
28.6,17.9363471701677,-0.22651654848106306,395.09893726627615,0.37242249978085795,84.62112486612862,0.71697384119,6.81703186035,85.5943069458,0
28.700000000000003,17.930230132847814,0.26824471947314055,395.11057490323594,0.3677691535846862,84.38845733443665,0.71697384119,6.81703186035,85.5943069458,0
28.8,17.924113095527925,0.7630059874273265,395.12221254019573,0.36311580738851457,84.15578980274468,0.71697384119,6.81703186035,85.5943069458,0
28.900000000000002,17.92291250645106,0.9722323911360462,395.12380449897506,0.36068873969063814,84.41323562548568,0.71697384119,6.81703186035,85.5943069458,0
29.0,17.931674913322084,0.6028332190551899,395.1050392718231,0.3627731409559234,85.66387757739408,0.770079374313,10.4170665741,84.6473464966,0
29.1,17.940437320193112,0.23343404697432057,395.0862740446711,0.3648575422212087,86.9145195293025,0.770079374313,10.4170665741,84.6473464966,0
29.200000000000003,17.949199727064137,-0.1359651251065488,395.06750881751907,0.366941943486494,88.16516148121093,0.770079374313,10.4170665741,84.6473464966,0
29.3,17.957962133935162,-0.5053642971874048,395.04874359036705,0.3690263447517793,89.41580343311931,0.770079374313,10.4170665741,84.6473464966,0
29.400000000000002,17.977813822977065,-0.6532881693164153,395.014614061538,0.3738049481000605,90.25366287872517,0.12184123433381355,12.618010309626966,86.8712303790435,0
29.5,18.00738621940016,-0.6070699364995552,394.9670164038961,0.38094525076043656,90.72968303716969,-0.827992796898,15.8634185791,90.3184051514,0
29.6,18.036958615823256,-0.5608517036826935,394.91941874625417,0.38808555342081286,91.20570319561425,-0.827992796898,15.8634185791,90.3184051514,0
29.700000000000003,18.06653101224635,-0.5146334708658319,394.8718210886123,0.39522585608118915,91.6817233540588,-0.827992796898,15.8634185791,90.3184051514,0
29.8,18.104086023316974,-0.5763499226161128,394.82304663856047,0.3977399528684601,92.3390077818872,-0.827992796898,15.8634185791,90.3184051514,0
29.900000000000002,18.157747432524264,-0.8558445183900679,394.77189779266024,0.3909198256020208,93.36202632310597,0.124759912491,24.249124527,92.1148376465,0
30.0,18.21140884173155,-1.135339114164013,394.72074894676,0.3840996983355818,94.38504486432467,0.124759912491,24.249124527,92.1148376465,0
30.1,18.272087416972017,-1.242637377483371,394.6664882556921,0.379999995232,95.69666620694606,0.124759912491,24.249124527,92.1148376465,0
30.200000000000003,18.343340923047652,-1.0904342556040412,394.6075379866289,0.379999995232,97.4432145057264,1.05160844326,27.2059879303,95.2831497192,0
30.3,18.414594429123284,-0.938231133724717,394.54858771756574,0.379999995232,99.18976280450667,1.05160844326,27.2059879303,95.2831497192,0
30.400000000000002,18.485847935198922,-0.7860280118453874,394.48963744850255,0.379999995232,100.936311103287,1.05160844326,27.2059879303,95.2831497192,0
30.5,18.557101441274554,-0.6338248899660631,394.43068717943936,0.379999995232,102.68285940206727,1.05160844326,27.2059879303,95.2831497192,0
30.6,18.64878385971113,-0.7135498182217132,394.31965314266085,0.3827870439653986,104.6722308348457,0.3127336945283198,28.414416356725866,97.16038674479833,0
30.700000000000003,18.74499881108245,-0.8447322840669295,394.1970633564443,0.3861924511288334,106.71547708155052,-2.14804530144,32.4787940979,103.536613464,0
30.8,18.841213762453766,-0.9759147499121411,394.0744735702277,0.389597858292268,108.75872332825524,-2.14804530144,32.4787940979,103.536613464,0
30.900000000000002,18.979643514841314,-1.2741161717302052,393.96061108629027,0.3803038331047495,111.18163478794992,-2.127742881104731,33.8563901701334,105.66481709768115,0
31.0,19.12372566382262,-1.5946807779079641,393.8479171539624,0.3693094036411194,113.65538193335217,-2.08689141273,36.6181526184,109.945144653,0
31.1,19.267807812803927,-1.9152453840857342,393.73522322163456,0.358314974177489,116.12912907875453,-2.08689141273,36.6181526184,109.945144653,0
31.200000000000003,19.403364580130127,-2.0542818714329996,393.63623189024827,0.34999999404,118.50043379765812,-2.08689141273,36.6181526184,109.945144653,0
31.3,19.512465023600843,-1.6299926456401839,393.5797630479232,0.34999999404,120.55383485879773,-0.623756349087,40.5522041321,118.394119263,0
31.400000000000002,19.621565467071562,-1.205703419847353,393.52329420559823,0.34999999404,122.60723591993742,-0.623756349087,40.5522041321,118.394119263,0
31.5,19.730665910542275,-0.7814141940545374,393.46682536327324,0.34999999404,124.66063698107703,-0.623756349087,40.5522041321,118.394119263,0
31.6,19.83593810851235,-0.5107751571220299,393.3944011482441,0.35142365803528436,127.13892888818812,-1.0024833472279213,41.63687080976375,120.67386048283569,0
31.700000000000003,19.93402944195174,-0.5283467877488642,393.2920485051908,0.3555177720541227,130.4142134658946,-1.925847575846136,44.28992659350708,126.22898594882948,0
31.8,20.03212077539112,-0.5459184183756979,393.18969586213746,0.3596118860729609,133.68949804360093,-1.97730994225,44.4411849976,126.540206909,0
31.900000000000002,20.12433441949273,-0.6591012917529079,393.0439368640077,0.3649476034687701,136.96855632922578,-3.529926727965595,43.95403557466901,131.18874847161868,0
32.0,20.21593249264982,-0.7822975393702278,392.89363191432176,0.3704133541003551,140.24800983562764,-4.61982679367,43.6072273254,134.466918945,0
32.1,20.307530565806914,-0.9054937869875523,392.74332696463574,0.3758791047319403,143.5274633420296,-4.61982679367,43.6072273254,134.466918945,0
32.2,20.392285007002435,-1.0459958926241835,392.59844724431616,0.3778483499051491,146.78893658849825,-4.61982679367,43.6072273254,134.466918945,0
32.300000000000004,20.4560693433705,-1.2395262234534574,392.4701913911428,0.3691036808287877,149.99531512243064,-5.41240644455,44.0508041382,146.529632568,0
32.4,20.519853679738567,-1.4330565542827176,392.3419355379695,0.3603590117524269,153.20169365636283,-5.41240644455,44.0508041382,146.529632568,0
32.5,20.583638016106633,-1.6265868851119916,392.21367968479615,0.3516143426760655,156.40807219029523,-5.41240644455,44.0508041382,146.529632568,0
32.6,20.614227930440514,-1.5165419952721688,392.18064059678125,0.3294114763854796,159.24602011993522,-4.437567887751108,44.04344501175068,150.61409019159785,0
32.7,20.637302422377235,-1.3377657983986726,392.1691591731449,0.30416159103051854,162.0005530826737,-2.83206319809,44.031288147,157.339859009,0
32.800000000000004,20.66037691431396,-1.1589896015251764,392.15767774950865,0.27891170567555756,164.75508604541218,-2.83206319809,44.031288147,157.339859009,0
32.9,20.683451406250683,-0.9802134046516929,392.1461963258724,0.25366182032059836,167.50961900815048,-2.83206319809,44.031288147,157.339859009,0
33.0,20.653052529199172,-0.6667342626081121,392.1694615615582,0.24829033393739303,170.01326348436947,-2.83206319809,44.031288147,157.339859009,0
33.1,20.559610841990764,-0.19444612160654529,392.2336916193354,0.26635462794938186,172.22112118811717,-0.298421412706,39.2875862122,169.322296143,0
33.2,20.466169154782353,0.2778420193950215,392.2979216771126,0.2844189219613707,174.42897889186483,-0.298421412706,39.2875862122,169.322296143,0
33.300000000000004,20.372727467573945,0.7501301603965884,392.3621517348898,0.3024832159733595,176.6368365956125,-0.298421412706,39.2875862122,169.322296143,0
33.4,20.279285780365544,1.2224183013981218,392.426381792667,0.32054750998534703,178.84469429936001,-0.298421412706,39.2875862122,169.322296143,0
33.5,20.158109199766713,1.3121545757066797,392.4944252989052,0.3329514340922199,180.68866486778836,-0.298421412706,39.2875862122,169.322296143,0
33.6,20.006490151388633,0.9819929722134819,392.56665453538113,0.33914240377992516,182.1332244041891,3.16813588142,34.8111457825,-179.728775024,0
33.7,19.854871103010552,0.6518313687202841,392.6388837718571,0.3453333734676305,183.57778394058982,3.16813588142,34.8111457825,-179.728775024,0
33.800000000000004,19.703252054632472,0.32166976522708635,392.71111300833303,0.35152434315533576,185.02234347699056,3.16813588142,34.8111457825,-179.728775024,0
33.9,19.551633006254402,-0.008491838266087903,392.783342244809,0.3577153128430406,186.4669030133912,3.16813588142,34.8111457825,-179.728775024,0
34.0,19.38180581953101,-0.021362848280218075,392.926478143666,0.3501287146771467,187.78970378194708,3.716397213190276,32.82819496688265,-178.417502843496,0
34.1,19.20132904146033,0.1513433322348974,393.11108599115585,0.3344838809784504,189.04129017943956,6.37050247192,23.1371917725,-172.079818726,0
34.2,19.02085226338965,0.3240495127500129,393.2956938386458,0.31883904727975404,190.29287657693203,6.37050247192,23.1371917725,-172.079818726,0
34.300000000000004,18.846322566157024,0.6895037143101563,393.5073712158153,0.31109567599209115,191.21913493060723,6.37050247192,23.1371917725,-172.079818726,0
34.4,18.679516663483465,1.3052901640364334,393.7542052508055,0.31361435999521875,191.72287221164697,7.28127384186,11.2768421173,-168.565643311,0
34.5,18.51271076080989,1.9210766137627542,394.0010392857958,0.3161330439983465,192.22660949268678,7.28127384186,11.2768421173,-168.565643311,0
34.6,18.345904858136322,2.5368630634890748,394.247873320786,0.3186517280014743,192.73034677372658,7.28127384186,11.2768421173,-168.565643311,0
34.7,18.195997293544206,2.8406347653462114,394.4658987063107,0.32452080860503346,192.81916741279278,7.28127384186,11.2768421173,-168.565643311,0
34.800000000000004,18.06555577667957,2.78498094592303,394.65073795585215,0.33424937999494087,192.43002464997588,7.09481859207,-0.661733210087,-166.638702393,0
34.9,17.93511425981494,2.7293271264998533,394.8355772053936,0.34397795138484755,192.04088188715903,7.09481859207,-0.661733210087,-166.638702393,0
35.0,17.804672742950306,2.673673307076672,395.02041645493506,0.35370652277475495,191.65173912434216,7.09481859207,-0.661733210087,-166.638702393,0
35.1,17.674231226085666,2.618019487653491,395.2052557044765,0.36343509416466235,191.26259636152528,7.09481859207,-0.661733210087,-166.638702393,0
35.2,17.56823447145457,2.47085646957467,395.36362001536054,0.37269067967556674,190.79819933983688,7.09481859207,-0.661733210087,-166.638702393,0
35.300000000000004,17.512963028293104,2.133802768174925,395.4670461968937,0.3809647724722467,190.17764225063766,4.941841543484477,-9.197812189351033,-168.78678383739955,0
35.4,17.45769158513164,1.7967490667752042,395.5704723784269,0.38923886526892604,189.55708516143852,4.91886138916,-9.25647354126,-168.808929443,0
35.5,17.402420141970175,1.4596953653754592,395.6738985599601,0.39751295806560605,188.9365280722393,4.91886138916,-9.25647354126,-168.808929443,0
35.6,17.34714869880871,1.1226416639757144,395.7773247414933,0.40578705086228595,188.3159709830401,4.91886138916,-9.25647354126,-168.808929443,0
35.7,17.31432747752992,0.788227135933113,395.8519921260733,0.4113753107644066,187.58740530438646,4.91886138916,-9.25647354126,-168.808929443,0
35.800000000000004,17.3047956267585,0.45655042876680046,395.8968257619675,0.41417734620383934,186.7467938708655,3.50122976303,-14.5642938614,-171.854888916,0
35.9,17.295263775987085,0.12487372160051147,395.9416593978616,0.41697938164327186,185.90618243734463,3.50122976303,-14.5642938614,-171.854888916,0
36.0,17.285731925215664,-0.20680298556580112,395.9864930337557,0.4197814170827046,185.0655710038237,3.50122976303,-14.5642938614,-171.854888916,0
36.1,17.293210849488236,-0.329591871135021,396.0016745515968,0.41766255493567256,184.29876974583848,3.396740105043471,-14.551032393698899,-172.42698411230225,0
36.2,17.302128942032184,-0.434708150703527,396.01434740141,0.41512736844981335,183.53821307473783,2.9327018261,-14.4894351959,-174.957519531,0
36.300000000000004,17.31104703457613,-0.539824430272033,396.0270202512233,0.41259218196395414,182.77765640363717,2.9327018261,-14.4894351959,-174.957519531,0
36.4,17.319965127120078,-0.6449407098405315,396.03969310103656,0.4100569954780951,182.01709973253656,2.9327018261,-14.4894351959,-174.957519531,0
36.5,17.352213450622408,-0.48876637742049334,395.9989556436169,0.41482664698428656,181.51733520289687,2.0259409167410354,-13.116547250784578,-176.29910129797034,0
36.6,17.384998376433106,-0.3265822825682884,395.95698973311414,0.41976431195488684,181.02356897071775,1.29192137718,-11.9910259247,-177.389022827,0
36.7,17.417783302243805,-0.16439818771608344,395.9150238226114,0.4247019769254871,180.52980273853862,1.29192137718,-11.9910259247,-177.389022827,0
36.800000000000004,17.450568228054504,-0.002214092863878525,395.8730579121086,0.42963964189608733,180.0360365063595,1.29192137718,-11.9910259247,-177.389022827,0
36.9,17.523719312606065,-0.432535300581967,395.7684457729678,0.43207248207470567,180.0,0.007809677991009956,-7.983558562131126,-178.3769937264343,0
37.0,17.600048375895124,-0.9095037324144263,395.658901572199,0.4343081204343162,180.0,-0.862563967705,-5.28755378723,-179.062469482,0
37.1,17.676377439184183,-1.3864721642468856,395.54935737143023,0.43654375879392676,180.0,-0.862563967705,-5.28755378723,-179.062469482,0
37.2,17.75270650247324,-1.863440596079345,395.43981317066147,0.43877939715353725,180.0,-0.862563967705,-5.28755378723,-179.062469482,0
37.300000000000004,17.82995637967633,-2.0654551248150548,395.3230193641226,0.4385003993981971,179.8500400352029,-0.862563967705,-5.28755378723,-179.062469482,0
37.4,17.90831355138778,-1.936832874156759,395.1975077824343,0.43519750863013434,179.51975064339962,-2.07617092133,-1.58143556118,-179.73274231,0
37.5,17.98667072309924,-1.808210623498454,395.0719962007459,0.43189461786207123,179.18946125159633,-2.07617092133,-1.58143556118,-179.73274231,0
37.6,18.056417003164984,-1.6251120326964084,394.95656431189093,0.42716738007957394,178.90557910130727,-2.07617092133,-1.58143556118,-179.73274231,0
37.7,18.114578735524855,-1.3687244275620674,394.85469300274053,0.4205239161247678,178.68413031162,-1.23444664478,1.18360042572,179.01411438,0
37.800000000000004,18.172740467884722,-1.1123368224277261,394.75282169359014,0.4138804521699617,178.46268152193275,-1.23444664478,1.18360042572,179.01411438,0
37.9,18.230902200244586,-0.8559492172934032,394.6509503844398,0.4072369882151561,178.24123273224552,-1.23444664478,1.18360042572,179.01411438,0
38.0,18.289063932604456,-0.5995616121590621,394.5490790752894,0.40059352426034994,178.01978394255826,-1.23444664478,1.18360042572,179.01411438,0
38.1,18.318455128516113,-0.7062055202492064,394.4727922650576,0.3963682932754846,178.36317107364658,-1.2616221784517374,2.6625371172921266,178.64315086495137,0
38.2,18.34502384619934,-0.8484639377926305,394.39901537296066,0.39238029839225474,178.76197034805364,-1.2901263237,4.22811746597,178.250411987,0
38.300000000000004,18.37159256388257,-0.9907223553360547,394.3252384808638,0.38839230350902487,179.1607696224607,-1.2901263237,4.22811746597,178.250411987,0
38.400000000000006,18.398161281565795,-1.132980772879479,394.2514615887669,0.384404308625795,179.55956889686775,-1.2901263237,4.22811746597,178.250411987,0
38.5,18.424729999249017,-1.275239190422893,394.17768469667004,0.38041631374256535,179.95836817127477,-1.2901263237,4.22811746597,178.250411987,0
38.6,18.42654808985576,-0.9481589811462194,394.1843266822217,0.3718044131642721,180.40977918886634,-0.43127228025332875,4.686639374266086,-19.449203177833482,0
38.7,18.425481220257574,-0.5663721473937205,394.20034238024635,0.36265354507293746,180.86732268887664,0.264668017626,5.0621509552,-179.736114502,0
38.800000000000004,18.424414350659383,-0.18458531364122188,394.216358078271,0.3535026769816028,181.32486618888694,0.264668017626,5.0621509552,-179.736114502,0
38.900000000000006,18.423347481061192,0.1972015201112769,394.2323737762957,0.3443518088902682,181.78240968889725,0.264668017626,5.0621509552,-179.736114502,0
39.0,18.408559104820142,0.4887240957340332,394.2854035106924,0.340000003576,182.0,0.264668017626,5.0621509552,-179.736114502,0
39.1,18.381328022929665,0.6983947564173754,394.3719976904129,0.340000003576,182.0,1.09053862095,6.97567462921,-177.605224609,0
39.2,18.354096941039185,0.9080654171007174,394.4585918701334,0.340000003576,182.0,1.09053862095,6.97567462921,-177.605224609,0
39.300000000000004,18.326865859148707,1.1177360777840597,394.5451860498539,0.340000003576,182.0,1.09053862095,6.97567462921,-177.605224609,0
39.400000000000006,18.299634777258227,1.3274067384674018,394.6317802295744,0.340000003576,182.0,1.09053862095,6.97567462921,-177.605224609,0
39.5,18.269300400895258,1.1691166253077712,394.6823885318288,0.34762303553390544,182.0,1.098787006293655,5.976145889034646,-177.62305491188238,0
39.6,18.23813943859985,0.9128173795817,394.7234117236969,0.35727651965636564,182.0,1.13186001778,1.94172668457,-177.694534302,0
39.7,18.20697847630444,0.6565181338556286,394.76443491556506,0.36693000377882584,182.0,1.13186001778,1.94172668457,-177.694534302,0
39.800000000000004,18.17581751400903,0.4002188881295574,394.8054581074332,0.37658348790128604,182.0,1.13186001778,1.94172668457,-177.694534302,0
39.900000000000006,18.164077872647223,0.21880651452686317,394.8223606159798,0.379999995232,181.88092583288704,1.13186001778,1.94172668457,-177.694534302,0
40.0,18.16297689286094,0.0784158660526647,394.8260502340281,0.379999995232,181.69662490953888,0.141422271729,0.61792498827,-177.925598145,0
40.1,18.161875913074656,-0.06197478242154375,394.8297398520764,0.379999995232,181.5123239861907,0.141422271729,0.61792498827,-177.925598145,0
40.2,18.160774933288376,-0.20236543089575226,394.8334294701247,0.379999995232,181.32802306284253,0.141422271729,0.61792498827,-177.925598145,0
40.300000000000004,18.159673953502093,-0.3427560793699607,394.837119088173,0.379999995232,181.14372213949434,0.141422271729,0.61792498827,-177.925598145,0
