t_sec,airspeed,climb,altitude,throttle,heading,pitch,roll,yaw,is_boundary
0.0,21.2753868103,2.02833414078,410.979980469,0.419999986887,288.0,0.797830879688,-11.9616756439,-70.1561889648,0
0.1,21.118956033295888,2.7537495774394465,411.11477201863937,0.39683322278589417,288.0,0.21853126593404737,2.0378085865363236,-70.96621340218118,0
0.2,20.96252525629178,3.4791650140988932,411.24956356827875,0.3736664586847883,288.0,0.183815330267,2.86309146881,-71.0142974854,0
0.30000000000000004,20.80609447928767,4.20458045075834,411.3843551179182,0.35049969458368246,288.0,0.183815330267,2.86309146881,-71.0142974854,0
0.4,20.649663702283558,4.929995887417786,411.51914666755755,0.3273329304825766,288.0,0.183815330267,2.86309146881,-71.0142974854,0
0.5,20.49541090353731,5.307104804175218,411.6268999489663,0.30246645492686147,288.1883386789451,0.183815330267,2.86309146881,-71.0142974854,0
0.6000000000000001,20.347629102694906,4.649359147867908,411.6543197484349,0.27254996143812615,288.93625098644645,-0.8175314652164158,19.587648315502985,-71.10482913321006,0
0.7000000000000001,20.199847301852508,3.9916134915605976,411.6817395479034,0.2426334679493909,289.6841632939478,-1.26719081402,27.1075782776,-71.1456604004,0
0.8,20.052065501010105,3.333867835253288,411.709159347372,0.21271697446065563,290.4320756014491,-1.26719081402,27.1075782776,-71.1456604004,0
0.9,19.905631229671414,2.597645808655941,411.69029130172987,0.18609605119659994,291.1951973132142,-1.26719081402,27.1075782776,-71.1456604004,0
1.0,19.76344888218352,1.6138035632488503,411.5253690197338,0.16987379720231346,292.0063099807003,-3.504795933130649,29.45919875119661,-69.79626122864084,0
1.1,19.62126653469563,0.6299613178417589,411.36044673773773,0.15365154320802699,292.8174226481864,-5.64133548737,31.7054748535,-68.4891891479,0
1.2000000000000002,19.47908418720774,-0.35388092756533274,411.1955244557417,0.1374292892137405,293.6285353156725,-5.64133548737,31.7054748535,-68.4891891479,0
1.3,19.362854871106585,-1.0318960805481656,410.94619118300767,0.12145227004980595,294.5698483935938,-5.64133548737,31.7054748535,-68.4891891479,0
1.4000000000000001,19.26855363151372,-1.4515136775363326,410.6255378923744,0.1056824531984768,295.6211696057823,-10.8105831146,35.3671875,-65.1971893311,0
1.5,19.174252391920856,-1.8711312745244986,410.3048846017411,0.08991263634714769,296.6724908179708,-10.8105831146,35.3671875,-65.1971893311,0
1.6,19.07995115232799,-2.2907488715126654,409.9842313111078,0.07414281949581852,297.7238120301593,-10.8105831146,35.3671875,-65.1971893311,0
1.7000000000000002,19.024788485749323,-2.6703059725336966,409.5947503879506,0.06499601347861536,298.50039869312485,-11.777829259773489,35.13313279734109,-64.377672084191,0
1.8,18.98357129645468,-3.0355891056128246,409.1807454693599,0.058209054538760914,299.1790946022826,-14.9408359528,34.3681030273,-61.70885849,0
1.9000000000000001,18.942354107160035,-3.4008722386919534,408.7667405507692,0.05142209559890644,299.85779051144027,-14.9408359528,34.3681030273,-61.70885849,0
2.0,18.930245995909942,-4.091333641421603,408.29546845202486,0.04482705440317939,300.86215768939417,-15.844696041355116,32.803097256411334,-60.63260137296221,0
2.1,18.925853992546696,-4.8679918864985385,407.8090162180745,0.038282885928904394,301.9528523917661,-17.0812397003,30.6617469788,-59.1612205505,0
2.2,18.921461989183445,-5.6446501315754745,407.3225639841241,0.031738717454629396,303.04354709413803,-17.0812397003,30.6617469788,-59.1612205505,0
2.3000000000000003,18.9170699858202,-6.42130837665241,406.83611175017364,0.025194548980354396,304.13424179650997,-17.0812397003,30.6617469788,-59.1612205505,0
2.4000000000000004,18.925063112433314,-6.945599259308247,406.3249192347169,0.019398733885366618,305.1803797043211,-17.0812397003,30.6617469788,-59.1612205505,0
2.5,18.980725372031205,-6.4985532740245056,405.71850383734807,0.01648325648767563,306.05502294317495,-20.2002239227,24.7323760986,-54.2629928589,0
2.6,19.0363876316291,-6.051507288740763,405.1120884399792,0.013567779089984628,306.92966618202877,-20.2002239227,24.7323760986,-54.2629928589,0
2.7,19.092049891226992,-5.604461303457019,404.50567304261034,0.010652301692293625,307.80430942088265,-20.2002239227,24.7323760986,-54.2629928589,0
2.8000000000000003,19.144672132243254,-5.817580307432232,403.92509290746796,0.00819144796755681,308.7234207397392,-20.938901797267405,22.330779486232554,-52.84590948594711,0
2.9000000000000004,19.19641816637199,-6.220974829454979,403.3519591198054,0.005861627781852614,309.65534883485134,-21.6839237213,20.0353927612,-51.385345459,0
3.0,19.248164200500725,-6.624369351477725,402.77882533214284,0.003531807596148428,310.5872769299634,-21.6839237213,20.0353927612,-51.385345459,0
3.1,19.29991023462946,-7.027763873500472,402.20569154448026,0.0012019874104442323,311.51920502507556,-21.6839237213,20.0353927612,-51.385345459,0
3.2,19.36197592112734,-7.33445622821225,401.55868172069626,0.008975310124204392,312.1282187155142,-21.91072991353988,19.302806341324796,-50.84561817361521,0
3.3000000000000003,19.435039773754063,-7.538088279818663,400.83293853563805,0.02751605407049261,312.3930864850479,-23.4066066742,14.4740209579,-47.2749519348,0
3.4000000000000004,19.508103626380787,-7.741720331425076,400.1071953505798,0.04605679801678083,312.65795425458157,-23.4066066742,14.4740209579,-47.2749519348,0
3.5,19.58116747900751,-7.945352383031487,399.3814521655215,0.06459754196306897,312.92282202411525,-23.4066066742,14.4740209579,-47.2749519348,0
3.6,19.648500643555423,-7.999308703398126,398.66562747657326,0.09643819548450944,313.2033707280082,-23.50956551971932,13.067909885635828,-47.147660023970005,0
3.7,19.71347735121907,-7.991718416719305,397.9538812696709,0.13374776705687116,313.49036742649,-23.733215332,10.0636358261,-46.8713035583,0
3.8000000000000003,19.77845405888272,-7.984128130040483,397.2421350627685,0.1710573386292329,313.7773641249719,-23.733215332,10.0636358261,-46.8713035583,0
3.9000000000000004,19.846413229734505,-7.9943841959159885,396.51445048137947,0.20978480766511526,314.05755767401297,-23.733215332,10.0636358261,-46.8713035583,0
4.0,19.924689286946656,-8.066374063563813,395.7316321437713,0.2534170436935805,314.31421788324565,-23.330450058,5.18994140625,-45.5372962952,0
4.1000000000000005,20.002965344158802,-8.138363931211638,394.94881380616323,0.2970492797220461,314.5708780924783,-23.330450058,5.18994140625,-45.5372962952,0
4.2,20.08124140137095,-8.210353798859462,394.1659954685551,0.34068151575051125,314.827538301711,-23.330450058,5.18994140625,-45.5372962952,0
4.3,20.21811418723546,-8.274081853427429,393.4307273267278,0.37973290643309326,315.0,-23.330450058,5.18994140625,-45.5372962952,0
4.4,20.475009182807728,-8.320887443468074,392.79285505837163,0.40940146648012643,315.0,-20.3636169434,3.1237950325,-44.2367134094,0
4.5,20.731904178379992,-8.367693033508717,392.1549827900154,0.4390700265271593,315.0,-20.3636169434,3.1237950325,-44.2367134094,0
4.6000000000000005,20.988799173952255,-8.41449862354936,391.5171105216592,0.46873858657419243,315.0,-20.3636169434,3.1237950325,-44.2367134094,0
4.7,21.191069246219563,-8.498098374290496,391.0634669776914,0.4900715406223385,315.0,-18.352887362529167,3.2426774427539824,-44.54040449848267,0
4.800000000000001,21.39091371254499,-8.58333196045733,390.618004063764,0.5110343541885072,315.0,-15.275302887,3.42244291306,-45.0039634705,0
4.9,21.590758178870413,-8.668565546624166,390.1725411498365,0.5319971677546755,315.0,-15.275302887,3.42244291306,-45.0039634705,0
5.0,21.770882711290536,-8.586764463898467,389.7618206769929,0.551530331474457,314.96939361622805,-15.275302887,3.42244291306,-45.0039634705,0
5.1000000000000005,21.831068538571998,-7.489041015690093,389.5624073726704,0.562368214966587,314.75263599806476,-11.410256320153575,-0.5629263380077818,-44.89558209542569,0
5.2,21.89125436585346,-6.391317567481729,389.3629940683479,0.5732060984587168,314.53587837990153,-8.95126438141,-3.08274173737,-44.8265953064,0
5.300000000000001,21.951440193134918,-5.293594119273354,389.16358076402537,0.584043981950847,314.3191207617383,-8.95126438141,-3.08274173737,-44.8265953064,0
5.4,22.01162602041638,-4.1958706710649905,388.9641674597029,0.5948818654429768,314.102363143575,-8.95126438141,-3.08274173737,-44.8265953064,0
5.5,22.01000620762621,-3.487280344853372,388.8898529408742,0.6012411082451717,313.8758914413205,-8.95126438141,-3.08274173737,-44.8265953064,0
5.6000000000000005,21.953081104688287,-3.1268964314090413,388.92748006071884,0.6035927471695118,313.64072732461045,-2.11862015724,-2.19324040413,-45.7558784485,0
5.7,21.89615600175037,-2.7665125179647143,388.96510718056345,0.605944386093852,313.40556320790046,-2.11862015724,-2.19324040413,-45.7558784485,0
5.800000000000001,21.839230898812453,-2.406128604520384,389.00273430040806,0.6082960250181921,313.1703990911904,-2.11862015724,-2.19324040413,-45.7558784485,0
5.9,21.759621241850414,-1.8524327482251373,389.0948943886781,0.6079506376462589,313.0,-2.11862015724,-2.19324040413,-45.7558784485,0
6.0,21.62032771448525,-0.7901262781957699,389.3305326611232,0.6005092779325522,313.0,2.97596073151,1.12089192867,-46.771194458,0
6.1000000000000005,21.481034187120084,0.27218019183360687,389.56617093356823,0.5930679182188453,313.0,2.97596073151,1.12089192867,-46.771194458,0
6.2,21.34174065975492,1.3344866618629743,389.80180920601333,0.5856265585051386,313.0,2.97596073151,1.12089192867,-46.771194458,0
6.300000000000001,21.19120582734088,2.3013946389722673,390.0556450633775,0.5780924782602936,312.9364164376723,2.97596073151,1.12089192867,-46.771194458,0
6.4,21.005818345779947,2.9725282208106165,390.36590088619465,0.5702709263983704,312.6756977936361,5.8664560318,3.40187573433,-46.8926239014,0
6.5,20.820430864219013,3.643661802648966,390.6761567090119,0.5624493745364473,312.4149791496,5.8664560318,3.40187573433,-46.8926239014,0
6.6000000000000005,20.63504338265808,4.314795384487321,390.98641253182905,0.5546278226745239,312.1542605055639,5.8664560318,3.40187573433,-46.8926239014,0
6.7,20.44972577575251,4.7706364082901525,391.3201520887206,0.546198299642588,312.0950427559746,5.8664560318,3.40187573433,-46.8926239014,0
6.800000000000001,20.264509418970388,4.914513130224501,391.68792016370213,0.5368878111776625,312.3278048427325,7.15423488617,4.42724990845,-47.1685905457,0
6.9,20.079293062188267,5.058389852158849,392.05568823868373,0.527577322712737,312.56056692949045,7.15423488617,4.42724990845,-47.1685905457,0
7.0,19.894076705406146,5.202266574093197,392.42345631366527,0.5182668342478116,312.7933290162484,7.15423488617,4.42724990845,-47.1685905457,0
7.1000000000000005,19.714571069786437,5.31464327273837,392.784510305495,0.509233098222351,313.0255630736726,7.15423488617,4.42724990845,-47.1685905457,0
7.2,19.58030079122631,5.177504234168154,393.0923811808558,0.5023915538764111,313.2536145428094,6.9187088913624555,5.5207895715592645,-46.80225453858288,0
7.300000000000001,19.446030512666184,5.0403651955979365,393.4002520562166,0.495550009530471,313.4816660119461,6.74169969559,6.33791637421,-46.5261077881,0
7.4,19.31176023410606,4.90322615702772,393.70812293157735,0.48870846518453104,313.70971748108286,6.74169969559,6.33791637421,-46.5261077881,0
7.5,19.177489955545933,4.766087118457503,394.0159938069381,0.4818669208385911,313.9377689502196,6.74169969559,6.33791637421,-46.5261077881,0
7.6000000000000005,19.058908550237955,4.568795350467078,394.2540273561636,0.47553542773916685,314.2232282894845,5.996194882872791,7.892065431813437,-45.95214956374549,0
7.7,18.946215050992105,4.348928754156324,394.4658515269776,0.4693953527089748,314.53023233378383,4.87393569946,10.2053823471,-45.0889778137,0
7.800000000000001,18.833521551746255,4.129062157845567,394.67767569779164,0.4632552776787828,314.8372363780832,4.87393569946,10.2053823471,-45.0889778137,0
7.9,18.7300882281381,3.727132610500361,394.822267123294,0.4609784142057361,315.0,4.87393569946,10.2053823471,-45.0889778137,0
8.0,18.637104261939488,3.119759784234099,394.8909918468167,0.4630608717530076,315.0,2.73141860962,12.5949010849,-44.7254981995,0
8.1,18.54412029574087,2.512386957967837,394.95971657033937,0.465143329300279,315.0,2.73141860962,12.5949010849,-44.7254981995,0
8.200000000000001,18.451136329542255,1.9050141317015643,395.02844129386204,0.46722578684755056,315.0,2.73141860962,12.5949010849,-44.7254981995,0
8.3,18.35815236334364,1.2976413054353024,395.0971660173847,0.46930824439482205,315.0,2.73141860962,12.5949010849,-44.7254981995,0
8.4,18.28975639805132,0.9753491129888574,395.10980947667247,0.473395352262744,315.33953516333077,1.9743919356125166,13.890858923955559,-44.604610305336955,0
8.5,18.233590834576027,0.7948598558503539,395.09455736207394,0.47847960011848395,315.84795967616043,0.970939218998,15.4506664276,-44.4418029785,0
8.6,18.17742527110073,0.6143705987118505,395.0793052474754,0.4835638479742239,316.3563841889901,0.970939218998,15.4506664276,-44.4418029785,0
8.700000000000001,18.121259707625434,0.4338813415733438,395.06405313287684,0.48864809582996394,316.86480870181975,0.970939218998,15.4506664276,-44.4418029785,0
8.8,18.093571822918037,0.027432723397320946,395.01288283045216,0.4936240798432297,317.5436110643763,0.6108661656655483,16.68345945325198,-44.047705753937606,0
8.9,18.076199028643867,-0.46086214574361495,394.94870236105976,0.498560848886242,318.28412712705835,-0.637024343014,20.8181591034,-42.6498603821,0
9.0,18.058826234369693,-0.949157014884551,394.88452189166736,0.5034976179292543,319.02464318974035,-0.637024343014,20.8181591034,-42.6498603821,0
9.1,18.04145344009552,-1.4374518840254868,394.82034142227496,0.5084343869722666,319.7651592524224,-0.637024343014,20.8181591034,-42.6498603821,0
9.200000000000001,18.05252158456268,-1.7243241729694674,394.7195199138168,0.5159604829844828,320.89407339859673,-1.1884207966159779,23.34163478131141,-41.01901821195471,0
9.3,18.076797989580278,-1.9176537717730238,394.60168193500846,0.5246890887158953,322.2033635559399,-1.72568845749,25.7922878265,-39.4158935547,0
9.4,18.101074394597877,-2.11098337057658,394.4838439562002,0.5334176944473076,323.51265371328304,-1.72568845749,25.7922878265,-39.4158935547,0
9.5,18.125350799615475,-2.3043129693801365,394.3660059773919,0.54214630017872,324.8219438706262,-1.72568845749,25.7922878265,-39.4158935547,0
9.600000000000001,18.15447480929322,-2.4556357775166506,394.2425399984393,0.5513014819628639,326.1561763677881,-1.72568845749,25.7922878265,-39.4158935547,0
9.700000000000001,18.227114593583924,-2.229873785419984,394.06855282335596,0.5642859338024943,327.7143102170535,-2.4654134449145975,32.02366490740987,-34.74141660313661,0
9.8,18.299754377874628,-2.004111793323318,393.8945656482726,0.5772703856421246,329.2724440663188,-2.56790947914,32.8901748657,-33.9562797546,0
9.9,18.372394162165328,-1.778349801226652,393.72057847318916,0.590254837481755,330.83057791558423,-2.56790947914,32.8901748657,-33.9562797546,0
10.0,18.46132982328065,-1.677567726633219,393.54162768612093,0.6029137352784004,332.5244685587273,-2.56790947914,32.8901748657,-33.9562797546,0
10.100000000000001,18.599290906230063,-1.9527821843117077,393.3477440927977,0.6145932181924407,334.6267774881845,-2.7138941288,37.5670509338,-27.7432174683,0
10.200000000000001,18.737251989179473,-2.2279966419901918,393.1538604994745,0.6262727011064808,336.72908641764167,-2.7138941288,37.5670509338,-27.7432174683,0
10.3,18.875213072128883,-2.5032110996686754,392.95997690615127,0.6379521840205209,338.83139534709886,-2.7138941288,37.5670509338,-27.7432174683,0
10.4,19.013174155078296,-2.778425557347159,392.76609331282805,0.649631666934561,340.93370427655606,-2.7138941288,37.5670509338,-27.7432174683,0
10.5,19.183799853951957,-2.736618663705095,392.605235759215,0.6614624918073938,343.48354495868915,-2.4886464526242746,38.78429489584275,-24.797242268700384,0
10.600000000000001,19.355489162991468,-2.684489066963221,392.4454535842825,0.6732982446073227,346.0479579634477,-1.99702560902,41.4368019104,-18.3774223328,0
10.700000000000001,19.52717847203098,-2.632359470221348,392.28567140935,0.6851339974072513,348.6123709682062,-1.99702560902,41.4368019104,-18.3774223328,0
10.8,19.69886778107049,-2.580229873479475,392.12588923441757,0.69696975020718,351.17678397296476,-1.99702560902,41.4368019104,-18.3774223328,0
10.9,19.870557090109997,-2.5281002767376024,391.9661070594851,0.7088055030071087,353.7411969777233,-1.99702560902,41.4368019104,-18.3774223328,0
11.0,20.074667970523652,-2.2835741330977672,391.87242375322256,0.7166006403346152,297.0693225791557,-1.0272580686279151,43.944434291624674,-11.960707830216673,0
11.100000000000001,20.28241814844311,-2.017451618783303,391.7861599962814,0.7239422215515628,233.74821855158896,-0.119394056499,46.2936058044,-5.96461009979,0
11.200000000000001,20.490168326362564,-1.751329104468843,391.6998962393402,0.7312838027685102,170.42711452402335,-0.119394056499,46.2936058044,-5.96461009979,0
11.3,20.69791850428202,-1.4852065901543834,391.61363248239905,0.7386253839854577,107.10601049645771,-0.119394056499,46.2936058044,-5.96461009979,0
11.4,20.905668682201473,-1.2190840758399235,391.52736872545785,0.7459669652024052,43.784906468892075,-0.119394056499,46.2936058044,-5.96461009979,0
11.5,21.094800297365627,-0.9581303930896544,391.47505885202423,0.749015437172425,10.18147651986407,-0.119394056499,46.2936058044,-5.96461009979,0
11.600000000000001,21.261236353224923,-0.7034773858986996,391.46413790784914,0.7468307170428997,12.803143175578025,1.38723921776,47.2669563293,9.69749546051,0
11.700000000000001,21.427672409084213,-0.4488243787077494,391.4532169636741,0.7446459969133743,15.424809831291935,1.38723921776,47.2669563293,9.69749546051,0
11.8,21.594108464943506,-0.1941713715167992,391.442296019499,0.742461276783849,18.04647648700584,1.38723921776,47.2669563293,9.69749546051,0
11.9,21.760544520802796,0.0604816356741511,391.43137507532396,0.7402765566543236,20.66814314271975,1.38723921776,47.2669563293,9.69749546051,0
12.0,21.866314762407885,0.17044137098936274,391.49189735655824,0.736131059242421,23.32137239052417,1.560063554888524,46.940963484393656,13.770071790293523,0
12.100000000000001,21.963292847355895,0.25943104385348237,391.5627737398121,0.7317013908975433,25.979175932065154,1.90413033962,46.2925834656,21.8819580078,0
12.200000000000001,22.0602709323039,0.3484207167176005,391.63365012306593,0.7272717225526656,28.636979473606086,1.90413033962,46.2925834656,21.8819580078,0
12.3,22.15724901725191,0.4374103895817185,391.70452650631984,0.722842054207788,31.29478301514702,1.90413033962,46.2925834656,21.8819580078,0
12.4,22.230540174513227,0.6011402261579207,391.8098577550799,0.7180997932943739,33.950115732356025,1.90413033962,46.2925834656,21.8819580078,0
12.5,22.2614295666785,0.8986617856150987,391.9768663616189,0.7127979631182352,36.6010254482243,4.74927854538,44.9773139954,34.1102256775,0
12.600000000000001,22.29231895884378,1.1961833450722819,392.1438749681578,0.7074961329420963,39.251935164092615,4.74927854538,44.9773139954,34.1102256775,0
12.700000000000001,22.323208351009058,1.49370490452946,392.31088357469673,0.7021943027659576,41.90284487996088,4.74927854538,44.9773139954,34.1102256775,0
12.8,22.341986977590125,2.1181164645212363,392.5218759088364,0.6982265748872567,44.59607339474413,4.74927854538,44.9773139954,34.1102256775,0
12.9,22.352213810661475,2.973355362844864,392.76392654012614,0.6952008987136442,47.319184548026485,5.60139608383,46.2124404907,43.6416625977,0
13.0,22.362440643732825,3.828594261168491,393.0059771714159,0.6921752225400317,50.04229570130883,5.60139608383,46.2124404907,43.6416625977,0
13.100000000000001,22.3692746273087,4.365832018346006,393.2480193157864,0.6875919840825124,52.66220336647006,5.60139608383,46.2124404907,43.6416625977,0
13.200000000000001,22.36743061694938,4.089708623508564,393.4900397529061,0.6790249213877362,55.018144343689016,5.80562162399,47.5733070374,52.1104812622,0
13.3,22.36558660659006,3.8135852286711223,393.7320601900259,0.6704578586929598,57.374085320907966,5.80562162399,47.5733070374,52.1104812622,0
13.4,22.36374259623074,3.5374618338336803,393.9740806271456,0.6618907959981836,59.730026298126916,5.80562162399,47.5733070374,52.1104812622,0
13.5,22.361898585871415,3.2613384389962388,394.2161010642654,0.6533237333034072,62.085967275345865,5.80562162399,47.5733070374,52.1104812622,0
13.600000000000001,22.350805600138365,3.2716285684946897,394.44771536137335,0.6436680936752461,64.26637770426353,5.942645342853275,47.72298212309253,54.89393215809575,0
13.700000000000001,22.333849643480452,3.4634776380719265,394.6727331552079,0.6333223997813943,66.33551845632171,6.35510015488,48.1740455627,63.4873466492,0
13.8,22.316893686822535,3.6553267076491633,394.89775094904246,0.6229767058875424,68.40465920837988,6.35510015488,48.1740455627,63.4873466492,0
13.9,22.299937730164622,3.8471757772264,395.122768742877,0.6126310119936906,70.47379996043804,6.35510015488,48.1740455627,63.4873466492,0
14.0,22.259491794158915,4.075877829762895,395.3017403634025,0.6050306118278783,72.73928734223983,5.9930591356091725,47.41964269476359,65.57640754942992,0
14.100000000000001,22.211034903511848,4.3171481170566235,395.46500853011366,0.5983664586977452,75.07173621096217,4.89226198196,45.3745994568,71.9348297119,0
14.200000000000001,22.16257801286478,4.558418404350347,395.62827669682486,0.5917023055676122,77.40418507968448,4.89226198196,45.3745994568,71.9348297119,0
14.3,22.11578390798258,4.111996699343787,395.762216027775,0.5849692487251733,79.50921895393984,4.712680140729892,45.36312875534183,73.1443491761532,0
14.4,22.069560281737452,3.4296374497729762,395.8860930436599,0.5782125519787151,81.53622991097008,3.93361639977,45.3144035339,78.5859451294,0
14.5,22.023336655492326,2.7472782002021656,396.00997005954486,0.571455855232257,83.56324086800032,3.93361639977,45.3144035339,78.5859451294,0
14.600000000000001,21.9771130292472,2.064918950631343,396.1338470754298,0.5646991584857985,85.59025182503059,3.93361639977,45.3144035339,78.5859451294,0
14.700000000000001,21.931614984678212,1.5004344620617824,396.24023389997643,0.558651103518606,87.67445007592003,3.93361639977,45.3144035339,78.5859451294,0
14.8,21.88777407459628,1.205160646848662,396.30667539485853,0.5542214945100237,89.8892566924723,2.22492480278,43.7944641113,87.2898483276,0
14.9,21.843933164514343,0.9098868316355417,396.37311688974063,0.5497918855014412,92.10406330902457,2.22492480278,43.7944641113,87.2898483276,0
15.0,21.80009225443241,0.6146130164224215,396.4395583846228,0.5453622764928588,94.31886992557683,2.22492480278,43.7944641113,87.2898483276,0
15.100000000000001,21.756251344350474,0.31933920120929593,396.5059998795049,0.5409326674842763,96.53367654212914,2.22492480278,43.7944641113,87.2898483276,0
15.200000000000001,21.711738189722002,0.22984914044607782,396.53406658199486,0.5306145891063729,98.64244978044253,0.9134398384267135,41.66395994474877,92.83471717072693,0
15.3,21.66704574631976,0.19524196000816613,396.55189866152347,0.5187260458462462,100.72294373488376,0.117066770792,40.3692398071,97.063949585,0
15.4,21.62235330291752,0.1606347795702544,396.56973074105207,0.5068375025861194,102.80343768932497,0.117066770792,40.3692398071,97.063949585,0
15.5,21.569167297350113,0.11316905412739295,396.59816795997614,0.4963639450899961,104.5454083502864,0.117066770792,40.3692398071,97.063949585,0
15.600000000000001,21.50448370999356,0.04829694841570539,396.64096116467084,0.48780582828127084,105.82912613941082,-0.510038971901,34.35679245,104.131843567,0
15.700000000000001,21.43980012263701,-0.016575157295981024,396.6837543693655,0.4792477114725457,107.11284392853521,-0.510038971901,34.35679245,104.131843567,0
15.8,21.37511653528046,-0.08144726300766741,396.72654757406013,0.47068959466382054,108.39656171765961,-0.510038971901,34.35679245,104.131843567,0
15.9,21.31043294792391,-0.14631936871935383,396.7693407787548,0.46213147785509545,109.68027950678399,-0.510038971901,34.35679245,104.131843567,0
16.0,21.21816296373888,0.26535313184173215,396.8466551211674,0.45166815182575204,110.62488890372195,-0.4813932367450168,33.48861393357783,104.40859890904683,0
16.1,21.11674364227096,0.8350769850400632,396.93541878529953,0.4405729418333712,111.45702920674884,0.056328676641,21.0577487946,110.609802246,0
16.2,21.01532432080305,1.4048008382383739,397.02418244943163,0.42947773184099075,112.28916950977572,0.056328676641,21.0577487946,110.609802246,0
16.3,20.912596178182177,1.8280345582818383,397.11713756599704,0.41875403498245367,113.06229760822416,0.056328676641,21.0577487946,110.609802246,0
16.400000000000002,20.802198829251626,1.392890454159256,397.2346530385558,0.41020726723586437,113.48963608470712,0.313529700041,10.1804170609,113.688682556,0
16.5,20.69180148032108,0.9577463500366894,397.35216851111454,0.40166049948927535,113.91697456119005,0.313529700041,10.1804170609,113.688682556,0
16.6,20.581404131390528,0.5226022459141073,397.4696839836733,0.39311373174268605,114.344313037673,0.313529700041,10.1804170609,113.688682556,0
16.7,20.47100678245998,0.08745814179154077,397.58719945623204,0.384566963996097,114.77165151415595,0.313529700041,10.1804170609,113.688682556,0
16.8,20.366963689739826,-0.07046655020186023,397.6804911027383,0.37910300975752276,114.82060273403131,0.313529700041,10.1804170609,113.688682556,0
16.900000000000002,20.270212344607838,0.08972844213172868,397.745984999304,0.3771766997714791,114.43534036943639,-0.047394040972,-5.2994799614,115.588806152,0
17.0,20.173460999475854,0.24992343446531184,397.81147889586975,0.3752503897854355,114.05007800484148,-0.047394040972,-5.2994799614,115.588806152,0
17.1,20.076709654343862,0.41011842679890076,397.87697279243554,0.37332407979939186,113.66481564024656,-0.047394040972,-5.2994799614,115.588806152,0
17.2,19.979958309211877,0.5703134191324839,397.94246668900126,0.37139776981334827,113.27955327565165,-0.047394040972,-5.2994799614,115.588806152,0
17.3,19.89176704009923,0.6327353891193589,397.99883929879024,0.370000004768,112.7787643796419,-0.047394040972,-5.2994799614,115.588806152,0
17.400000000000002,19.82621334468016,0.43659143123171973,398.0310901833605,0.370000004768,111.97245946221396,-0.791158914566,-15.5311107635,113.530303955,0
17.5,19.76065964926109,0.2404474733440875,398.06334106793076,0.370000004768,111.16615454478604,-0.791158914566,-15.5311107635,113.530303955,0
17.6,19.695105953842017,0.044303515456448395,398.09559195250097,0.370000004768,110.3598496273581,-0.791158914566,-15.5311107635,113.530303955,0
17.7,19.642582225362506,-0.04904160700325997,398.0784490529637,0.37121303500814107,109.3934843015561,-1.1673850618068364,-16.266278400004495,112.76530512125579,0
17.8,19.60056084471486,-0.059529333785565436,398.0214940262095,0.3734037857269008,108.2981078976253,-2.46742296219,-18.7672576904,110.128982544,0
17.900000000000002,19.558539464067213,-0.07001706056787091,397.9645389994553,0.37559453644566054,107.20273149369449,-2.46742296219,-18.7672576904,110.128982544,0
18.0,19.516518083419566,-0.080504787350176,397.90758397270116,0.37778528716442017,106.10735508976373,-2.46742296219,-18.7672576904,110.128982544,0
18.1,19.47449670277192,-0.09099251413248147,397.85062894594694,0.3799760378831799,105.01197868583291,-2.46742296219,-18.7672576904,110.128982544,0
18.2,19.45832894781794,-0.48620273778598583,397.69785328559993,0.3853386248720612,104.19920598353673,-3.580347088829828,-18.878350650557795,107.81753469673188,0
18.3,19.442447045838037,-0.8856666808685677,397.5440181756648,0.3907362815583941,103.38955791488202,-4.63298082352,-18.9812850952,105.598922729,0
18.400000000000002,19.426565143858134,-1.2851306239511497,397.39018306572973,0.39613393824472704,102.57990984622731,-4.63298082352,-18.9812850952,105.598922729,0
18.5,19.416924094715714,-1.6022442267020065,397.22871137538135,0.40229641093897905,101.69381268164551,-4.63298082352,-18.9812850952,105.598922729,0
18.6,19.42303633194885,-1.7114874424796005,397.04796327501117,0.4103894475979843,100.61474117002255,-5.28953361511,-17.9164295197,102.319709778,0
18.7,19.42914856918199,-1.8207306582571905,396.86721517464105,0.41848248425698925,99.53566965839964,-5.28953361511,-17.9164295197,102.319709778,0
18.8,19.43526080641513,-1.9299738740347843,396.6864670742709,0.4265755209159945,98.45659814677668,-5.28953361511,-17.9164295197,102.319709778,0
18.900000000000002,19.452638684881865,-2.172319762891218,396.5072040480007,0.43250684344197593,97.37329033006301,-5.28953361511,-17.9164295197,102.319709778,0
19.0,19.478280163367504,-2.512299441867849,396.3290303568251,0.4368525002628175,96.2868750887384,-5.55706691742,-15.5924510956,98.4194335938,0
19.1,19.503921641853143,-2.8522791208444924,396.15085666564954,0.4411981570836592,95.20045984741375,-5.55706691742,-15.5924510956,98.4194335938,0
19.200000000000003,19.529563120338786,-3.1922587998211354,395.97268297447397,0.445543813904501,94.1140446060891,-5.55706691742,-15.5924510956,98.4194335938,0
19.3,19.555204598824425,-3.532238478797767,395.7945092832984,0.4498894707253426,93.02762936476448,-5.55706691742,-15.5924510956,98.4194335938,0
19.400000000000002,19.57982985828409,-3.421383619506729,395.63059455576087,0.4540867523414967,92.18264758596936,-5.438490142440694,-14.784090469933199,97.41395524895687,0
19.5,19.604428599174916,-3.2987640850514484,395.46705192055686,0.45828016205801253,91.34396609257688,-5.00121498108,-11.810008049,93.7007751465,0
19.6,19.629027340065747,-3.176144550596163,395.30350928535285,0.4624735717745285,90.50528459918436,-5.00121498108,-11.810008049,93.7007751465,0
19.700000000000003,19.653626080956577,-3.0535250161408776,395.1399666501488,0.4666669814910445,89.66660310579186,-5.00121498108,-11.810008049,93.7007751465,0
19.8,19.673871502751176,-2.910144710964931,394.98338410854575,0.471042988452205,88.89570109153065,-5.00121498108,-11.810008049,93.7007751465,0
19.900000000000002,19.677252889087793,-2.686340626638118,394.85376381406576,0.4761263468250469,88.38736552694307,-3.68134140968,-7.3240237236,89.7817840576,0
20.0,19.680634275424406,-2.462536542311313,394.72414351958577,0.48120970519788864,87.87902996235552,-3.68134140968,-7.3240237236,89.7817840576,0
20.1,19.684015661761023,-2.2387324579844994,394.5945232251058,0.48629306357073054,87.37069439776793,-3.68134140968,-7.3240237236,89.7817840576,0
20.200000000000003,19.679292569775193,-2.0348303053759467,394.48155315205554,0.490000009537,86.94574398050004,-3.68134140968,-7.3240237236,89.7817840576,0
20.3,19.652742543447125,-1.884527920650699,394.4134253594673,0.490000009537,86.7453659617571,-1.78307056427,-3.45086312294,87.860534668,0
20.400000000000002,19.626192517119055,-1.734225535925446,394.34529756687897,0.490000009537,86.54498794301415,-1.78307056427,-3.45086312294,87.860534668,0
20.5,19.599642490790988,-1.583923151200198,394.27716977429066,0.490000009537,86.34460992427121,-1.78307056427,-3.45086312294,87.860534668,0
20.6,19.57309246446292,-1.4336207664749452,394.2090419817024,0.490000009537,86.14423190552827,-1.78307056427,-3.45086312294,87.860534668,0
20.700000000000003,19.54089532856296,-1.2983405376552373,394.1543324454372,0.490000009537,85.93700527955998,-1.78307056427,-3.45086312294,87.860534668,0
20.8,19.494191518422408,-1.2016502315807684,394.13409262697684,0.490000009537,85.71218549150498,0.227314993739,1.54588544369,86.2470550537,0
20.900000000000002,19.447487708281855,-1.104959925506296,394.11385280851647,0.490000009537,85.48736570344997,0.227314993739,1.54588544369,86.2470550537,0
21.0,19.400783898141302,-1.0082696194318272,394.0936129900561,0.490000009537,85.26254591539495,0.227314993739,1.54588544369,86.2470550537,0
21.1,19.35408008800075,-0.911579313357355,394.07337317159573,0.490000009537,85.03772612733994,0.227314993739,1.54588544369,86.2470550537,0
21.200000000000003,19.310504760236135,-0.6131588518329587,394.07159648428336,0.490000009537,85.16180972114176,0.45648666369060326,2.4468408520194393,86.08755432697566,0
21.3,19.26756026904848,-0.2740609162363822,394.07354275815584,0.490000009537,85.35624724015386,1.1660579443,5.2369685173,85.5935592651,0
21.400000000000002,19.224615777860826,0.06503701936020645,394.0754890320283,0.490000009537,85.55068475916596,1.1660579443,5.2369685173,85.5935592651,0
21.5,19.181671286673172,0.4041349549567831,394.07743530590085,0.490000009537,85.74512227817806,1.1660579443,5.2369685173,85.5935592651,0
21.6,19.138726795485514,0.7432328905533717,394.0793815797733,0.490000009537,85.93955979719016,1.1660579443,5.2369685173,85.5935592651,0
21.700000000000003,19.097010044453054,0.5071600259617449,394.0897123132975,0.490000009537,86.19444361680901,1.1660579443,5.2369685173,85.5935592651,0
21.8,19.055847072153483,0.011653310014474894,394.1038249019824,0.490000009537,86.47659206210335,1.63610386848,6.46418714523,86.5425415039,0
21.900000000000002,19.014684099853913,-0.4838534059328127,394.1179374906673,0.490000009537,86.75874050739772,1.63610386848,6.46418714523,86.5425415039,0
22.0,18.973082058747735,-0.8673883967009085,394.1316765270973,0.490000009537,87.0,1.63610386848,6.46418714523,86.5425415039,0
22.1,18.928889354136462,-0.5902500313676873,394.1432114711853,0.490000009537,87.0,1.91485500336,7.65268802643,87.2501983643,0
22.200000000000003,18.884696649525193,-0.31311166603446605,394.1547464152733,0.490000009537,87.0,1.91485500336,7.65268802643,87.2501983643,0
22.3,18.840503944913927,-0.03597330070125471,394.1662813593613,0.490000009537,87.0,1.91485500336,7.65268802643,87.2501983643,0
22.400000000000002,18.807234054249662,0.10908652126817608,394.16998291,0.490000009537,87.14596181935694,1.9785922112186893,6.849128360591974,87.62079025148988,0
22.5,18.779125572775897,0.1917346413728404,394.16998291,0.490000009537,87.36089567097088,2.02534747124,6.26765727997,87.8925857544,0
22.6,18.751017091302128,0.2743827614775077,394.16998291,0.490000009537,87.5758295225848,2.02534747124,6.26765727997,87.8925857544,0
22.700000000000003,18.72290860982836,0.357030881582175,394.16998291,0.490000009537,87.79076337419873,2.02534747124,6.26765727997,87.8925857544,0
22.8,18.695164701228254,0.43164768170375045,394.1695088994597,0.490000009537,88.0,2.02534747124,6.26765727997,87.8925857544,0
22.900000000000002,18.680810115862243,0.2113057862693841,394.1516263519749,0.490000009537,88.0,1.3233643289026296,4.115028037258956,88.27092181773217,0
23.0,18.666455530496236,-0.009036109164974493,394.1337438044901,0.490000009537,88.0,1.19066345692,3.70634078979,88.342124939,0
23.1,18.652100945130226,-0.22937800459934088,394.1158612570053,0.490000009537,88.0,1.19066345692,3.70634078979,88.342124939,0
23.200000000000003,18.639433342447255,-0.38448697352031275,394.0969662096929,0.49037991480573506,88.0,1.19066345692,3.70634078979,88.342124939,0
23.3,18.63995871667505,-0.029444592361198008,394.0701529501885,0.4937308532030836,88.0,0.7180300541728948,2.396983940726975,88.66801797067203,0
23.400000000000002,18.640484090902845,0.32559778879792944,394.0433396906842,0.49708179160043225,88.0,0.552070856094,1.9367518425,88.7831726074,0
23.5,18.641902091970675,0.5818911693682189,394.01749144635255,0.5,87.96432419539747,0.552070856094,1.9367518425,88.7831726074,0
23.6,18.649339715333294,0.1722492913590956,393.9981509907042,0.5,87.68806088083176,0.568665206432,1.94469892979,88.7091445923,0
23.700000000000003,18.656777338695914,-0.23739258665002771,393.9788105350558,0.5,87.41179756626606,0.568665206432,1.94469892979,88.7091445923,0
23.8,18.664214962058534,-0.6470344646591364,393.9594700794074,0.5,87.13553425170036,0.568665206432,1.94469892979,88.7091445923,0
23.900000000000002,18.671118064446873,-0.7849056387956305,393.93652751975685,0.5008969802619105,87.0,0.568665206432,1.94469892979,88.7091445923,0
24.0,18.67750637693473,-0.6610381341298346,393.9101158225981,0.5026578300480882,87.0,0.499300926924,1.00116634369,87.7731323242,0
24.1,18.683894689422587,-0.5371706294640344,393.8837041254393,0.5044186798342659,87.0,0.499300926924,1.00116634369,87.7731323242,0
24.200000000000003,18.690283001910444,-0.4133031247982342,393.8572924282805,0.5061795296204437,87.0,0.499300926924,1.00116634369,87.7731323242,0
24.3,18.6966713143983,-0.2894356201324385,393.8308807311217,0.5079403794066213,87.0,0.499300926924,1.00116634369,87.7731323242,0
24.400000000000002,18.70305962688616,-0.1655681154666383,393.8044690339629,0.509701229192799,87.0,0.499300926924,1.00116634369,87.7731323242,0
24.5,18.714065165487142,-0.17801146591158593,393.78114507239155,0.509999990463,87.0,0.46395285686040716,1.0004527218249128,87.70692284392949,0
24.6,18.726014182080938,-0.2183083996177824,393.75845205470364,0.509999990463,87.0,0.324348717928,0.997640669346,87.4455490112,0
24.700000000000003,18.73796319867473,-0.25860533332397884,393.7357590370157,0.509999990463,87.0,0.324348717928,0.997640669346,87.4455490112,0
24.8,18.749912215268523,-0.29890226703017386,393.7130660193278,0.509999990463,87.0,0.324348717928,0.997640669346,87.4455490112,0
24.900000000000002,18.761861231862316,-0.33919920073637033,393.69037300163984,0.509999990463,87.0,0.324348717928,0.997640669346,87.4455490112,0
25.0,18.766246846017303,-0.23295842148087365,393.6781449163756,0.509999990463,86.70362519745652,0.5800273801778439,2.545016331930113,87.17297228302252,0
25.1,18.77050690503106,-0.1242850646393388,393.666090552671,0.509999990463,86.40233046892837,0.673509716988,3.00878620148,87.0709457397,0
25.200000000000003,18.77476696404481,-0.015611707797803964,393.6540361889664,0.509999990463,86.10103574040022,0.673509716988,3.00878620148,87.0709457397,0
25.3,18.773572327870554,0.025693755447183882,393.65174916118536,0.509999990463,86.0,0.673509716988,3.00878620148,87.0709457397,0
25.400000000000002,18.769625659579628,0.033010407141893267,393.65439000219067,0.509999990463,86.0,1.21681284904,4.46251630783,86.6969299316,0
25.5,18.765678991288706,0.040327058836602384,393.6570308431959,0.509999990463,86.0,1.21681284904,4.46251630783,86.6969299316,0
25.6,18.761732322997783,0.04764371053131177,393.65967168420116,0.509999990463,86.0,1.21681284904,4.46251630783,86.6969299316,0
25.700000000000003,18.75349134381326,0.18032502745748286,393.67577623751345,0.509999990463,86.0,1.453082972772108,5.000893733367404,86.66339150603359,0
25.8,18.74463291103773,0.3310317888962778,393.69381665846976,0.509999990463,86.0,1.65393877029,5.45964002609,86.6349487305,0
25.900000000000002,18.7357744782622,0.4817385503350782,393.71185707942607,0.509999990463,86.0,1.65393877029,5.45964002609,86.6349487305,0
26.0,18.72691604548667,0.6324453117738732,393.7298975003824,0.509999990463,86.0,1.65393877029,5.45964002609,86.6349487305,0
26.1,18.716453278840223,0.39242865607091837,393.76092165562596,0.509999990463,86.0,2.0086713392491666,4.856668936147241,86.38947823205322,0
26.200000000000003,18.70598309970781,0.1506067453033414,393.79200579947286,0.509999990463,86.0,2.06073331833,4.76805448532,86.3536911011,0
26.3,18.6955129205754,-0.09121516546422692,393.8230899433197,0.509999990463,86.0,2.06073331833,4.76805448532,86.3536911011,0
26.400000000000002,18.685042741442984,-0.3330370762318039,393.8541740871666,0.509999990463,86.0,2.06073331833,4.76805448532,86.3536911011,0
26.5,18.674572562310573,-0.5748589869993723,393.8852582310135,0.509999990463,86.0,2.06073331833,4.76805448532,86.3536911011,0
26.6,18.66410238317816,-0.8166808977669493,393.91634237486033,0.509999990463,86.0,2.06073331833,4.76805448532,86.3536911011,0
26.700000000000003,18.655902848149733,-0.44826609336799217,393.93367578965285,0.509999990463,86.0,2.0512243638636445,5.054764278029429,86.42682819756646,0
26.8,18.648004525681884,0.0010997342277521138,393.94918509986593,0.509999990463,86.0,2.01849627495,6.03144407272,86.6770401001,0
26.900000000000002,18.64010620321403,0.4504655618235123,393.964694410079,0.509999990463,86.0,2.01849627495,6.03144407272,86.6770401001,0
27.0,18.632207880746183,0.8998313894192567,393.98020372029214,0.509999990463,86.0,2.01849627495,6.03144407272,86.6770401001,0
27.1,18.629430339332558,1.089749519311463,393.9929934188717,0.509999990463,86.20022046707871,2.01849627495,6.03144407272,86.6770401001,0
27.200000000000003,18.635409809274577,0.8359879817994984,394.00113232888884,0.509999990463,86.74283653460897,2.15976262093,8.48944187164,86.6049499512,0
27.3,18.6413892792166,0.5822264442875428,394.00927123890597,0.509999990463,87.28545260213923,2.15976262093,8.48944187164,86.6049499512,0
27.400000000000002,18.64736874915862,0.32846490677557805,394.01741014892315,0.509999990463,87.82806866966949,2.15976262093,8.48944187164,86.6049499512,0
27.5,18.660734202823328,0.11643365337502015,394.02440443302464,0.5122089113407523,88.22089229841812,1.9662247132472377,11.618801401470355,87.28073615094192,0
27.6,18.677525430143653,-0.07624222187714197,394.03086781569795,0.5154423758994119,88.54423906262757,1.74544966221,15.1889333725,88.0509796143,0
27.700000000000003,18.694316657463983,-0.26891809712930415,394.03733119837125,0.5186758404580716,88.867585826837,1.74544966221,15.1889333725,88.0509796143,0
27.8,18.73031633866067,-0.3474661142188937,394.03701426546763,0.522965377506202,89.29653905696898,1.74544966221,15.1889333725,88.0509796143,0
27.900000000000002,18.779637326208665,-0.3468650143838378,394.0319950977282,0.5279873142181463,89.79873171044488,1.51038181782,22.0906066895,89.1558685303,0
28.0,18.828958313756655,-0.346263914548782,394.0269759299888,0.5330092509300903,90.30092436392077,1.51038181782,22.0906066895,89.1558685303,0
28.1,18.878279301304648,-0.34566281471372623,394.0219567622494,0.5380311876420346,90.80311701739667,1.51038181782,22.0906066895,89.1558685303,0
28.200000000000003,18.951080389312683,-0.38821596686451965,393.9692716242631,0.5458974871823582,92.2974436967049,1.196938715442435,25.038400698905765,90.0685686648978,0
28.3,19.039022930905155,-0.45859770963514496,393.8858484544155,0.5555980117429921,94.43156113530948,0.587903082371,30.7650260925,91.8416366577,0
28.400000000000002,19.12696547249763,-0.5289794524057727,393.80242528456785,0.5652985363036264,96.56567857391414,0.587903082371,30.7650260925,91.8416366577,0
28.5,19.214908014090103,-0.599361195176398,393.71900211472024,0.5749990608642602,98.69979601251872,0.587903082371,30.7650260925,91.8416366577,0
28.6,19.30285055568258,-0.6697429379470259,393.63557894487263,0.5846995854248945,100.83391345112338,0.587903082371,30.7650260925,91.8416366577,0
28.700000000000003,19.416513959191914,-0.9973098719178526,393.530251843678,0.5950630991459985,103.01262483296969,-0.36719072853019563,32.87358973571001,95.31580747286768,0
28.8,19.561160621009446,-1.634681167723715,393.39853934509335,0.606225247239495,105.24505391941324,-2.39935398102,37.3604850769,102.71496582,0
28.900000000000002,19.705807282826978,-2.2720524635296,393.2668268465087,0.6173873953329919,107.47748300585687,-2.39935398102,37.3604850769,102.71496582,0
29.0,19.85045394464451,-2.909423759335463,393.13511434792406,0.6285495434264883,109.70991209230041,-2.39935398102,37.3604850769,102.71496582,0
29.1,19.995100606462046,-3.546795055141348,393.00340184933947,0.6397116915199852,111.94234117874404,-2.39935398102,37.3604850769,102.71496582,0
29.200000000000003,20.155676135644377,-3.1686805448842907,392.9154094402312,0.6426433776660778,114.37905504287477,-1.4013458505789709,39.6205794937018,107.14700509917712,0
29.3,20.316673980567774,-2.7636428623193465,392.8285761645104,0.6453568528397858,116.82118502827142,-0.223186776042,41.9660301208,112.384941101,0
29.400000000000002,20.47767182549118,-2.3586051797543877,392.74174288878964,0.6480703280134941,119.26331501366815,-0.223186776042,41.9660301208,112.384941101,0
29.5,20.627537524829567,-2.0303562955044097,392.67209367969394,0.6514359530557967,121.789785693248,-0.223186776042,41.9660301208,112.384941101,0
29.6,20.749997784865435,-1.8911483050574236,392.64474870487794,0.6564070595844352,124.52388874320263,1.20997023582,43.1293754578,121.848747253,0
29.700000000000003,20.872458044901304,-1.7519403146104378,392.6174037300619,0.6613781661130737,127.25799179315726,1.20997023582,43.1293754578,121.848747253,0
29.8,20.99491830493717,-1.6127323241634568,392.5900587552459,0.666349272641712,129.99209484311177,1.20997023582,43.1293754578,121.848747253,0
29.900000000000002,21.110330554969977,-1.3478046801498849,392.56813037197105,0.670000016689,132.73897993324437,1.3337571775911907,43.58562420294983,124.38424553692757,0
30.0,21.206255368085017,-0.7352677368960946,392.56117862549496,0.670000016689,135.52120680091986,1.73375999928,44.981678009,132.56968689,0
30.1,21.302180181200058,-0.12273079364228234,392.5542268790188,0.670000016689,138.30343366859543,1.73375999928,44.981678009,132.56968689,0
30.200000000000003,21.384657024119182,0.22909809253876104,392.5711536197431,0.670000016689,141.05822674828303,1.73375999928,44.981678009,132.56968689,0
30.3,21.446118666892513,0.1735173905673329,392.6253953738399,0.670000016689,143.77014893095594,2.5685737133,45.1806373596,140.174804688,0
30.400000000000002,21.507580309665844,0.11793668859590281,392.6796371279368,0.670000016689,146.48207111362896,2.5685737133,45.1806373596,140.174804688,0
30.5,21.56904195243917,0.06235598662447467,392.73387888203365,0.670000016689,149.1939932963019,2.5685737133,45.1806373596,140.174804688,0
30.6,21.598358567887473,0.26829843599681585,392.81997502197834,0.6683726644304888,151.95282457262218,2.7781207105833157,45.50465641552315,142.6027367378844,0
30.700000000000003,21.61408113480616,0.5848383465266198,392.9195422989272,0.6660571091303907,154.7314935827566,3.45836853981,46.5562210083,150.474578857,0
30.8,21.629803701724846,0.9013782570564126,393.01910957587603,0.6637415538302927,157.5101625928909,3.45836853981,46.5562210083,150.474578857,0
30.900000000000002,21.645526268643533,1.2179181675862167,393.1186768528248,0.6614259985301945,160.2888316030253,3.45836853981,46.5562210083,150.474578857,0
31.0,21.637827040096646,1.468435166931189,393.2397921988658,0.6552790717333796,162.9441908610082,3.45836853981,46.5562210083,150.474578857,0
31.1,21.592583443230875,1.6131196096452711,393.39544839143355,0.6429905823543696,165.4018886391577,3.7397806295846685,46.644492705100454,160.80907475657662,0
31.200000000000003,21.54733984636511,1.7578040523593532,393.5511045840012,0.6307020929753595,167.8595864173072,3.75820541382,46.6502418518,162.035369873,0
31.3,21.502096249499342,1.9024884950734302,393.7067607765689,0.6184136035963498,170.3172841954566,3.75820541382,46.6502418518,162.035369873,0
31.400000000000002,21.456852652633575,2.0471729377875123,393.86241696913663,0.6061251142173397,172.77498197360612,3.75820541382,46.6502418518,162.035369873,0
31.5,21.371195288004728,2.19272267666743,394.04028465488324,0.5941695618719605,175.0494829043894,3.8318683187640037,45.54824467142538,164.6896800216076,0
31.6,21.24537534752942,2.339132333461811,394.2402257781943,0.5825448771888997,177.14192564846016,4.10949707031,41.4346809387,174.691970825,0
31.700000000000003,21.119555407054115,2.4855419902561917,394.4401669015054,0.5709201925058389,179.23436839253088,4.10949707031,41.4346809387,174.691970825,0
31.8,20.993735466578816,2.6319516470505677,394.6401080248164,0.5592955078227787,181.32681113660152,4.10949707031,41.4346809387,174.691970825,0
31.900000000000002,20.858702828356027,2.7802241329269517,394.8456197811494,0.5466376970154785,183.28819832722053,4.10949707031,41.4346809387,174.691970825,0
32.0,20.68690348627297,2.9359309325165963,395.0733632246869,0.5298568113715393,184.72655948843132,4.502819682817218,37.983203860573425,-49.82693208474342,0
32.1,20.515104144189916,3.0916377321062463,395.3011066682244,0.5130759257275994,186.16492064964214,4.72495222092,36.0316390991,-176.374328613,0
32.2,20.343304802106857,3.2473445316958967,395.5288501117619,0.4962950400836596,187.603281810853,4.72495222092,36.0316390991,-176.374328613,0
32.300000000000004,20.171523646469932,3.405803898177784,395.75717057438385,0.47947370692395175,189.03289265355232,4.72495222092,36.0316390991,-176.374328613,0
32.4,20.000352469872812,3.6565852113098245,396.00484443592916,0.46129575154976077,190.16901510144862,4.463087364358527,29.31583486228267,-172.35404904566428,0
32.5,19.82918129327568,3.907366524441883,396.25251829747447,0.4431177961755685,191.30513754934498,4.31288957596,25.4618740082,-170.035858154,0
32.6,19.658010116678547,4.158147837573941,396.5001921590198,0.42493984080137626,192.44125999724133,4.31288957596,25.4618740082,-170.035858154,0
32.7,19.486838940081416,4.408929150705999,396.7478660205651,0.40676188542718394,193.5773824451377,4.31288957596,25.4618740082,-170.035858154,0
32.800000000000004,19.327526000295116,4.201091932600841,396.980280666093,0.39480422658780306,194.12989451140416,3.9803264509082648,21.97978192799147,-168.5496624408506,0
32.9,19.17523683721295,3.721609426315808,397.203657093908,0.38653092441888914,194.33672710877747,3.30879855156,14.9392080307,-165.401168823,0
33.0,19.022947674130773,3.2421269200307408,397.4270335217231,0.3782576222499746,194.54355970615077,3.30879855156,14.9392080307,-165.401168823,0
33.1,18.870658511048596,2.762644413745673,397.65040994953813,0.3699843200810601,194.75039230352408,3.30879855156,14.9392080307,-165.401168823,0
33.2,18.71836934796642,2.283161907460606,397.8737863773532,0.36171101791214555,194.95722490089742,3.30879855156,14.9392080307,-165.401168823,0
33.300000000000004,18.601808437611798,2.0265471248837716,398.04014471402246,0.35216374891880947,195.26120883582766,3.0442073071704066,12.614380016241501,-165.14695655508118,0
33.4,18.49456303899723,1.828041170424384,398.19163658908457,0.34228431554565325,195.59052326851477,1.96035003662,3.33193635941,-164.048797607,0
33.5,18.38731764038266,1.629535215964982,398.34312846414673,0.3324048821724963,195.9198377012019,1.96035003662,3.33193635941,-164.048797607,0
33.6,18.304371445474047,1.5260647768313258,398.4056604816015,0.330000013113,196.1710442843721,1.368938623332277,1.865324203209931,-163.84005438349078,0
33.7,18.22924328526427,1.453171099201009,398.4395705218923,0.330000013113,196.39712041943525,-0.110354408622,-1.80285847187,-163.318054199,0
33.800000000000004,18.154115125054496,1.3802774215706923,398.473480562183,0.330000013113,196.62319655449843,-0.110354408622,-1.80285847187,-163.318054199,0
33.9,18.078986964844724,1.3073837439403808,398.5073906024737,0.330000013113,196.8492726895616,-0.110354408622,-1.80285847187,-163.318054199,0
34.0,18.020759156767536,1.0811024071827489,398.5067551413237,0.33086082549285867,196.82783735983676,-0.110354408622,-1.80285847187,-163.318054199,0
34.1,17.996338705806977,0.5479853708658016,398.43701507839853,0.3334436014926461,196.3112816672401,-3.09407067299,-6.68881130219,-162.976379395,0
34.2,17.97191825484642,0.014868334548854278,398.36727501547335,0.3360263774924335,195.79472597464346,-3.09407067299,-6.68881130219,-162.976379395,0
34.300000000000004,17.94749780388586,-0.5182487017680932,398.2975349525482,0.3386091534922209,195.2781702820468,-3.09407067299,-6.68881130219,-162.976379395,0
34.4,17.94103961892355,-0.8964686176565552,398.20057532844606,0.34201370934314207,194.69794429696648,-3.09407067299,-6.68881130219,-162.976379395,0
34.5,17.955541477562107,-1.0939401581371362,398.0718533872108,0.346377194402202,194.04342188922604,-5.02823209763,-9.61345291138,-164.99609375,0
34.6,17.97004333620066,-1.291411698617717,397.9431314459755,0.350740679461262,193.38889948148557,-5.02823209763,-9.61345291138,-164.99609375,0
34.7,17.984545194839217,-1.488883239098298,397.81440950474024,0.3551041645203219,192.73437707374512,-5.02823209763,-9.61345291138,-164.99609375,0
34.800000000000004,17.99904705347777,-1.686354779578879,397.685687563505,0.3594676495793819,192.07985466600468,-5.02823209763,-9.61345291138,-164.99609375,0
34.9,18.043590908121505,-1.818625242575808,397.5041386525659,0.3659230436720855,191.40769649843133,-5.573597304825892,-10.101181462795882,-166.0501706820162,0
35.0,18.09230933771156,-1.9418354958420319,397.3152490128624,0.3726691252091366,190.7330877013743,-6.39510631561,-10.8139181137,-167.655151367,0
35.1,18.141027767301612,-2.0650457491082554,397.1263593731589,0.37941520674618767,190.05847890431727,-6.39510631561,-10.8139181137,-167.655151367,0
35.2,18.18974619689167,-2.1882560023744793,396.93746973345543,0.38616128828323876,189.38387010726026,-6.39510631561,-10.8139181137,-167.655151367,0
35.300000000000004,18.247888386066847,-2.3469205528940886,396.7405487749869,0.39285437617312297,188.61941461803886,-6.39510631561,-10.8139181137,-167.655151367,0
35.4,18.318473018335045,-2.5523963650968367,396.53302385046925,0.3994774951261711,187.73633212605358,-7.04454755783,-9.60478591919,-171.123077393,0
35.5,18.38905765060325,-2.757872177299599,396.32549892595165,0.40610061407921966,186.85324963406825,-7.04454755783,-9.60478591919,-171.123077393,0
35.6,18.45964228287145,-2.963347989502361,396.117974001434,0.4127237330322683,185.97016714208291,-7.04454755783,-9.60478591919,-171.123077393,0
35.7,18.530226915139654,-3.1688238017051233,395.91044907691634,0.41934685198531685,185.08708465009758,-7.04454755783,-9.60478591919,-171.123077393,0
35.800000000000004,18.60201623089836,-3.2601287583070904,395.730462077484,0.42825131894651225,184.7249556089447,-6.910922604787988,-8.251625219533999,-172.12521083339567,0
35.9,18.673937342793597,-3.3389430667086013,395.55348781306714,0.4374053725052901,184.4198205024428,-6.62175559998,-5.36434841156,-174.296066284,0
36.0,18.745858454688836,-3.417757375110118,395.3765135486502,0.4465594260640686,184.11468539594088,-6.62175559998,-5.36434841156,-174.296066284,0
36.1,18.81061343406243,-3.180960143209771,395.20769167552606,0.451930296122483,183.61393917369426,-6.144522932023664,-4.464432127018287,-175.1368153140474,0
36.2,18.871053097108216,-2.754107308933331,395.0437790260522,0.45502300100869447,182.99539944998457,-5.73481988907,-3.71678924561,-175.857925415,0
36.300000000000004,18.931492760154,-2.3272544746568915,394.8798663765784,0.45811570589490597,182.3768597262749,-5.73481988907,-3.71678924561,-175.857925415,0
36.4,18.98281789718091,-2.1729002086234335,394.73235807879394,0.46176444911958436,181.8235557542667,-5.73481988907,-3.71678924561,-175.857925415,0
36.5,19.01993044807304,-2.4434621000227352,394.61042963682297,0.46628024157571474,181.3719760779821,-4.94154548645,-1.17864155769,-177.763916016,0
36.6,19.057042998965166,-2.7140239914220374,394.48850119485195,0.47079603403184517,180.92039640169753,-4.94154548645,-1.17864155769,-177.763916016,0
36.7,19.094155549857295,-2.9845858828213396,394.366572752881,0.47531182648797554,180.46881672541295,-4.94154548645,-1.17864155769,-177.763916016,0
36.800000000000004,19.13126810074942,-3.255147774220642,394.24464431090996,0.47982761894410597,180.01723704912837,-4.94154548645,-1.17864155769,-177.763916016,0
36.9,19.143468548355433,-2.7462303598249,394.16995847911437,0.479999989271,179.74988549901627,-3.5331043517889618,0.9996904946541558,-178.84428952270892,0
37.0,19.154680349852626,-2.2063790185048484,394.0971474879207,0.479999989271,179.48984511079135,-2.86283969879,1.88430833817,-179.358779907,0
37.1,19.16589215134982,-1.6665276771847974,394.0243364967271,0.479999989271,179.22980472256646,-2.86283969879,1.88430833817,-179.358779907,0
37.2,19.175926403160883,-1.176106923127938,393.9532537432498,0.48024062337051204,179.0240633611844,-2.86283969879,1.88430833817,-179.358779907,0
37.300000000000004,19.177010745220144,-1.061380970059728,393.8953063774111,0.4823101853693811,179.2310191416547,-1.2504686456053795,3.286926749673831,173.1233571424997,0
37.4,19.17809508727941,-0.9466550169915264,393.8373590115724,0.48437974736824996,179.43797492212502,-1.22202086449,3.31041312218,179.547866821,0
37.5,19.17917942933867,-0.8319290639233166,393.7794116457337,0.486449309367119,179.64493070259533,-1.22202086449,3.31041312218,179.547866821,0
37.6,19.180263771397932,-0.7172031108551066,393.721464279895,0.48851887136598804,179.85188648306567,-1.22202086449,3.31041312218,179.547866821,0
37.7,19.176953973833044,-0.5886343030385538,393.67140647775864,0.49061324466018297,180.0,-1.22202086449,3.31041312218,179.547866821,0
37.800000000000004,19.162583563801473,-0.42522125609896516,393.6412077183716,0.4927700711638497,180.0,-0.452751368284,3.32382130623,-179.313537598,0
37.9,19.1482131537699,-0.2618082091593881,393.6110089589846,0.49492689766751624,180.0,-0.452751368284,3.32382130623,-179.313537598,0
38.0,19.133842743738327,-0.09839516221979938,393.5808101995976,0.4970837241711829,180.0,-0.452751368284,3.32382130623,-179.313537598,0
38.1,19.119472333706756,0.06501788471978931,393.5506114402105,0.4992405506748496,180.0,-0.452751368284,3.32382130623,-179.313537598,0
38.2,19.101414645941208,0.020016254577074552,393.5515086061735,0.498352948326939,179.83529467561442,-0.17305524134179334,3.8155492842366563,-179.3760173719739,0
38.300000000000004,19.08135298914728,-0.1382549983239289,393.569305847424,0.49581075373840394,179.5810749743116,0.850217759609,5.61502313614,-179.620117188,0
38.400000000000006,19.061291332353356,-0.2965262512249324,393.58710308867455,0.4932685591498689,179.32685527300876,0.850217759609,5.61502313614,-179.620117188,0
38.5,19.041229675559432,-0.4547975041259247,393.60490032992504,0.490726364561334,179.07263557170594,0.850217759609,5.61502313614,-179.620117188,0
38.6,19.018985997951948,-0.3948393448852188,393.6402440687618,0.4882202219862156,179.0,0.850217759609,5.61502313614,-179.620117188,0
38.7,18.9958694889488,-0.2475871134744716,393.68260659215,0.48572850059763745,179.0,1.68154120445,3.4887213707,179.150115967,0
38.800000000000004,18.97275297994565,-0.10033488206372437,393.7249691155383,0.48323677920905933,179.0,1.68154120445,3.4887213707,179.150115967,0
38.900000000000006,18.9496364709425,0.04691734934702285,393.76733163892646,0.48074505782048116,179.0,1.68154120445,3.4887213707,179.150115967,0
39.0,18.928488504883553,0.1856544408459544,393.8038373290665,0.479999989271,179.14024086342846,1.6903463836092807,3.5638177892911247,179.17795622537326,0
39.1,18.90818025888986,0.32075923472930384,393.8378446737109,0.479999989271,179.34030417946673,1.78360366821,4.28422546387,179.47366333,0
39.2,18.887872012896167,0.4558640286126533,393.87185201835536,0.479999989271,179.54036749550497,1.78360366821,4.28422546387,179.47366333,0
39.300000000000004,18.867563766902474,0.5909688224960027,393.9058593629998,0.479999989271,179.74043081154323,1.78360366821,4.28422546387,179.47366333,0
39.400000000000006,18.84725552090878,0.7260736163793522,393.9398667076442,0.479999989271,179.9404941275815,1.78360366821,4.28422546387,179.47366333,0
39.5,18.82838058893174,0.7085969793524606,393.969549688254,0.479999989271,180.17786524120524,1.7002281147032892,6.584888996704014,12.192545970678879,0
39.6,18.81011245940367,0.6265240397224903,393.9974019223169,0.479999989271,180.43103084415782,1.60443758965,9.22599506378,-179.937942505,0
39.7,18.791844329875598,0.5444511000925201,394.0252541563798,0.479999989271,180.6841964471104,1.60443758965,9.22599506378,-179.937942505,0
39.800000000000004,18.77357620034753,0.4623781604625497,394.0531063904427,0.479999989271,180.93736205006297,1.60443758965,9.22599506378,-179.937942505,0
39.900000000000006,18.7643368681095,0.26965109896010253,394.0564197062707,0.48357435319586217,181.53615430110935,1.60443758965,9.22599506378,-179.937942505,0
40.0,18.758065846999507,0.04054534262532916,394.0516655971996,0.4883238264816943,182.24857491180614,1.10142791271,14.5553894043,-178.302200317,0
40.1,18.751794825889515,-0.18856041370946047,394.0469114881285,0.4930732997675268,182.96099552250297,1.10142791271,14.5553894043,-178.302200317,0
40.2,18.745523804779523,-0.41766617004425016,394.04215737905736,0.49782277305335926,183.6734161331998,1.10142791271,14.5553894043,-178.302200317,0
40.300000000000004,18.746627450054618,-0.6303600295933555,394.01547387545867,0.5024510112070499,184.49020270891629,0.4433217710458188,19.49073163700931,-176.64278340460515,0
40.400000000000006,18.753973235567777,-0.8291623642978742,393.97022867037686,0.506976632285324,185.3953277877889,-0.0185476988554,22.9566612244,-175.479766846,0
40.5,18.767903723387132,-0.9332159193426692,393.9223291677769,0.5124099713916284,186.4819956877438,-0.0185476988554,22.9566612244,-175.479766846,0
