t_sec,airspeed,climb,altitude,throttle,heading,pitch,roll,yaw,is_boundary
0.0,12.4828557968,0.672954678535,431.549987793,0.419999986887,271.0,-0.246220424771,1.02729797363,-87.2873687744,0
0.1,12.478683886227495,0.41145019993731996,431.5261632355004,0.4080872288307316,271.0,-0.2586739377834032,1.0369648237381046,-87.31421522909619,0
0.2,12.474511975654991,0.1499457213396399,431.5023386780008,0.3961744707744632,271.0,-0.682637929916,1.20494759083,-88.2376022339,0
0.30000000000000004,12.470340065082485,-0.11155875725804021,431.4785141205012,0.3842617127181948,271.0,-0.682637929916,1.20494759083,-88.2376022339,0
0.4,12.466168154509981,-0.3730632358557202,431.4546895630016,0.3723489546619264,271.0,-0.682637929916,1.20494759083,-88.2376022339,0
0.5,12.461996243937477,-0.6345677144534001,431.43086500550197,0.360436196605658,271.0,-0.682637929916,1.20494759083,-88.2376022339,0
0.6000000000000001,12.432797103261933,-0.5845896526576005,431.3531328040387,0.3414481720544027,271.5300524642215,-0.7157395569698335,1.6420799125885417,-88.24236453650273,0
0.7000000000000001,12.40264676991029,-0.522773288743052,431.2733517719253,0.3221912427284769,272.08025026693394,-1.67883479595,14.5952148438,-88.3820114136,0
0.8,12.372496436558645,-0.46095692482850326,431.1935707398119,0.3029343134025511,272.63044806964643,-1.67883479595,14.5952148438,-88.3820114136,0
0.9,12.34460855188452,-0.3661797151886036,431.0876119389107,0.28444539660847656,273.23805409774815,-1.67883479595,14.5952148438,-88.3820114136,0
1.0,12.321349016948947,-0.20397365148835514,430.9281005997669,0.2675276229021199,273.9631016163958,-2.910500560032177,25.14496095022681,-87.38574555284065,0
1.1,12.298089482013372,-0.04176758778810652,430.76858926062306,0.2506098491957632,274.68814913504343,-3.42652964592,29.5491943359,-86.9067153931,0
1.2000000000000002,12.2748299470778,0.12043847591214207,430.60907792147924,0.2336920754894065,275.4131966536911,-3.42652964592,29.5491943359,-86.9067153931,0
1.3,12.254419828205595,0.13290636071923606,430.42931793329484,0.21613995129806823,276.24125297476274,-3.42652964592,29.5491943359,-86.9067153931,0
1.4000000000000001,12.246104590822606,-0.4902175697251069,430.1636087523579,0.19589520736715915,277.5065494987239,-4.753598924611607,30.941074680200657,-85.6762711912327,0
1.5,12.237789353439616,-1.1133415001694484,429.89789957142096,0.17565046343625013,278.7718460226851,-7.55691623688,33.7742080688,-83.0373077393,0
1.6,12.229474116056627,-1.7364654306137914,429.6321903904841,0.15540571950534104,280.03714254664635,-7.55691623688,33.7742080688,-83.0373077393,0
1.7000000000000002,12.226780993618139,-2.2955849810351894,429.32938194401993,0.1364490589416905,281.29591179276775,-7.55691623688,33.7742080688,-83.0373077393,0
1.8,12.241986667347257,-2.6509375570753293,428.9084627512983,0.12159319351741947,282.5339005289322,-11.422948516370093,32.863416607033926,-79.17226478465354,0
1.9000000000000001,12.257192341076374,-3.00629013311547,428.4875435585767,0.10673732809314843,283.7718892650966,-12.0480556488,32.724319458,-78.5421295166,0
2.0,12.272398014805493,-3.3616427091556096,428.0666243658551,0.09188146266887742,285.00987800126103,-12.0480556488,32.724319458,-78.5421295166,0
2.1,12.293476360508263,-3.7060883503538533,427.6293994922246,0.07884388863980674,286.19268494495253,-12.0480556488,32.724319458,-78.5421295166,0
2.2,12.338013528370414,-4.0069654343590555,427.1270403712965,0.07306961395136198,287.1550641409566,-15.269055863659366,29.57724601146165,-74.71319804420033,0
2.3000000000000003,12.382550696232567,-4.307842518364258,426.6246812503685,0.06729533926291724,288.1174433369607,-15.8946218491,28.9644184113,-73.9713516235,0
2.4000000000000004,12.42708786409472,-4.608719602369461,426.1223221294405,0.061521064574472484,289.0798225329648,-15.8946218491,28.9644184113,-73.9713516235,0
2.5,12.47162503195687,-4.909596686374662,425.6199630085124,0.055746789886027756,290.0422017289689,-15.8946218491,28.9644184113,-73.9713516235,0
2.6,12.516431050412356,-5.210484329765429,425.1169902205925,0.0500000007451,291.0045528480832,-15.8946218491,28.9644184113,-73.9713516235,0
2.7,12.617449435361298,-5.513579772082656,424.4857094627242,0.0500000007451,291.96103353783485,-15.8946218491,28.9644184113,-73.9713516235,0
2.8000000000000003,12.718467820310241,-5.816675214399883,423.8544287048558,0.0500000007451,292.9175142275865,-19.5451889038,23.0414524078,-68.652633667,0
2.9000000000000004,12.819486205259183,-6.119770656717109,423.22314794698747,0.0500000007451,293.87399491733817,-19.5451889038,23.0414524078,-68.652633667,0
3.0,12.933860721626107,-6.4983850943792385,422.5938966240499,0.05200033517688946,294.80013393963975,-19.603333141864066,22.802869124778372,-68.49288769111863,0
3.1,13.050261715867874,-6.88845775811055,421.9649532199892,0.05430417317130887,295.7216693296582,-20.6989040375,18.2886829376,-65.4934997559,0
3.2,13.166662710109643,-7.278530421841863,421.3360098159285,0.05660801116572827,296.6432047196767,-20.6989040375,18.2886829376,-65.4934997559,0
3.3000000000000003,13.28306370435141,-7.668603085573175,420.70706641186786,0.058911849160147675,297.56474010969515,-20.6989040375,18.2886829376,-65.4934997559,0
3.4000000000000004,13.407795953692595,-7.5964236788328705,420.0162848879331,0.06210541813140529,298.4210838254812,-20.6989040375,18.2886829376,-65.4934997559,0
3.5,13.539985418506921,-7.110487490997995,419.2701527380902,0.06609537558533883,299.21907518546914,-22.0779418945,12.7168884277,-61.4252510071,0
3.6,13.671966478541043,-6.6382285304699575,418.52526728542523,0.0701593230471907,300.00531075809533,-22.0779418945,12.7168884277,-61.4252510071,0
3.7,13.794411428016769,-6.791807190375335,417.8374277513371,0.07760887853123936,300.2536292643638,-22.0779418945,12.7168884277,-61.4252510071,0
3.8000000000000003,13.916856377492495,-6.945385850280712,417.14958821724895,0.08505843401528801,300.5019477706322,-22.5162277222,11.0230360031,-59.2150268555,0
3.9000000000000004,14.039301326968221,-7.09896451018609,416.4617486831608,0.09250798949933667,300.7502662769006,-22.5162277222,11.0230360031,-59.2150268555,0
4.0,14.161746276443948,-7.252543170091467,415.77390914907267,0.0999575449833853,300.99858478316906,-22.5162277222,11.0230360031,-59.2150268555,0
4.1000000000000005,14.3138669308363,-7.397755333903701,415.07154059075475,0.11069058295810497,301.0,-22.5162277222,11.0230360031,-59.2150268555,0
4.2,14.466157682424049,-7.542919542072597,414.3690887540015,0.12144244141794418,301.0,-21.4028396606,10.4080581665,-58.4534492493,0
4.3,14.606578836087378,-7.644311165813611,413.6829026165362,0.1308147081134678,301.1222068666684,-21.4028396606,10.4080581665,-58.4534492493,0
4.4,14.700709825263012,-7.574994384255605,413.06015096946726,0.1348067142388626,301.721007464281,-21.241247591905783,9.794132340918482,-58.399804666158595,0
4.5,14.794840814438643,-7.5056776026976,412.43739932239833,0.1387987203642574,302.3198080618936,-20.5265083313,7.25288581848,-58.162563324,0
4.6000000000000005,14.888971803614279,-7.436360821139594,411.8146476753294,0.1427907264896522,302.91860865950616,-20.5265083313,7.25288581848,-58.162563324,0
4.7,14.98310279278991,-7.3670440395815895,411.19189602826054,0.14678273261504696,303.51740925711874,-20.5265083313,7.25288581848,-58.162563324,0
4.800000000000001,15.07293654262467,-7.302300530192604,410.5640344507304,0.15128539259970739,304.08569243923944,-20.5265083313,7.25288581848,-58.162563324,0
4.9,15.144924921852557,-7.25654868737569,409.9149525976645,0.1579086715789273,304.5272443536284,-19.953103155821097,6.273410656118931,-56.81492937535361,0
5.0,15.216913301080442,-7.210796844558775,409.26587074459866,0.1645319505581472,304.96879626801734,-19.5242767334,5.54129171371,-55.8075294495,0
5.1000000000000005,15.28890168030833,-7.165045001741861,408.6167888915328,0.17115522953736717,305.4103481824063,-19.5242767334,5.54129171371,-55.8075294495,0
5.2,15.360890059536215,-7.119293158924946,407.9677070384669,0.17777850851658708,305.85190009679525,-19.5242767334,5.54129171371,-55.8075294495,0
5.300000000000001,15.390421647819284,-7.013840776570971,407.34034668850495,0.18399658829398585,306.0,-19.369317455217026,5.646645125719348,-55.68881602084011,0
5.4,15.3985260644025,-6.878258615616978,406.7239487868634,0.19001017138953805,306.0,-17.1692848206,7.14950704575,-53.9829216003,0
5.5,15.406630480985713,-6.742676454662984,406.1075508852219,0.1960237544850902,306.0,-17.1692848206,7.14950704575,-53.9829216003,0
5.6000000000000005,15.42736234988384,-6.589246558579442,405.5009502117188,0.20192303356842348,306.0,-17.1692848206,7.14950704575,-53.9829216003,0
5.7,15.472739109339402,-6.400983390669062,404.9134707044824,0.20759922648986429,306.0,-15.952522559033609,7.4427865036423055,-53.67225155181039,0
5.800000000000001,15.518115868794965,-6.212720222758679,404.32599119724597,0.21327541941130518,306.0,-15.5750408173,7.52156496048,-53.5653343201,0
5.9,15.563492628250529,-6.024457054848298,403.73851169000955,0.218951612332746,306.0,-15.5750408173,7.52156496048,-53.5653343201,0
6.0,15.613779159716637,-5.8023474007537885,403.23631493691363,0.219999998808,306.0,-15.5750408173,7.52156496048,-53.5653343201,0
6.1000000000000005,15.665177954332101,-5.5725701402537515,402.75343819796547,0.219999998808,306.0,-13.3734989166,7.01128435135,-53.4215545654,0
6.2,15.716576748947563,-5.342792879753716,402.2705614590173,0.219999998808,306.0,-13.3734989166,7.01128435135,-53.4215545654,0
6.300000000000001,15.764259178820787,-5.153690536818723,401.8055182208023,0.21951368275586738,306.0,-13.3734989166,7.01128435135,-53.4215545654,0
6.4,15.790837359292938,-5.195570259477068,401.4417467019342,0.2162657068657484,306.0,-12.991561538645904,7.61600888496085,-53.30291379690548,0
6.5,15.817415539765088,-5.237449982135414,401.0779751830661,0.21301773097562937,306.0,-12.2582826614,8.76073741913,-53.0750274658,0
6.6000000000000005,15.839382625225188,-5.242350853067776,400.7123465221218,0.2103054493988439,306.0458183687973,-12.2582826614,8.76073741913,-53.0750274658,0
6.7,15.800912020649141,-4.762569371399282,400.3223762727121,0.21461452105350481,306.6921787702564,-12.252045411259498,8.736884745733192,-53.22725997983303,0
6.800000000000001,15.762441416073097,-4.282787889730785,399.9324060233025,0.21892359270816575,307.3385391717155,-12.220448494,8.61525058746,-53.995136261,0
6.9,15.72397081149705,-3.8030064080622914,399.54243577389286,0.22323266436282665,307.98489957317463,-12.220448494,8.61525058746,-53.995136261,0
7.0,15.685500206921006,-3.3232249263937983,399.15246552448326,0.22754173601748753,308.63125997463374,-12.220448494,8.61525058746,-53.995136261,0
7.1000000000000005,15.659302279247724,-3.0626122447077915,398.7343958073287,0.24801563552086545,308.8713169194845,-12.220448494,8.61525058746,-53.995136261,0
7.2,15.649405126237047,-3.093103227682267,398.2790039072896,0.28995992965040895,308.57171481983465,-13.119474807772626,2.929577913405507,-51.79315208957887,0
7.300000000000001,15.639507973226372,-3.1235942106567425,397.8236120072505,0.3319042237799529,308.2721127201848,-13.6493282318,-0.0924724936485,-50.4951553345,0
7.4,15.635152259511813,-3.1949012677142683,397.37597035788843,0.3724629092560726,307.95521991209,-13.6493282318,-0.0924724936485,-50.4951553345,0
7.5,15.685650316596984,-3.6702397420726536,397.00504712978153,0.3993056889121456,307.4671693041312,-13.6493282318,-0.0924724936485,-50.4951553345,0
7.6000000000000005,15.736148373682155,-4.145578216431042,396.6341239016747,0.42614846856821875,306.9791186961724,-11.5057258606,1.76593840122,-51.2633552551,0
7.7,15.786646430767327,-4.620916690789428,396.2632006735678,0.4529912482242917,306.49106808821364,-11.5057258606,1.76593840122,-51.2633552551,0
7.800000000000001,15.8371444878525,-5.0962551651478165,395.8922774454609,0.4798340278803649,306.0030174802548,-11.5057258606,1.76593840122,-51.2633552551,0
7.9,15.853750435546393,-4.946614519503101,395.65650935588,0.4944120507044309,305.42351733650105,-11.5057258606,1.76593840122,-51.2633552551,0
8.0,15.870145534197114,-4.793085763858101,395.4215820912625,0.5089137722215198,304.84344826837315,-6.09614372253,2.75773119926,-53.7891654968,0
8.1,15.886540632847836,-4.639557008213101,395.18665482664505,0.5234154937386087,304.2633792002453,-6.09614372253,2.75773119926,-53.7891654968,0
8.200000000000001,15.85664592562997,-4.162559381133026,395.05881673757546,0.5342343282226519,304.10585886403095,-6.09614372253,2.75773119926,-53.7891654968,0
8.3,15.788253706222351,-3.416544708346844,395.0200407381753,0.5419902423554913,304.2997566133403,-3.672035894499989,1.417530228522497,-54.64966877106733,0
8.4,15.71986148681473,-2.670530035560662,394.9812647387751,0.5497461564883306,304.49365436264975,-1.15820455551,0.0900679156184,-55.5530204773,0
8.5,15.651469267407112,-1.9245153627744798,394.94248873937494,0.5575020706211699,304.6875521119591,-1.15820455551,0.0900679156184,-55.5530204773,0
8.6,15.583077047999492,-1.1785006899882973,394.9037127399747,0.5652579847540091,304.8814498612685,-1.15820455551,0.0900679156184,-55.5530204773,0
8.700000000000001,15.485748035649708,-0.6089911761453448,394.9417057641692,0.5691309567214167,304.91309630456163,-1.15820455551,0.0900679156184,-55.5530204773,0
8.8,15.342890561396105,-0.3171906821249131,395.10048534453483,0.5668945998213527,304.68946040127366,4.77652311325,3.80533051491,-54.3935585022,0
8.9,15.2000330871425,-0.025390188104481348,395.2592649249005,0.5646582429212887,304.4658244979857,4.77652311325,3.80533051491,-54.3935585022,0
9.0,15.057175612888898,0.2664103059159504,395.41804450526615,0.5624218860212249,304.2421885946977,4.77652311325,3.80533051491,-54.3935585022,0
9.1,14.914318138635295,0.5582107999363821,395.5768240856318,0.5601855291211609,304.0185526914098,4.77652311325,3.80533051491,-54.3935585022,0
9.200000000000001,14.768551884747689,1.660873911222792,395.8178198254636,0.5571161947134345,304.0,4.925908828119815,3.879892008875445,-54.440050087443694,0
9.3,14.622522490399028,2.83689107121994,396.0662531854765,0.5539715056508371,304.0,8.31334209442,5.01401090622,-55.4962997437,0
9.4,14.476493096050367,4.012908231217089,396.3146865454894,0.5508268165882396,304.0,8.31334209442,5.01401090622,-55.4962997437,0
9.5,14.323537188085638,4.320897371113564,396.57374259506213,0.5453871797950273,304.0,8.31334209442,5.01401090622,-55.4962997437,0
9.600000000000001,14.16811054698299,4.319255185241022,396.8365878281353,0.5391289199943243,304.0,8.83871555328,2.61337685585,-55.8375015259,0
9.700000000000001,14.012683905880346,4.317612999368479,397.09943306120846,0.5328706601936215,304.0,8.83871555328,2.61337685585,-55.8375015259,0
9.8,13.87777877439652,4.485131711350683,397.34816707891497,0.5270536161016728,304.0,8.83871555328,2.61337685585,-55.8375015259,0
9.9,13.76026394054687,4.796000421281439,397.58494299803306,0.5216104661646197,304.0,8.377074835115527,2.885643451989053,-55.35634032353486,0
10.0,13.642749106697222,5.106869131212196,397.8217189171512,0.5161673162275665,304.0,8.22914981842,2.96623492241,-55.2022209167,0
10.100000000000001,13.525234272847571,5.417737841142958,398.0584948362693,0.5107241662905133,304.0,8.22914981842,2.96623492241,-55.2022209167,0
10.200000000000001,13.468510040368347,4.900496932137102,398.27750601969143,0.506093507714912,303.6093513526296,8.22914981842,2.96623492241,-55.2022209167,0
10.3,13.421114760121235,4.256173959393545,398.49379101901627,0.5015875344184347,303.1587535932468,7.33652305603,2.16395235062,-55.866191864,0
10.4,13.37371947987412,3.611850986649988,398.7100760183411,0.4970815611219574,302.70815583386394,7.33652305603,2.16395235062,-55.866191864,0
10.5,13.326324199627008,2.9675280139064313,398.92636101766595,0.49257558782548005,302.25755807448115,7.33652305603,2.16395235062,-55.866191864,0
10.600000000000001,13.290008112848918,2.5962283585751025,399.09805628582626,0.490000009537,302.0,7.33652305603,2.16395235062,-55.866191864,0
10.700000000000001,13.268474145810297,2.589202815880061,399.2102588890134,0.490000009537,302.0,6.585968466370582,2.075513977422085,-56.50110437106377,0
10.8,13.246940178771675,2.58217727318502,399.3224614922006,0.490000009537,302.0,5.24091005325,1.9183961153,-57.6509284973,0
10.9,13.225406211733052,2.5751517304899787,399.4346640953878,0.490000009537,302.0,5.24091005325,1.9183961153,-57.6509284973,0
11.0,13.20387224469443,2.5681261877949377,399.546866698575,0.490000009537,302.0,5.24091005325,1.9183961153,-57.6509284973,0
11.100000000000001,13.211105363562956,2.6085324803415935,399.6442639095493,0.4884495313863952,302.0,5.24091005325,1.9183961153,-57.6509284973,0
11.200000000000001,13.236300851134157,2.6785555410101916,399.7324165305581,0.48593092388488907,302.0,3.0877075679911368,2.2269980069214763,-57.534475420624915,0
11.3,13.261496338705358,2.7485786016787896,399.8205691515669,0.48341231638338295,302.0,2.88416004181,2.24561262131,-57.5225563049,0
11.4,13.286691826276558,2.8186016623473877,399.90872177257563,0.4808937088818768,302.0,2.88416004181,2.24561262131,-57.5225563049,0
11.5,13.312369077759028,2.4462927862231267,399.94785237017646,0.48196355412845915,301.60728782437866,2.88416004181,2.24561262131,-57.5225563049,0
11.600000000000001,13.338311308664263,1.8306928321674405,399.96001991147216,0.485007117446403,300.9985763944045,0.955533087254,1.14159202576,-58.0024986267,0
11.700000000000001,13.364253539569496,1.2150928781117651,399.9721874527679,0.4880506807643468,300.38986496443033,0.955533087254,1.14159202576,-58.0024986267,0
11.8,13.392293389845516,0.7498398984588838,399.9709552853666,0.490000009537,299.90972612420205,0.955533087254,1.14159202576,-58.0024986267,0
11.9,13.424070053048109,0.5524231741555305,399.94585215006305,0.490000009537,299.65863346940546,0.7107542311055493,2.1003165312989225,-58.764941177569916,0
12.0,13.4558467162507,0.3550064498521773,399.92074901475945,0.490000009537,299.40754081460886,0.586396634579,2.58641672134,-59.1683502197,0
12.100000000000001,13.487623379453293,0.15758972554882056,399.89564587945586,0.490000009537,299.1564481598122,0.586396634579,2.58641672134,-59.1683502197,0
12.200000000000001,13.521558435307748,-0.0969710697319476,399.85825379577994,0.49189131627497445,299.0,0.586396634579,2.58641672134,-59.1683502197,0
12.3,13.559061332678946,-0.4459915031572458,399.80054797532307,0.4969089692293392,299.0,0.3150310548299924,2.8544629581962035,-59.813899134372974,0
12.4,13.596564230050141,-0.795011936582544,399.7428421548662,0.501926622183704,299.0,0.222207933664,2.9431552887,-60.0353355408,0
12.5,13.634067127421337,-1.144032370007842,399.68513633440926,0.5069442751380687,299.0,0.222207933664,2.9431552887,-60.0353355408,0
12.600000000000001,13.667328362293686,-1.1786258543042967,399.6289775647116,0.509999990463,299.0,0.222207933664,2.9431552887,-60.0353355408,0
12.700000000000001,13.693983213300172,-0.7234997712657438,399.5752283245741,0.509999990463,299.0,0.3669686148725778,2.004761068232444,-60.35458572544003,0
12.8,13.720638064306657,-0.26837368822719077,399.5214790844366,0.509999990463,299.0,0.389900803566,1.86783516407,-60.4052314758,0
12.9,13.741323639457905,-0.11668451855930713,399.47557895579035,0.511200978038775,299.12009887210377,0.389900803566,1.86783516407,-60.4052314758,0
13.0,13.753565263845244,-0.3942277078225301,399.4407819345528,0.5141008450437875,299.41008584913664,0.935863435268,1.00695812702,-60.5273132324,0
13.100000000000001,13.765806888232582,-0.671770897085758,399.40598491331525,0.5170007120488002,299.70007282616945,0.935863435268,1.00695812702,-60.5273132324,0
13.200000000000001,13.778048512619922,-0.9493140863489811,399.3711878920777,0.5199005790538128,299.9900598032023,0.935863435268,1.00695812702,-60.5273132324,0
13.3,13.796758792688557,-0.7565246897547087,399.34122222767667,0.519999980927,300.35958430034503,0.935863435268,1.00695812702,-60.5273132324,0
13.4,13.815698676219995,-0.5470409449523844,399.3114280511882,0.519999980927,300.73193196368175,1.38228547573,0.884783565998,-59.7249908447,0
13.5,13.835050919439219,-0.30347852568658007,399.28682732383584,0.519999980927,301.06302945129426,1.38228547573,0.884783565998,-59.7249908447,0
13.600000000000001,13.855463201468732,0.02768876525888808,399.27557721684366,0.519999980927,301.2880865365738,1.655537592794893,2.5336996397424554,-59.09434171371082,0
13.700000000000001,13.875875483498245,0.3588560562043503,399.26432710985154,0.519999980927,301.5131436218534,1.83949673176,3.50380706787,-58.6692771912,0
13.8,13.896287765527756,0.6900233471498127,399.2530770028594,0.519999980927,301.738200707133,1.83949673176,3.50380706787,-58.6692771912,0
13.9,13.916700047557269,1.0211906380952749,399.24182689586723,0.519999980927,301.96325779241255,1.83949673176,3.50380706787,-58.6692771912,0
14.0,13.933903850807836,0.9679612485897935,399.2307112751017,0.519999980927,302.0,1.83949673176,3.50380706787,-58.6692771912,0
14.100000000000001,13.950481646199751,0.8397320353733244,399.2196218940094,0.519999980927,302.0,2.91280937195,4.34109354019,-57.7246055603,0
14.200000000000001,13.967059441591669,0.7115028221568575,399.2085325129171,0.519999980927,302.0,2.91280937195,4.34109354019,-57.7246055603,0
14.3,13.983637236983585,0.5832736089403906,399.1974431318248,0.519999980927,302.0,2.91280937195,4.34109354019,-57.7246055603,0
14.4,13.996137810737546,0.48462034160196443,399.19080248764976,0.519999980927,302.0,2.91280937195,4.34109354019,-57.7246055603,0
14.5,14.000323799419114,0.44628062597486584,399.19323405118087,0.519999980927,302.0,3.3842614285764907,5.895071829151016,-57.66037303725502,0
14.600000000000001,14.004509788100684,0.4079409103477666,399.19566561471197,0.519999980927,302.0,3.92873454094,7.43821239471,-57.5860290527,0
14.700000000000001,14.008695776782252,0.369601194720668,399.1980971782431,0.519999980927,302.0,3.92873454094,7.43821239471,-57.5860290527,0
14.8,14.016429208441144,0.29353397141233994,399.19738219221585,0.519999980927,302.0,3.92873454094,7.43821239471,-57.5860290527,0
14.9,14.036383023152476,0.08750141859046145,399.185827837905,0.519999980927,302.0,3.8725827080517123,7.069956691150689,-57.62095961429611,0
15.0,14.056336837863808,-0.11853113423141703,399.1742734835941,0.519999980927,302.0,3.56854844093,5.08106231689,-57.8157081604,0
15.100000000000001,14.075053689174272,-0.18903184330113898,399.15591219339177,0.519999980927,302.0,3.56854844093,5.08106231689,-57.8157081604,0
15.200000000000001,14.093039890329997,-0.1794765357254709,399.13353017892314,0.519999980927,302.0,3.20007371902,5.70769119263,-57.4720993042,0
15.3,14.111026091485723,-0.16992122814980284,399.1111481644545,0.519999980927,302.0,3.20007371902,5.70769119263,-57.4720993042,0
15.4,14.130099784313934,-0.33971304609823316,399.0955109604858,0.5214968988292695,302.0,3.20007371902,5.70769119263,-57.4720993042,0
15.5,14.15025149738524,-0.6872899788632406,399.0865598235819,0.5244776973365295,302.0,3.001082351736031,5.891342745187396,-57.820391861338436,0
15.600000000000001,14.170403210456545,-1.0348669116282543,399.07760868667805,0.5274584958437896,302.0,2.9905192852,5.89907217026,-57.8387870789,0
15.700000000000001,14.1922838820856,-1.292389616911651,399.0706957579883,0.5296408469416695,302.03591247908275,2.9905192852,5.89907217026,-57.8387870789,0
15.8,14.224166548339374,-1.0289502116998552,399.0755738277062,0.5272041939223358,302.27957801339994,2.969902853885933,5.890858804887743,-57.828253542314044,0
15.9,14.256049214593148,-0.7655108064880595,399.08045189742404,0.5247675409030021,302.5232435477172,2.69499874115,5.78172540665,-57.6850814819,0
16.0,14.287931880846921,-0.5020714012762637,399.08532996714194,0.5223308878836684,302.7669090820344,2.69499874115,5.78172540665,-57.6850814819,0
16.1,14.319987382442015,-0.2432428963545455,399.09193798816557,0.519999980927,303.01213503579424,2.69499874115,5.78172540665,-57.6850814819,0
16.2,14.35585260601908,-0.08605013362281197,399.136678450545,0.519999980927,303.2917565258287,2.626592662621049,6.64650715769015,-57.34531906949949,0
16.3,14.391717829596148,0.0711426291089271,399.1814189129244,0.519999980927,303.57137801586316,2.5220246315,7.92833328247,-56.8220100403,0
16.400000000000002,14.427583053173215,0.2283353918406662,399.22615937530384,0.519999980927,303.8509995058976,2.5220246315,7.92833328247,-56.8220100403,0
16.5,14.464753641432411,0.38084789638857713,399.27808375308604,0.5187234549978388,304.12765271464576,2.5220246315,7.92833328247,-56.8220100403,0
16.6,14.503413270417665,0.5280215901508324,399.3382028849885,0.5159907849562995,304.40091997938737,2.51776932458184,11.017202900086282,-55.94657289400761,0
16.7,14.542072899402918,0.6751952839130824,399.39832201689103,0.5132581149147603,304.6741872441289,2.51715898514,11.4600734711,-55.8159103394,0
16.8,14.580732528388172,0.8223689776753376,399.4584411487935,0.510525444873221,304.9474545088705,2.51715898514,11.4600734711,-55.8159103394,0
16.900000000000002,14.62517186835712,0.9944057316328567,399.52929662342405,0.508087222302614,305.38255399691894,2.51715898514,11.4600734711,-55.8159103394,0
17.0,14.670987138517523,1.1723614381593075,399.6027080144571,0.5057190965181954,305.85617960549945,2.49258542061,14.2633419037,-54.5627555847,0
17.1,14.716802408677928,1.3503171446857642,399.6761194054902,0.5033509707337765,306.3298052140799,2.49258542061,14.2633419037,-54.5627555847,0
17.2,14.762617678838332,1.528272851212215,399.7495307965233,0.5009828449493579,306.8034308226604,2.49258542061,14.2633419037,-54.5627555847,0
17.3,14.811513494198024,1.6980970957768629,399.8305207579549,0.4981287412393703,307.5613781635753,2.49258542061,14.2633419037,-54.5627555847,0
17.400000000000002,14.862594930129202,1.8621521373627452,399.91688765051197,0.49492984033190773,308.52104935105245,2.26198959351,16.7993354797,-52.5108718872,0
17.5,14.913676366060375,2.0262071789486216,400.00325454306903,0.4917309394244453,309.4807205385296,2.26198959351,16.7993354797,-52.5108718872,0
17.6,15.003560277923444,1.8970805863331106,400.08065933405686,0.4942304382378054,310.7403257286711,2.26198959351,16.7993354797,-52.5108718872,0
17.7,15.139197385443328,1.4222544900017695,400.14749663478153,0.5034490958444126,312.35359234835937,1.373440540236124,21.838504375503156,-49.86688799043014,0
17.8,15.274834492963217,0.9474283936704115,400.21433393550626,0.5126677534510201,313.96685896804775,1.10662412643,23.3136844635,-49.0725135803,0
17.900000000000002,15.410471600483106,0.47260229733905357,400.28117123623093,0.5218864110576276,315.5801255877361,1.10662412643,23.3136844635,-49.0725135803,0
18.0,15.551613138752858,0.044195025741512683,400.34542128986135,0.5302583142365233,317.1808390871412,1.10662412643,23.3136844635,-49.0725135803,0
18.1,15.733167889529497,-0.04340791684680809,400.3906759248228,0.5324133953345775,318.6893883027749,1.10662412643,23.3136844635,-49.0725135803,0
18.2,15.91472264030613,-0.13101085943512575,400.43593055978425,0.5345684764326316,320.1979375184086,2.14299750328,38.9897575378,-42.7213287354,0
18.3,16.09627739108277,-0.2186138020234465,400.4811851947457,0.5367235575306859,321.70648673404236,2.14299750328,38.9897575378,-42.7213287354,0
18.400000000000002,16.277832141859406,-0.3062167446117673,400.5264398297071,0.5388786386287401,323.21503594967606,2.14299750328,38.9897575378,-42.7213287354,0
18.5,16.459071912618466,-0.3031779593463194,400.5581175144936,0.5383746642568193,324.97520943802976,2.14299750328,38.9897575378,-42.7213287354,0
18.6,16.63996998484332,-0.20180866478416104,400.57506656979547,0.5349860771926883,327.0083514969727,2.9400331974,41.2352180481,-35.8873634338,0
18.7,16.820868057068164,-0.10043937022200627,400.59201562509736,0.5315974901285575,329.04149355591557,2.9400331974,41.2352180481,-35.8873634338,0
18.8,16.994488023754155,0.02709797773671839,400.593323971804,0.52999997139,331.20234347304836,2.9400331974,41.2352180481,-35.8873634338,0
18.900000000000002,17.16161638438943,0.17797556071366977,400.5806818037768,0.52999997139,333.4771006563676,1.50825381279,40.6153144836,-29.6406040192,0
19.0,17.328744745024697,0.32885314369061575,400.56803963574964,0.52999997139,335.75185783968675,1.50825381279,40.6153144836,-29.6406040192,0
19.1,17.49587310565997,0.4797307266675671,400.55539746772246,0.52999997139,338.026615023006,1.50825381279,40.6153144836,-29.6406040192,0
19.200000000000003,17.711800696686353,0.27559341606340343,400.5292067832197,0.5313854353483538,340.2469113194828,1.50825381279,40.6153144836,-29.6406040192,0
19.3,17.96422855836604,-0.19408373190731187,400.49288223975356,0.5338071822368895,342.4264726065375,-0.573458909988,40.9502983093,-20.919757843,0
19.400000000000002,18.216656420045737,-0.6637608798780437,400.45655769628735,0.5362289291254253,344.6060338935923,-0.573458909988,40.9502983093,-20.919757843,0
19.5,18.469084281725426,-1.133438027848759,400.42023315282114,0.5386506760139611,346.7855951806471,-0.573458909988,40.9502983093,-20.919757843,0
19.6,18.702242623866017,-1.2948097837176007,400.39212972289414,0.540000021458,349.01100219103796,-0.573458909988,40.9502983093,-20.919757843,0
19.700000000000003,18.91115515905405,-1.0682573360709822,400.37437048091647,0.540000021458,351.2940944257725,-0.048131740642155196,41.786252613939254,-16.129458716118336,0
19.8,19.120067694242078,-0.8417048884243716,400.35661123893885,0.540000021458,353.577186660507,0.489994883537,42.6431541443,-11.2084360123,0
19.900000000000002,19.328980229430115,-0.6151524407777531,400.3388519969612,0.540000021458,355.86027889524155,0.489994883537,42.6431541443,-11.2084360123,0
20.0,19.517332009742486,-0.5388529077010082,400.32485571726323,0.540000021458,312.1146096949128,0.489994883537,42.6431541443,-11.2084360123,0
20.1,19.68518867202434,-0.6123266313535489,400.3146103872038,0.540000021458,222.48711834770285,0.720364809036,41.8238563538,-2.35471487045,0
20.200000000000003,19.85304533430619,-0.6858003550060895,400.30436505714437,0.540000021458,132.85962700049288,0.720364809036,41.8238563538,-2.35471487045,0
20.3,20.02090199658804,-0.7592740786586275,400.29411972708493,0.540000021458,43.23213565328609,0.720364809036,41.8238563538,-2.35471487045,0
20.400000000000002,20.187921072305578,-0.5219680134919074,400.26966249096483,0.5418471325937582,8.477690317879805,0.720364809036,41.8238563538,-2.35471487045,0
20.5,20.35437179241193,-0.07377814915462433,400.2355615751353,0.544947625795573,10.958087244886224,-0.469485014677,42.9787101746,7.28047132492,0
20.6,20.520822512518286,0.3744117151826746,400.2014606593058,0.5480481189973879,13.438484171892732,-0.469485014677,42.9787101746,7.28047132492,0
20.700000000000003,20.691833332084297,0.4625363285415862,400.17626297943957,0.550000011921,15.870297922884417,-0.469485014677,42.9787101746,7.28047132492,0
20.8,20.870593432261817,-0.061221911308354526,400.16619516120033,0.550000011921,18.21955104833073,-0.4897103549308193,43.83181153371424,15.354350210878724,0
20.900000000000002,21.04935353243934,-0.5849801511583138,400.1561273429611,0.550000011921,20.56880417377712,-0.490336030722,43.8581886292,15.6022815704,0
21.0,21.210165610844093,-0.7751348712203281,400.1617145560031,0.5484371905009228,23.01583186441615,-0.490336030722,43.8581886292,15.6022815704,0
21.1,21.342997808394056,-0.4452218727013563,400.19170701635164,0.5444380249709099,25.615284191004392,0.4951102747971248,43.8997219271643,21.228147080133454,0
21.200000000000003,21.475830005944022,-0.11530887418238456,400.22169947670017,0.540438859440897,28.21473651759264,0.796059310436,43.9124107361,22.9480133057,0
21.3,21.60866220349398,0.2146041243365755,400.2516919370487,0.5364396939108843,30.81418884418079,0.796059310436,43.9124107361,22.9480133057,0
21.400000000000002,21.741494401043944,0.5445171228555474,400.2816843973972,0.5324405283808714,33.41364117076904,0.796059310436,43.9124107361,22.9480133057,0
21.5,21.85946546162513,0.7824609525790045,400.31488247887336,0.5310637715466862,35.95741534743039,0.796059310436,43.9124107361,22.9480133057,0
21.6,21.954166117348016,0.876394280491555,400.35310010236844,0.5337933298742605,38.414005542591575,1.3009743365696291,43.952758982147444,32.517698894609104,0
21.700000000000003,22.0488667730709,0.9703276084041056,400.39131772586353,0.536522888201835,40.87059573775276,1.45570206642,43.9651374817,35.4549484253,0
21.8,22.14356742879378,1.0642609363166526,400.4295353493586,0.5392524465294093,43.32718593291386,1.45570206642,43.9651374817,35.4549484253,0
21.900000000000002,22.237348074597577,0.8810819348797474,400.45439893583716,0.5368006637213797,45.599675626487475,1.45570206642,43.9651374817,35.4549484253,0
22.0,22.33078170621855,0.5933802467587758,400.4742255763584,0.5323945553970825,47.80272532404572,0.894446015358,45.7554893494,44.3752098083,0
22.1,22.424215337839527,0.3056785586377938,400.4940522168796,0.5279884470727851,50.00577502160404,0.894446015358,45.7554893494,44.3752098083,0
22.200000000000003,22.517648969460502,0.01797687051681196,400.5138788574008,0.5235823387484878,52.20882471916235,0.894446015358,45.7554893494,44.3752098083,0
22.3,22.6100955436156,-0.18249609318747756,400.5313374798344,0.51866054561741,54.46880280543028,0.894446015358,45.7554893494,44.3752098083,0
22.400000000000002,22.698249564356683,-0.003625430263568541,400.53849797426835,0.5114961225945232,56.97635325476617,0.8709010408665061,45.32936832787871,46.29188875952333,0
22.5,22.786403585097762,0.17524523266033412,400.5456584687023,0.5043316995716366,59.483903704101955,0.775984525681,44.0991249084,54.170753479,0
22.6,22.863065856183667,0.21202302872800732,400.5463340354973,0.5009132434129009,61.8219198554758,0.775984525681,44.0991249084,54.170753479,0
22.700000000000003,22.92215535395959,0.03151748560416301,400.53709308246295,0.5032229860494437,63.90069021088754,0.10089702892172558,42.449790111297986,60.7143948789216,0
22.8,22.981244851735504,-0.14898805751967487,400.5278521294286,0.5055327286859863,65.97946056629921,0.0438190773129,42.3161201477,61.2659301758,0
22.900000000000002,23.040334349511426,-0.32949360064351924,400.51861117639424,0.507842471322529,68.05823092171096,0.0438190773129,42.3161201477,61.2659301758,0
23.0,23.098950442259824,-0.4792213738516177,400.5063156435897,0.509999990463,70.13957156153111,0.0438190773129,42.3161201477,61.2659301758,0
23.1,23.15085679285656,-0.19272458641135265,400.4507264374007,0.509999990463,72.2573417799046,0.0438190773129,42.3161201477,61.2659301758,0
23.200000000000003,23.20276314345329,0.09377220102891243,400.3951372312117,0.509999990463,74.37511199827809,-0.32228577137,43.4957389832,70.1296539307,0
23.3,23.254669494050024,0.3802689884691673,400.33954802502274,0.509999990463,76.4928822166515,-0.32228577137,43.4957389832,70.1296539307,0
23.400000000000002,23.306321543177972,0.506735233609831,400.27689719296296,0.5126388715750878,78.6597199241152,-0.32228577137,43.4957389832,70.1296539307,0
23.5,23.357345964798103,0.23823887425557622,400.1968179493898,0.5217906304291716,80.94765841027153,-0.2223410957254855,43.911189658842716,76.49318962087048,0
23.6,23.408370386418238,-0.030257485098688086,400.1167387058167,0.5309423892832557,83.23559689642795,-0.191089168191,44.0351333618,78.4768371582,0
23.700000000000003,23.45939480803837,-0.2987538444529524,400.03665946224356,0.5400941481373397,85.52353538258436,-0.191089168191,44.0351333618,78.4768371582,0
23.8,23.510419229658503,-0.5672502038072071,399.95658021867047,0.5492459069914234,87.8114738687407,-0.191089168191,44.0351333618,78.4768371582,0
23.900000000000002,23.575686816126975,-0.9450060425666161,399.855475837359,0.550000011921,89.98957131589763,-0.191089168191,44.0351333618,78.4768371582,0
24.0,23.642233431348174,-1.3325733254225507,399.7524834096769,0.550000011921,92.15780509521062,0.440843582153,46.5047035217,88.1459732056,0
24.1,23.708780046569377,-1.7201406082784994,399.6494909819949,0.550000011921,94.32603887452366,0.440843582153,46.5047035217,88.1459732056,0
24.200000000000003,23.77312224518804,-2.0498677335379116,399.53571672849233,0.549517470256695,96.48254212450549,0.440843582153,46.5047035217,88.1459732056,0
24.3,23.829998710737403,-2.183706669239471,399.38542749253,0.5474006969973396,98.5993174026294,-0.029627769503367485,45.41584805950488,90.80610253053362,0
24.400000000000002,23.886875176286768,-2.317545604941035,399.2351382565677,0.5452839237379842,100.71609268075336,-1.01130604744,44.163028717,96.7505950928,0
24.5,23.94375164183613,-2.4513845406425947,399.0848490206054,0.5431671504786288,102.83286795887727,-1.01130604744,44.163028717,96.7505950928,0
24.6,24.000628107385495,-2.585223476344159,398.93455978464306,0.5410503772192735,104.94964323700125,-1.01130604744,44.163028717,96.7505950928,0
24.700000000000003,24.02466662847671,-2.4956169633763077,398.8000917002561,0.538003582664389,106.79857389909448,-1.01130604744,44.163028717,96.7505950928,0
24.8,24.016361790412585,-2.185930402244966,398.6812064788068,0.5340407742334915,108.38369405912817,-0.8764086233912133,39.51916157367926,103.26505707023354,0
24.900000000000002,24.00805695234846,-1.8762438411136135,398.5623212573576,0.530077965802594,109.96881421916193,-0.817507922649,37.4891319275,106.146743774,0
25.0,23.999752114284338,-1.566557279982272,398.4434360359084,0.5261151573716966,111.55393437919562,-0.817507922649,37.4891319275,106.146743774,0
25.1,23.991447276220214,-1.2568707188509194,398.32455081445914,0.5221523489407991,113.13905453922939,-0.817507922649,37.4891319275,106.146743774,0
25.200000000000003,23.95663281951571,-1.1014060662732021,398.22855043743766,0.5187428297033284,114.50286096899683,-0.817507922649,37.4891319275,106.146743774,0
25.3,23.89030202309593,-1.1292903380030228,398.15975703540516,0.5159910962460834,115.60355540151706,0.866135776043,27.4133644104,114.175460815,0
25.400000000000002,23.823971226676143,-1.1571746097328446,398.09096363337267,0.5132393627888383,116.70424983403733,0.866135776043,27.4133644104,114.175460815,0
25.5,23.757640430256362,-1.1850588814626652,398.0221702313401,0.5104876293315933,117.80494426655756,0.866135776043,27.4133644104,114.175460815,0
25.6,23.69195634496974,-1.1975177163763775,397.96360370210743,0.5121079561123737,119.47557736167217,0.866135776043,27.4133644104,114.175460815,0
25.700000000000003,23.626411547806004,-1.2066542331350678,397.9072398284998,0.5146699337051733,121.26896338680484,1.31100285053,21.751291275,118.633552551,0
25.8,23.56086675064227,-1.215790749893758,397.85087595489216,0.517231911297973,123.06234941193746,1.31100285053,21.751291275,118.633552551,0
25.900000000000002,23.49532195347853,-1.2249272666524482,397.79451208128455,0.5197938888907726,124.85573543707014,1.31100285053,21.751291275,118.633552551,0
26.0,23.388736606083935,-0.7584688626756063,397.7136109387453,0.5231820693874591,126.27283659808792,1.2796971114970952,21.699956629359274,119.11539057802592,0
26.1,23.278561045853497,-0.25040558304578653,397.63056328458816,0.5266425258223059,127.6570204921228,0.853500127792,21.1802997589,125.681793213,0
26.200000000000003,23.16792154891596,0.22662728906391336,397.54883258042685,0.5301050052273325,129.03150999343552,0.853500127792,21.1802997589,125.681793213,0
26.3,23.0421609071517,-0.3077176387805056,397.5100253856817,0.5336334195424497,130.09002898817778,0.853500127792,21.1802997589,125.681793213,0
26.400000000000002,22.91640026538744,-0.8420625666249435,397.47121819093655,0.5371618338575671,131.1485479829201,2.11425995827,26.2616519928,129.67048645,0
26.5,22.789851406039936,-1.208405647514969,397.43725745594827,0.5404575371511965,132.2287580647648,2.11425995827,26.2616519928,129.67048645,0
26.6,22.660061424140046,-0.8839311336472744,397.4232251903965,0.5427963410353716,133.39816112211204,2.463751096254323,26.767379656393622,130.2840542080133,0
26.700000000000003,22.53027144224016,-0.5594566197795799,397.40919292484483,0.5451351449195466,134.56756417945928,3.67095470428,28.2117080688,132.455703735,0
26.8,22.400481460340274,-0.23498210591189705,397.39516065929314,0.5474739488037217,135.7369672368065,3.67095470428,28.2117080688,132.455703735,0
26.900000000000002,22.270691478440387,0.08949240795579749,397.38112839374145,0.5498127526878968,136.90637029415373,3.67095470428,28.2117080688,132.455703735,0
27.0,22.160843290540555,-0.07428612556719759,397.3557172637698,0.5524286232852721,138.45716820826453,3.67095470428,28.2117080688,132.455703735,0
27.1,22.052730732458716,-0.28055965967925967,397.32931577674293,0.5550686083253602,140.04116074297107,4.63322496414,30.9578094482,137.651748657,0
27.200000000000003,21.944618174376878,-0.48683319379132173,397.3029142897161,0.5577085933654483,141.62515327767764,4.63322496414,30.9578094482,137.651748657,0
27.3,21.839202999452873,-0.6458032438222444,397.27135816279576,0.5606646395728436,143.23262323793642,4.63322496414,30.9578094482,137.651748657,0
27.400000000000002,21.751519417388025,-0.49381779681494065,397.20591735187685,0.5656983542497743,144.99442505500446,4.543550512978579,31.181637717894297,138.26415749353492,0
27.5,21.663835835323177,-0.3418323498076422,397.14047654095793,0.5707320689267049,146.75622687207246,3.68976092339,33.2724647522,144.082839966,0
27.6,21.576152253258325,-0.18984690280033845,397.075035730039,0.5757657836036356,148.51802868914052,3.68976092339,33.2724647522,144.082839966,0
27.700000000000003,21.48568437973303,-0.14769395008709207,397.0056158142164,0.5809272957039079,150.27819315410002,3.68976092339,33.2724647522,144.082839966,0
27.8,21.38047100858006,-0.6872095500605503,396.91512271595167,0.5867656179116985,152.02968626694883,3.639891475722656,33.36801093503427,144.51168019530883,0
27.900000000000002,21.27525763742708,-1.2267251500340277,396.8246296176869,0.5926039401194892,153.7811793797977,2.9777200222,34.6251716614,150.202682495,0
28.0,21.17004426627411,-1.766240750007486,396.73413651942224,0.5984422623272798,155.5326724926465,2.9777200222,34.6251716614,150.202682495,0
28.1,21.055685360126144,-1.4230118717565883,396.65648741969346,0.6066882940340551,157.3376553140883,3.0077992595830065,34.90113847136152,150.70260442499998,0
28.200000000000003,20.937998253896872,-0.7585387747902033,396.5835124475029,0.615810528057554,159.16210385870383,3.37376499176,38.2144355774,156.846282959,0
28.3,20.820311147667606,-0.09406567782384201,396.5105374753124,0.6249327620810524,160.9865524033193,3.37376499176,38.2144355774,156.846282959,0
28.400000000000002,20.718221740569643,0.09039990270058734,396.4500461716345,0.6309976858546719,162.8979224167533,3.37376499176,38.2144355774,156.846282959,0
28.5,20.635623618578844,-0.32496422741282505,396.40515478048957,0.6332421162824603,164.9179117282267,4.84412765503,41.3274307251,163.047164917,0
28.6,20.553025496588045,-0.7403283575262521,396.36026338934465,0.6354865467102488,166.9379010397002,4.84412765503,41.3274307251,163.047164917,0
28.700000000000003,20.470427374597243,-1.1556924876396795,396.31537199819974,0.6377309771380374,168.9578903511737,4.84412765503,41.3274307251,163.047164917,0
28.8,20.387829252606444,-1.5710566177530918,396.2704806070548,0.6399754075658259,170.9778796626471,4.84412765503,41.3274307251,163.047164917,0
28.900000000000002,20.31172688369423,-1.317258074029222,396.24615634790877,0.63735180645886,173.11854540936875,4.84412765503,41.3274307251,163.047164917,0
29.0,20.235696435539246,-1.0560505839325054,396.22205980734884,0.634674306672257,175.26054728147835,5.58305120468,40.7242355347,171.558685303,0
29.1,20.15966598738426,-0.7948430938357799,396.197963266789,0.631996806885654,177.402549153588,5.58305120468,40.7242355347,171.558685303,0
29.200000000000003,20.078923132609415,-0.5664080305461214,396.18066066575904,0.6293326577649835,179.4671366723731,5.58305120468,40.7242355347,171.558685303,0
29.3,19.98435634290785,-0.4341115079466649,396.1832882162491,0.6267076730781088,181.3046277054168,5.408713703738894,39.482988284838946,175.3270394860181,0
29.400000000000002,19.889789553206285,-0.30181498534720375,396.18591576673913,0.624082688391234,183.1421187384606,5.23724412918,38.2703666687,179.031509399,0
29.5,19.795222763504718,-0.16951846274774723,396.1885433172292,0.6214577037043594,184.9796097715043,5.23724412918,38.2703666687,179.031509399,0
29.6,19.687014878243254,-0.08744720268637554,396.20993319466544,0.6173424653539108,186.66438548714675,5.23724412918,38.2703666687,179.031509399,0
29.700000000000003,19.561772080596654,-0.06809692739485901,396.25475334529835,0.6113662078148546,188.15845129680136,5.601707612486499,36.48597656155073,9.928168778987384,0
29.8,19.43652928295006,-0.04874665210334318,396.29957349593127,0.6053899502757986,189.65251710645592,5.9970035553,34.5640830994,-173.410293579,0
29.900000000000002,19.31009591897862,0.02704915478168598,396.34804403168397,0.599268384798344,191.1707156004754,5.9970035553,34.5640830994,-173.410293579,0
30.0,19.17271811619452,0.6217279956343779,396.4300712166987,0.5918110568290281,192.91075699556302,5.9970035553,34.5640830994,-173.410293579,0
30.1,19.035340313410412,1.2164068364870908,396.5120984017134,0.584353728859712,194.65079839065066,6.75885391235,30.8188762665,-168.097076416,0
30.200000000000003,18.897962510626307,1.8110856773398039,396.5941255867281,0.576896400890396,196.3908397857383,6.75885391235,30.8188762665,-168.097076416,0
30.3,18.759845530908937,2.3024683341783985,396.67827525563024,0.5696682993381271,198.06633876504185,6.75885391235,30.8188762665,-168.097076416,0
30.400000000000002,18.612640505799483,1.5238432744634063,396.7885204762794,0.565258494717794,198.94830053023543,6.75885391235,30.8188762665,-168.097076416,0
30.5,18.465435480690033,0.7452182147484416,396.8987656969286,0.560848690097461,199.83026229542895,6.45277357101,24.0674209595,-161.940338135,0
30.6,18.310693033984393,1.8038311349666438,397.0226440015109,0.555111539932126,200.73327006710076,6.45277357101,24.0674209595,-161.940338135,0
30.700000000000003,18.154154264027607,3.3002958137901794,397.1497713515846,0.5490580559072128,201.64129353681972,6.71235752106,21.9334430695,-159.082427979,0
30.8,17.99761549407083,4.796760492613662,397.2768987016583,0.5430045718822998,202.54931700653864,6.71235752106,21.9334430695,-159.082427979,0
30.900000000000002,17.854764368402254,5.206475926066092,397.41309122704973,0.5357626493028783,203.31780274114885,6.71235752106,21.9334430695,-159.082427979,0
31.0,17.72540163665788,4.545261869407504,397.558216966448,0.5273495882104754,203.94878198459025,7.43075752258,16.152961731,-156.229324341,0
31.1,17.596038904913506,3.884047812748893,397.7033427058463,0.5189365271180723,204.57976122803166,7.43075752258,16.152961731,-156.229324341,0
31.200000000000003,17.466676173169134,3.222833756090282,397.84846844524463,0.5105234660256691,205.2107404714731,7.43075752258,16.152961731,-156.229324341,0
31.3,17.33731344142476,2.5616196994316938,397.9935941846429,0.5021104049332662,205.8417197149145,7.43075752258,16.152961731,-156.229324341,0
31.400000000000002,17.22411233450328,2.104636012377563,398.1735513200477,0.4947481244724909,206.0,7.43075752258,16.152961731,-156.229324341,0
31.5,17.11632284641275,1.7160375852287078,398.3651715302115,0.48773769132382927,206.0,7.60712051392,6.6712346077,-153.63659668,0
31.6,17.00853335832222,1.3274391580798386,398.5567917403753,0.4807272581751675,206.0,7.60712051392,6.6712346077,-153.63659668,0
31.700000000000003,16.900743870231693,0.9388407309309694,398.7484119505391,0.47371682502650564,206.0,7.60712051392,6.6712346077,-153.63659668,0
31.8,16.803106276179367,1.013233406995442,398.9502048358458,0.4655133738061601,206.0,7.60712051392,6.6712346077,-153.63659668,0
31.900000000000002,16.716925066185258,1.6101102494618678,399.1634775566293,0.4559636050251526,206.0,7.404390607292694,3.9129102227131196,-153.47094763870498,0
32.0,16.63074385619115,2.206987091928272,399.37675027741284,0.44641383624414543,206.0,7.34263420105,3.07149410248,-153.420547485,0
32.1,16.561864781014965,2.5799174771330344,399.5603126301153,0.4386095683185842,206.0,7.34263420105,3.07149410248,-153.420547485,0
32.2,16.528373324578723,2.4948158373227476,399.68310911841195,0.43437532914570576,206.0,6.654389444175346,2.1660383585170253,-153.6184727600137,0
32.300000000000004,16.494881868142482,2.409714197512461,399.8059056067086,0.4301410899728273,206.0,5.73736286163,0.95806658268,-153.889205933,0
32.4,16.461390411706244,2.3246125577021806,399.9287020950053,0.4259068507999491,206.0,5.73736286163,0.95806658268,-153.889205933,0
32.5,16.427898955270006,2.239510917891894,400.05149858330196,0.42167261162707065,206.0,5.73736286163,0.95806658268,-153.889205933,0
32.6,16.414608743324408,2.1394306960904745,400.1280622316756,0.419999986887,205.81295153720401,5.73736286163,0.95806658268,-153.889205933,0
32.7,16.414509080620924,2.029570100440176,400.1744378115918,0.419999986887,205.50376842273772,2.94654655457,-1.160405159,-153.623901367,0
32.800000000000004,16.41440941791744,1.919709504789877,400.220813391508,0.419999986887,205.1945853082714,2.94654655457,-1.160405159,-153.623901367,0
32.9,16.427792070406976,1.6550986848597973,400.23318678261245,0.4208848834900494,205.0,2.94654655457,-1.160405159,-153.623901367,0
33.0,16.46406748624998,1.1277243697425607,400.1878249812946,0.42327232088345057,205.0,0.47671893239,-4.3223028183,-154.333343506,0
33.1,16.50034290209298,0.600350054625324,400.14246317997674,0.42565975827685176,205.0,0.47671893239,-4.3223028183,-154.333343506,0
33.2,16.536618317935986,0.07297573950808744,400.09710137865886,0.42804719567025296,205.0,0.47671893239,-4.3223028183,-154.333343506,0
33.300000000000004,16.577474879800974,-0.39525673941789263,400.04350878376715,0.43054959892466743,204.8900815408373,0.47671893239,-4.3223028183,-154.333343506,0
33.4,16.63891492354446,-0.5977598773314722,399.95293452761416,0.43356855365014496,204.2862900199058,0.1824810148998639,-4.416919491641102,-154.37597816756244,0
33.5,16.70035496728795,-0.800263015245066,399.8623602714611,0.43658750837562277,203.68249849897427,-1.39680635929,-4.88297319412,-154.627807617,0
33.6,16.761795011031438,-1.00276615315866,399.7717860153081,0.4396064631011005,203.07870697804273,-1.39680635929,-4.88297319412,-154.627807617,0
33.7,16.816573031342944,-1.2125601462260487,399.6780011721238,0.44381299836828836,202.61870012931948,-1.39680635929,-4.88297319412,-154.627807617,0
33.800000000000004,16.87035245487783,-1.4234469941189585,399.58373508147866,0.44819754473271045,202.18024572808613,-1.898621200921539,-1.837448941540723,-156.05671386686743,0
33.9,16.92413187841271,-1.634333842011853,399.48946899083353,0.4525820910971322,201.74179132685282,-1.91313636303,-1.74861001968,-156.09803772,0
34.0,16.977911301947596,-1.8452206899047627,399.39520290018834,0.4569666374615543,201.30333692561948,-1.91313636303,-1.74861001968,-156.09803772,0
34.1,17.036297445814164,-1.9054486247548859,399.28983585795464,0.460979284372871,200.90207230381927,-1.91313636303,-1.74861001968,-156.09803772,0
34.2,17.105025615212604,-1.6274493148171518,399.1595473278748,0.46415702198594905,200.58429823945033,-2.0173667714869046,-1.5810143241506958,-157.80039059892502,0
34.300000000000004,17.173753784611044,-1.349450004879418,399.0292587977949,0.46733475959902704,200.2665241750814,-2.080722332,-1.48185563087,-158.834838867,0
34.4,17.242099119978576,-1.1643064731849042,398.90248427019765,0.4705302816921733,200.0,-2.080722332,-1.48185563087,-158.834838867,0
34.5,17.308453533498305,-1.4620578324232274,398.7939842525739,0.4738182916705698,200.0,-2.082305931624843,-1.432060222952431,-158.84964963384064,0
34.6,17.374807947018038,-1.7598091916615504,398.6854842349502,0.47710630164896634,200.0,-2.1268286705,-0.175357744098,-159.277420044,0
34.7,17.439881538650564,-2.0093380864283255,398.5823934302874,0.4802303689498407,199.95392415760915,-2.1268286705,-0.175357744098,-159.277420044,0
34.800000000000004,17.49555597149529,-1.904992172187647,398.51899749034044,0.48215136244824375,199.56972623654406,-2.0244232636057933,-0.10179674993489761,-159.34736106842155,0
34.9,17.55123040434001,-1.8006462579469757,398.45560155039345,0.4840723559466466,199.185528315479,-1.56526553631,0.219629004598,-159.660614014,0
35.0,17.606904837184736,-1.6963003437062971,398.3922056104465,0.4859933494450497,198.8013303944139,-1.56526553631,0.219629004598,-159.660614014,0
35.1,17.66257927002946,-1.5919544294656185,398.32880967049954,0.4879143429434527,198.4171324733488,-1.56526553631,0.219629004598,-159.660614014,0
35.2,17.718253702874186,-1.4876085152249399,398.26541373055255,0.48983533644185573,198.0329345522837,-1.56526553631,0.219629004598,-159.660614014,0
35.300000000000004,17.755407690196623,-1.2767926316763683,398.22742562718213,0.490000009537,197.78296702941932,-1.56526553631,0.219629004598,-159.660614014,0
35.4,17.79082519533623,-1.0559940938505403,398.1918197697176,0.490000009537,197.54558498645557,-0.589799582958,1.38040828705,-161.410232544,0
35.5,17.826242700475834,-0.8351955560246966,398.156213912253,0.490000009537,197.30820294349175,-0.589799582958,1.38040828705,-161.410232544,0
35.6,17.86166020561544,-0.614397018198853,398.1206080547884,0.490000009537,197.07082090052796,-0.589799582958,1.38040828705,-161.410232544,0
35.7,17.880740073109312,-0.36606923271270997,398.0848599870012,0.490000009537,197.0,-0.589799582958,1.38040828705,-161.410232544,0
35.800000000000004,17.892873265084216,-0.10603615941665323,398.04905145215093,0.490000009537,197.0,0.426154702902,1.76149260998,-162.35774231,0
35.9,17.90500645705912,0.15399691387938508,398.0132429173006,0.490000009537,197.0,0.426154702902,1.76149260998,-162.35774231,0
36.0,17.91713964903402,0.4140299871754418,397.97743438245027,0.490000009537,197.0,0.426154702902,1.76149260998,-162.35774231,0
36.1,17.914533817808344,0.2555616063921405,397.95870489441313,0.490000009537,197.0,0.426154702902,1.76149260998,-162.35774231,0
36.2,17.897929445354226,-0.3003829014970233,397.9561964094712,0.490000009537,197.0,1.11292302608,2.49877595901,-162.41368103,0
36.300000000000004,17.881325072900108,-0.8563274093861872,397.9536879245293,0.490000009537,197.0,1.11292302608,2.49877595901,-162.41368103,0
36.4,17.864720700445993,-1.4122719172753115,397.9511794395874,0.490000009537,197.0,1.11292302608,2.49877595901,-162.41368103,0
36.5,17.833599231664877,-1.4317662501698623,398.0069436267694,0.48752352051387376,196.8761756152693,1.11292302608,2.49877595901,-162.41368103,0
36.6,17.78921202326861,-0.961051785266088,398.11595744994344,0.4827840129228075,196.63920036284134,2.56504678726,3.81239557266,-162.689865112,0
36.7,17.744824814872345,-0.4903373203623138,398.2249712731175,0.4780445053317412,196.4022251104134,2.56504678726,3.81239557266,-162.689865112,0
36.800000000000004,17.700437606476083,-0.01962285545853959,398.33398509629154,0.47330499774067497,196.16524985798546,2.56504678726,3.81239557266,-162.689865112,0
36.9,17.648602451463617,0.34124887924687103,398.44972989118645,0.4688648855918591,196.0,2.56504678726,3.81239557266,-162.689865112,0
37.0,17.579607793458134,0.4490513111327554,398.58098233340223,0.46511455778926936,196.0,2.788431074389378,4.329734910053235,-163.25136755583495,0
37.1,17.51061313545265,0.5568537430186399,398.712234775618,0.46136422998667964,196.0,3.06695652008,4.96066379547,-163.958679199,0
37.2,17.42794201793601,1.064738124733393,398.84556041771526,0.4556486213405571,196.0,3.06695652008,4.96066379547,-163.958679199,0
37.300000000000004,17.33745158275768,1.8013635672372241,398.98007138182044,0.4488093918335324,196.0,2.98630595207,7.83787965775,-163.675369263,0
37.4,17.246961147579352,2.5379890097410027,399.11458234592556,0.4419701623265082,196.0,2.98630595207,7.83787965775,-163.675369263,0
37.5,17.15647071240102,3.2746144522448337,399.24909331003073,0.4351309328194835,196.0,2.98630595207,7.83787965775,-163.675369263,0
37.6,17.075509348161255,3.635474548485435,399.36712734328927,0.42936586008912697,196.0,2.98630595207,7.83787965775,-163.675369263,0
37.7,17.023168744172743,2.867715710575418,399.4356725763826,0.42682703929618204,196.0,2.9393524773021564,13.074142397464993,-163.87167490765984,0
37.800000000000004,16.970828140184235,2.099956872665401,399.50421780947596,0.4242882185032371,196.0,2.92858052254,13.6527986526,-163.916595459,0
37.9,16.91848753619573,1.332198034755438,399.57276304256925,0.4217493977102924,196.0,2.92858052254,13.6527986526,-163.916595459,0
38.0,16.88030455242193,0.859145851399962,399.5998938446764,0.42174784106183516,196.08739266185995,2.92858052254,13.6527986526,-163.916595459,0
38.1,16.87349625985779,1.0391928573047127,399.535246158301,0.4273691135218983,196.3684561340866,1.1081240382401543,11.955333040049053,-163.79736149685084,0
38.2,16.86668796729365,1.2192398632094634,399.47059847192554,0.43299038598196143,196.64951960631328,0.69821536541,11.6225290298,-163.765594482,0
38.300000000000004,16.85987967472951,1.399286869114214,399.4059507855501,0.4386116584420246,196.93058307853994,0.69821536541,11.6225290298,-163.765594482,0
38.400000000000006,16.870613075309073,0.9511424016621941,399.336376203875,0.441914572964885,197.19145771748174,0.69821536541,11.6225290298,-163.765594482,0
38.5,16.8870998903942,0.2969604721776895,399.2651856738047,0.4444571005584038,197.4457107193147,-1.2639282098814881,9.027176415147583,-162.238551557846,0
38.6,16.903586705479327,-0.3572214573068617,399.19399514373436,0.4469996281519228,197.69996372114767,-1.49658536911,8.72262096405,-162.051437378,0
38.7,16.920073520564458,-1.0114033867914127,399.1228046136641,0.44954215574544176,197.95421672298068,-1.49658536911,8.72262096405,-162.051437378,0
38.800000000000004,16.919651319902382,-1.3641982131707857,399.0521089897587,0.4536171798597862,198.72343796806894,-1.49658536911,8.72262096405,-162.051437378,0
38.900000000000006,16.915515629654372,-1.6508036240661945,398.98152205514185,0.45802876465605624,199.60575445400428,-2.27547574043,12.1245794296,-161.052505493,0
39.0,16.911379939406363,-1.9374090349615831,398.9109351205249,0.4624403494523259,200.48807093993952,-2.27547574043,12.1245794296,-161.052505493,0
39.1,16.907244249158353,-2.2240144458569917,398.84034818590806,0.4668519342485959,201.37038742587484,-2.27547574043,12.1245794296,-161.052505493,0
39.2,16.89617524595423,-2.2572913120180633,398.7627939596566,0.4719417274129165,202.29125913449153,-2.27547574043,12.1245794296,-161.052505493,0
39.300000000000004,16.867831872178453,-1.659399329200746,398.6678807048516,0.4787212788138341,203.30819129909588,-2.40682458878,20.6660003662,-157.997268677,0
39.400000000000006,16.839488498402677,-1.061507346383429,398.5729674500465,0.4855008302147517,204.32512346370027,-2.40682458878,20.6660003662,-157.997268677,0
39.5,16.805640669020086,-0.7855630743996364,398.4736639786551,0.49201760467020456,205.40351941147736,-2.40682458878,20.6660003662,-157.997268677,0
39.6,16.760932536146626,-1.144822371595124,398.3656985999063,0.49801591961176706,206.60318354390955,-2.10852003098,25.4362792969,-154.991043091,0
39.7,16.71622440327317,-1.5040816687906116,398.2577332211574,0.5040142345533296,207.80284767634174,-2.10852003098,25.4362792969,-154.991043091,0
39.800000000000004,16.671490722913695,-1.8617306640934546,398.14979185429956,0.5100089698419872,209.00359175502015,-2.10852003098,25.4362792969,-154.991043091,0
39.900000000000006,16.614580863950497,-1.4518942231727845,398.05329478660724,0.5142976079796595,210.71904864603454,-2.10852003098,25.4362792969,-154.991043091,0
40.0,16.557671004987302,-1.0420577822521433,397.9567977189149,0.5185862461173315,212.4345055370488,-1.83508384228,28.9332828522,-150.130584717,0
40.1,16.500761146024104,-0.632221341331473,397.86030065122253,0.5228748842550038,214.1499624280632,-1.83508384228,28.9332828522,-150.130584717,0
40.2,16.443851287060905,-0.22238490041080294,397.7638035835302,0.5271635223926762,215.8654193190776,-1.83508384228,28.9332828522,-150.130584717,0
40.300000000000004,16.38402295532361,-0.226176835713141,397.677290095528,0.5310805728403917,217.43223841602537,-1.83508384228,28.9332828522,-150.130584717,0
40.400000000000006,16.318494195905238,-1.0378771628389614,397.6102767634043,0.5342718297249195,218.7087347786745,-1.4434354146623747,29.80134724761199,-147.044286464452,0
40.5,16.252965436486868,-1.8495774899647242,397.54326343128054,0.5374630866094472,219.9852311413236,-0.824980437756,31.0659637451,-142.227859497,0
40.6,16.182427420499746,-2.3962476420355197,397.48332399278837,0.5413331870657148,221.39995006374681,-0.824980437756,31.0659637451,-142.227859497,0
