t_sec,airspeed,climb,altitude,throttle,heading,pitch,roll,yaw,is_boundary
0.0,22.4872436523,-3.1567466259,444.609985352,0.360000014305,84.0,-1.13688063622,-4.22819852829,82.3215179443,0
0.1,22.38788792526242,-1.5383606074260716,444.4622964966392,0.2740700417461447,82.9258753940322,-1.13688063622,-4.22819852829,82.3215179443,0
0.2,22.28853219822484,0.08002541104785665,444.3146076412784,0.18814006918728934,81.85175078806441,-1.13688063622,-4.22819852829,82.3215179443,0
0.30000000000000004,22.18917647118726,1.698411429521785,444.1669187859176,0.102210096628434,80.77762618209661,-3.18262529373,18.6454219818,84.4327316284,0
0.4,22.08018501559174,2.731319888896726,444.0340791618518,0.03685853796898266,80.15707306035684,-3.18262529373,18.6454219818,84.4327316284,0
0.5,21.945921942318122,2.2286968164642467,443.94018460497483,0.025477969189566282,80.72610151204687,-3.18262529373,18.6454219818,84.4327316284,0
0.6000000000000001,21.811658869044507,1.7260737440317668,443.8462900480979,0.014097400410149886,81.2951299637369,-3.18262529373,18.6454219818,84.4327316284,0
0.7000000000000001,21.677395795770888,1.2234506715992874,443.7523954912209,0.002716831630733503,81.86415841542693,-1.87567770481,-6.79307317734,80.8638916016,0
0.8,21.53599117447,1.0058248727876424,443.66543875908127,0.0,81.2406775873128,-1.87567770481,-6.79307317734,80.8638916016,0
0.9,21.392347059606468,0.8775703919601312,443.5806576356162,0.0,80.24324186240132,-1.87567770481,-6.79307317734,80.8638916016,0
1.0,21.248702944742938,0.7493159111326201,443.49587651215114,0.0,79.24580613748982,-1.7574133691814937,-20.698629244799868,82.78665562931312,0
1.1,21.105058829879404,0.6210614303051087,443.4110953886861,0.0,78.24837041257834,-1.74578893185,-21.8679771423,82.9592590332,0
1.2000000000000002,20.978823659978655,0.043565940570399975,443.3018195257448,0.0,76.36734796011025,-1.74578893185,-21.8679771423,82.9592590332,0
1.3,20.85836083966047,-0.6828860859205655,443.1844218495924,0.0,74.19335132173516,-1.74578893185,-21.8679771423,82.9592590332,0
1.4000000000000001,20.737898019342282,-1.4093381124115325,443.06702417344,0.0,72.01935468336008,-1.9606989863230218,-26.972991178199106,80.05122829886444,0
1.5,20.617435199024097,-2.1357901389024985,442.9496264972877,0.0,69.845358044985,-2.06850671768,-29.6026477814,78.6321792603,0
1.6,20.504619474255723,-2.7299141680561823,442.8274823295603,0.0,67.7500647588604,-2.06850671768,-29.6026477814,78.6321792603,0
1.7000000000000002,20.43474340897181,-2.5809954159463278,442.6786858556538,0.0,66.09670333090426,-2.06850671768,-29.6026477814,78.6321792603,0
1.8,20.364867343687894,-2.4320766638364737,442.5298893817473,0.0,64.4433419029481,-2.06850671768,-29.6026477814,78.6321792603,0
1.9000000000000001,20.302392318353444,-2.280325163628906,442.37208679723835,0.0,62.71739952461397,-4.474609240647519,-35.988723071813105,68.4338302612,0
2.0,20.290780331034366,-2.1091058352288443,442.15239045873386,0.0,60.49265053754983,-4.48043966293,-36.0284156799,68.4338302612,0
2.1,20.27916834371529,-1.9378865068287823,441.9326941202293,0.0,58.26790155048569,-4.48043966293,-36.0284156799,68.4338302612,0
2.2,20.267556356396216,-1.7666671784287202,441.7129977817248,0.0,56.04315256342155,-5.5410190540607696,-38.04473566945684,64.89374559954624,0
2.3000000000000003,20.28414258044076,-1.7152903057601756,441.4912784901763,0.0,53.8129379688777,-5.97894954681,-38.874797821,63.4479751587,0
2.4000000000000004,20.325623121935234,-1.7697143329603662,441.26777326849844,0.0,51.577898154538794,-5.97894954681,-38.874797821,63.4479751587,0
2.5,20.36710366342971,-1.8241383601605567,441.04426804682066,0.0,49.3428583401999,-6.156512309222907,-38.940082005088826,62.813195920431944,0
2.6,20.408584204924185,-1.8785623873607475,440.8207628251428,0.0,47.107818525861,-8.4948759079,-39.5215759277,54.8709030151,0
2.7,20.450064746418658,-1.9329864145609383,440.59725760346504,0.0,44.8727787115221,-8.4948759079,-39.5215759277,54.8709030151,0
2.8000000000000003,20.48261919697858,-2.143016077860774,440.34522790353,0.0,42.46740324972402,-8.4948759079,-39.5215759277,54.8709030151,0
2.9000000000000004,20.509454845079354,-2.45273976185885,440.0749230305545,0.0,39.952896486585615,-8.4948759079,-39.5215759277,54.8709030151,0
3.0,20.536290493180132,-2.762463445856924,439.804618157579,0.0,37.43838972344723,-9.138037843223875,-39.71841846599795,52.95134134917277,0
3.1,20.5754454986831,-3.001638066487847,439.49420886127496,0.0,34.98677305163473,-12.2640275955,-40.475982666,43.9103622437,0
3.2,20.631067149014843,-3.1465134204002903,439.13019406644895,0.0,32.619218296633605,-12.2640275955,-40.475982666,43.9103622437,0
3.3000000000000003,20.686688799346584,-3.291388774312733,438.76617927162295,0.0,30.25166354163249,-12.2640275955,-40.475982666,43.9103622437,0
3.4000000000000004,20.742470343047664,-3.4437172009447896,438.4021462772907,0.0,27.91081547557205,-14.3234090805,-41.5103034973,36.7428588867,0
3.5,20.80135847317424,-3.7408522235912445,438.03775968268536,0.0,26.088854700942115,-14.3234090805,-41.5103034973,36.7428588867,0
3.6,20.860246603300816,-4.037987246237701,437.67337308808,0.0,24.266893926312168,-14.3234090805,-41.5103034973,36.7428588867,0
3.7,20.91913473342739,-4.335122268884157,437.30898649347466,0.0,22.44493315168222,-14.9181985855,-43.6825065613,28.7051582336,0
3.8000000000000003,20.972218108128597,-4.419257320667278,436.9452915363038,0.0,19.897653532865263,-14.9181985855,-43.6825065613,28.7051582336,0
3.9000000000000004,21.023425900900207,-4.434569680178201,436.5818200549867,0.0,17.11601521714155,-14.9181985855,-43.6825065613,28.7051582336,0
4.0,21.074633693671817,-4.449882039689123,436.2183485736695,0.0,14.334376901417844,-13.899435203625563,-41.095055581529714,24.24217876585098,0
4.1000000000000005,21.125841486443427,-4.465194399200047,435.85487709235235,0.0,11.552738585694115,-13.5654611588,-40.2539978027,22.716550827,0
4.2,21.177049279215037,-4.480506758710969,435.4914056110352,0.0,8.771100269970411,-13.5654611588,-40.2539978027,22.716550827,0
4.3,21.223977551081322,-4.406991190339242,435.12604204874935,0.0,31.853652139228505,-13.5654611588,-40.2539978027,22.716550827,0
4.4,21.263405402094957,-4.177793045032373,434.75736236677005,0.0,100.26658460295587,-13.5654611588,-40.2539978027,22.716550827,0
4.5,21.30283325310859,-3.948594899725505,434.38868268479075,0.0,168.67951706668262,-13.5654611588,-40.2539978027,22.716550827,0
4.6000000000000005,21.34226110412223,-3.7193967544186357,434.02000300281145,0.0,237.09244953041,-14.5904693604,-41.6290283203,6.57023620605,0
4.7,21.381688955135864,-3.4901986091117685,433.6513233208321,0.0,305.5053819941367,-14.5904693604,-41.6290283203,6.57023620605,0
4.800000000000001,21.412205568744387,-3.2961381459453034,433.30221764881344,0.0,353.27952690863805,-14.5904693604,-41.6290283203,6.57023620605,0
4.9,21.4210262173236,-3.1876265115522315,433.0007683253221,0.0,350.80493614717847,-14.5904693604,-41.6290283203,6.57023620605,0
5.0,21.429846865902817,-3.079114877159159,432.69931900183076,0.0,348.3303453857189,-14.5904693604,-41.6290283203,6.57023620605,0
5.1000000000000005,21.438667514482034,-2.970603242766086,432.3978696783395,0.0,345.8557546242593,-13.0438814163,-41.3359794617,-5.56410598755,0
5.2,21.447488163061248,-2.8620916083730137,432.09642035484814,0.0,343.3811638627997,-13.0438814163,-41.3359794617,-5.56410598755,0
5.300000000000001,21.43907544336935,-3.0159159781420977,431.79455231530244,0.0,340.7521677962615,-13.0438814163,-41.3359794617,-5.56410598755,0
5.4,21.427524932134087,-3.2175055718900576,431.49260803739907,0.0,338.09505815071174,-13.0438814163,-41.3359794617,-5.56410598755,0
5.5,21.415974420898824,-3.4190951656380175,431.1906637594957,0.0,335.4379485051619,-12.0221157074,-41.5210838318,-16.1817436218,0
5.6000000000000005,21.40442390966356,-3.620684759385979,430.8887194815923,0.0,332.7808388596121,-12.0221157074,-41.5210838318,-16.1817436218,0
5.7,21.369244272389906,-3.5449471847086302,430.6095957814369,0.0,330.64970555258657,-12.0221157074,-41.5210838318,-16.1817436218,0
5.800000000000001,21.324231011969882,-3.3537956561629727,430.33996921465797,0.0,328.7374653645257,-12.0221157074,-41.5210838318,-16.1817436218,0
5.9,21.27921775154986,-3.162644127617317,430.070342647879,0.0,326.8252251764648,-12.169880182103274,-40.86849841968954,-20.5198933025231,0
6.0,21.234204491129837,-2.971492599071661,429.80071608110006,0.0,324.91298498840393,-12.4304704666,-39.696849823,-28.0467205048,0
6.1000000000000005,21.189191230709817,-2.7803410705260037,429.53108951432114,0.0,323.00074480034306,-12.4304704666,-39.696849823,-28.0467205048,0
6.2,21.1535000573977,-2.703281527946139,429.24109508293225,0.0,321.27723677394897,-12.4304704666,-39.696849823,-28.0467205048,0
6.300000000000001,21.128043746847695,-2.7514853309131553,428.92873845983394,0.0,319.7609406895904,-12.4304704666,-39.696849823,-28.0467205048,0
6.4,21.10258743629769,-2.799689133880171,428.61638183673557,0.0,318.2446446052319,-11.765516442523468,-34.99450902534005,-32.712382046510406,0
6.5,21.079900221345067,-2.852262814765533,428.3217613863895,0.0,316.8529859555701,-11.0774555206,-30.0050888062,-37.4670829773,0
6.6000000000000005,21.069900365606298,-2.9248582713249234,428.1084040007782,0.0,316.03238736861783,-11.0774555206,-30.0050888062,-37.4670829773,0
6.7,21.059900509867532,-2.9974537278843134,427.89504661516685,0.0,315.21178878166563,-11.0774555206,-30.0050888062,-37.4670829773,0
6.800000000000001,21.049900654128763,-3.070049184443704,427.68168922955556,0.0,314.39119019471343,-10.5799951553,-18.6603832245,-42.4272956848,0
6.9,21.039900798389997,-3.1426446410030935,427.4683318439442,0.0,313.57059160776123,-10.5799951553,-18.6603832245,-42.4272956848,0
7.0,21.033624838180327,-3.1041557693800335,427.2442145227357,0.0,313.0,-10.5799951553,-18.6603832245,-42.4272956848,0
7.1000000000000005,21.035847934852825,-2.812138833781286,426.995539771284,0.0,313.0,-10.5799951553,-18.6603832245,-42.4272956848,0
7.2,21.038071031525323,-2.5201218981825413,426.7468650198322,0.0,313.0,-10.776738208700799,-13.931712364262765,-43.303215504538045,0
7.300000000000001,21.040294128197825,-2.228104962583794,426.4981902683805,0.0,313.0,-11.578994751,5.80483436584,-46.7986450195,0
7.4,21.042558748056404,-1.9373999127896138,426.2493821728821,0.0,313.00247130847157,-11.578994751,5.80483436584,-46.7986450195,0
7.5,21.06609480402727,-2.3187457750524287,425.9322647871694,0.0,314.2709408513223,-11.578994751,5.80483436584,-46.7986450195,0
7.6000000000000005,21.08963085999813,-2.7000916373152473,425.61514740145674,0.0,315.53941039417305,-11.578994751,5.80483436584,-46.7986450195,0
7.7,21.113166915968996,-3.0814374995780622,425.2980300157441,0.0,316.8078799370238,-12.5846738815,24.717168808,-46.5696334839,0
7.800000000000001,21.157183075821372,-3.4950503189441786,424.8502252187127,0.0,318.47283553221297,-12.5846738815,24.717168808,-46.5696334839,0
7.9,21.20485477592442,-3.9144225407596327,424.3790937288532,0.0,320.2085608232757,-12.5846738815,24.717168808,-46.5696334839,0
8.0,21.25252647602747,-4.333794762575087,423.90796223899366,0.0,321.9442861143385,-14.8573331833,31.6647338867,-42.6836891174,0
8.1,21.30019817613052,-4.75316698439054,423.4368307491342,0.0,323.6800114054013,-14.8573331833,31.6647338867,-42.6836891174,0
8.200000000000001,21.402415635228035,-4.733950525177704,422.9712185596564,0.0,325.53256018314346,-14.8573331833,31.6647338867,-42.6836891174,0
8.3,21.516961672659036,-4.615603079249847,422.5068538572126,0.0,327.4115137177955,-14.8573331833,31.6647338867,-42.6836891174,0
8.4,21.63150771009004,-4.4972556333219895,422.04248915476876,0.0,329.2904672524476,-16.77425947137337,35.62515953571716,-37.80826606799074,0
8.5,21.74539120910959,-4.417213107050169,421.57184669549736,0.0,331.2034435681261,-17.7252311707,37.3499145508,-35.4171676636,0
8.6,21.85258939441837,-4.723684630591034,421.0378588164479,0.0,333.45972520851194,-17.7252311707,37.3499145508,-35.4171676636,0
8.700000000000001,21.95978757972715,-5.0301561541319035,420.50387093739846,0.0,335.7160068488978,-17.7252311707,37.3499145508,-35.4171676636,0
8.8,22.066985765035923,-5.336627677672769,419.969883058349,0.0,337.97228848928364,-18.36302948,38.4570541382,-28.6771430969,0
8.9,22.17233923087545,-5.606338796183956,419.43787808580316,0.0,340.2481528807015,-18.36302948,38.4570541382,-28.6771430969,0
9.0,22.26132765852189,-5.549937764673387,418.9234640484678,0.0,342.6977415016877,-18.36302948,38.4570541382,-28.6771430969,0
9.1,22.350316086168327,-5.493536733162816,418.40905001113236,0.0,345.14733012267385,-18.36302948,38.4570541382,-28.6771430969,0
9.200000000000001,22.429899407319407,-5.4445654009510305,417.89162136731215,0.0,347.6507075464816,-17.7205848694,38.24269104,-19.7548465729,0
9.3,22.480291891891703,-5.418653790409316,417.36483622281963,0.0,350.32103046460236,-17.7205848694,38.24269104,-19.7548465729,0
9.4,22.530684376463995,-5.392742179867601,416.83805107832706,0.0,352.9913533827231,-17.7205848694,38.24269104,-19.7548465729,0
9.5,22.58107686103629,-5.366830569325887,416.31126593383453,0.0,355.6616763008438,-17.2251567841,38.4837493896,-12.2783536911,0
9.600000000000001,22.625187093246957,-5.345189580957991,415.7976520858855,0.0,348.1291121471182,-17.2251567841,38.4837493896,-12.2783536911,0
9.700000000000001,22.625050415398363,-5.35362726889038,415.3768057900782,0.0,268.7359794224271,-17.2251567841,38.4837493896,-12.2783536911,0
9.8,22.62491373754977,-5.362064956822769,414.9559594942709,0.0,189.342846697736,-17.2251567841,38.4837493896,-12.2783536911,0
9.9,22.624777059701177,-5.370502644755158,414.53511319846365,0.0,109.94971397304494,-15.155432742836755,39.616805925807476,-2.460135471570359,0
10.0,22.624640381852583,-5.378940332687546,414.11426690265637,0.0,30.556581248353837,-14.8693132401,39.7776870728,-1.14023780823,0
10.100000000000001,22.547168107722758,-5.01515200477701,413.76499245140883,0.0,11.203197869686452,-14.8693132401,39.7776870728,-1.14023780823,0
10.200000000000001,22.440871655420622,-4.512629258087181,413.4423939385249,0.0,14.227561812933203,-14.8693132401,39.7776870728,-1.14023780823,0
10.3,22.334575203118487,-4.0101065113973515,413.1197954256409,0.0,17.25192575617995,-12.510612345219066,40.626127102297254,4.722917823394714,0
10.4,22.22827875081635,-3.5075837647075225,412.797196912757,0.0,20.276289699426705,-10.4315891266,41.3704185486,9.77595424652,0
10.5,22.069091720237292,-3.287268745027049,412.53538284326436,0.0,23.209083439937533,-10.4315891266,41.3704185486,9.77595424652,0
10.600000000000001,21.893267045645977,-3.155727035309352,412.2926895692626,0.0,26.113072193154217,-10.4315891266,41.3704185486,9.77595424652,0
10.700000000000001,21.717442371054666,-3.024185325591657,412.0499962952608,0.0,29.017060946370844,-9.913318087589218,40.3043479456909,13.957002864327432,0
10.8,21.54161769646336,-2.892643615873962,411.8073030212591,0.0,31.92104969958747,-8.95459270477,38.36302948,21.5791912079,0
10.9,21.365793021872047,-2.7611019061562674,411.56460974725735,0.0,34.8250384528041,-8.95459270477,38.36302948,21.5791912079,0
11.0,21.156756907474378,-2.698255365948596,411.3739488466078,0.0,37.22831699108029,-8.95459270477,38.36302948,21.5791912079,0
11.100000000000001,20.94559156370138,-2.6398129640052255,411.1866238103006,0.0,39.59949433457565,-8.891206512599535,38.383455007781215,22.248219398638142,0
11.200000000000001,20.734426219928388,-2.5813705620618563,410.9992987739934,0.0,41.970671678070964,-7.57930135727,38.8234939575,35.5548057556,0
11.3,20.523260876155398,-2.522928160118487,410.81197373768623,0.0,44.34184902156628,-7.57930135727,38.8234939575,35.5548057556,0
11.4,20.306156736232985,-2.33129899833642,410.6802541722457,0.0,46.90650461821444,-7.57930135727,38.8234939575,35.5548057556,0
11.5,20.086770889165738,-2.088498997570154,410.5698984315563,0.0,49.54549526551643,-7.57930135727,38.8234939575,35.5548057556,0
11.600000000000001,19.867385042098487,-1.845698996803883,410.4595426908669,0.0,52.18448591281846,-6.572740137772988,39.29930172975529,39.67399547596392,0
11.700000000000001,19.64799919503124,-1.6028989960376168,410.34918695017745,0.0,54.82347656012044,-4.9386677742,40.0865325928,46.309425354,0
11.8,19.421459373242904,-1.357125832489238,410.247850266656,0.0,57.53347317358556,-4.9386677742,40.0865325928,46.309425354,0
11.9,19.18916433253072,-1.108960823376063,410.15376922080617,0.0,60.30059256090725,-4.9386677742,40.0865325928,46.309425354,0
12.0,18.956869291818535,-0.8607958142628881,410.05968817495636,0.0,63.06771194822893,-4.466477917207516,40.48156692950323,50.8071567530804,0
12.100000000000001,18.724574251106347,-0.6126308051497088,409.96560712910656,0.0,65.83483133555066,-3.88940286636,40.9805641174,56.1604118347,0
12.200000000000001,18.511466844010705,-0.7181727793573519,409.86500885044956,0.01187255357035187,68.67132461303996,-3.88940286636,40.9805641174,56.1604118347,0
12.3,18.299577444539317,-0.8461676422872729,409.7639968657876,0.024498762388506998,71.51222166062601,-3.88940286636,40.9805641174,56.1604118347,0
12.4,18.087688045067924,-0.9741625052171938,409.6629848811256,0.03712497120666213,74.35311870821207,-3.8063649232809,41.56225507829468,63.807755560716515,0
12.5,17.90466360275217,-1.024701685987065,409.54640152461263,0.048665408629536014,77.07969809973099,-3.77739524841,41.7674102783,66.533241272,0
12.600000000000001,17.73014967396526,-1.052403915108072,409.4252271212435,0.05988571835920198,79.77257219408634,-3.77739524841,41.7674102783,66.533241272,0
12.700000000000001,17.555635745178357,-1.0801061442290785,409.3040527178744,0.07110602808886775,82.46544628844164,-4.33554029465,42.4376335144,75.2774810791,0
12.8,17.381121816391452,-1.107808373350085,409.1828783145053,0.08232633781853352,85.15832038279693,-4.33554029465,42.4376335144,75.2774810791,0
12.9,17.21065019884256,-1.1578473226383337,409.04661836530596,0.0932356054706462,87.97068077079514,-4.33554029465,42.4376335144,75.2774810791,0
13.0,17.048924693273086,-1.256214924603945,408.877718704483,0.10347188960407053,91.04156665143228,-4.33554029465,42.4376335144,75.2774810791,0
13.100000000000001,16.887199187703608,-1.354582526569558,408.70881904366,0.11370817373749505,94.11245253206945,-4.6739507641135,42.81910638234598,80.2426095617041,0
13.200000000000001,16.725473682134133,-1.4529501285351691,408.53991938283707,0.12394445787091937,97.18333841270658,-5.15871953964,43.3175430298,87.3322372437,0
13.3,16.571511861256138,-1.6012226894089518,408.3581128716387,0.13426498037160117,100.19419555436822,-5.15871953964,43.3175430298,87.3322372437,0
13.4,16.428795228204372,-1.821779308521022,408.15761163461303,0.1447075166195729,103.11810500668182,-5.15871953964,43.3175430298,87.3322372437,0
13.5,16.286078595152603,-2.0423359276330926,407.9571103975873,0.1551500528675446,106.0420144589954,-5.3053270883338435,43.426721848611685,89.08172881115767,0
13.600000000000001,16.143361962100833,-2.2628925467451664,407.75660916056165,0.16559258911551653,108.96592391130905,-6.16792201996,44.0875968933,99.0997848511,0
13.700000000000001,16.000645329049068,-2.4834491658572366,407.556107923536,0.17603512536348825,111.88983336362264,-6.16792201996,44.0875968933,99.0997848511,0
13.8,15.881487775276819,-2.518350168535578,407.34004101714385,0.1774084289835696,114.81410374533462,-6.16792201996,44.0875968933,99.0997848511,0
13.9,15.776750404768752,-2.43961396233852,407.11444658201293,0.17323058202565034,117.73859504688852,-6.16792201996,44.0875968933,99.0997848511,0
14.0,15.676490045316354,-2.3279559789719664,406.89673101697633,0.16862631671877032,120.6181584101012,-6.183492168757707,43.60265710114057,104.98247902190082,0
14.100000000000001,15.59149818747044,-2.1040208085826144,406.7058857319537,0.16256778445449827,123.34449849773817,-6.20763635635,42.9068222046,113.953948975,0
14.200000000000001,15.506506329624528,-1.880085638193267,406.5150404469311,0.15650925219022632,126.07083858537509,-6.111145568220635,42.4878857988935,114.66263995603128,0
14.3,15.421514471778615,-1.6561504678039194,406.32419516190845,0.15045071992595438,128.797178673012,-5.2321395874,39.1783790588,120.944099426,0
14.4,15.347453811823021,-1.8728758003057842,406.1778939708471,0.1417437183050123,131.20167607376723,-5.2321395874,39.1783790588,120.944099426,0
14.5,15.274271718770219,-2.1250180868407598,406.0351728967191,0.13282385277444403,133.5803061967147,-5.2321395874,39.1783790588,120.944099426,0
14.600000000000001,15.201089625717415,-2.3771603733757396,405.8924518225911,0.12390398724387561,135.95893631966226,-3.6687681675,34.8978271484,129.694442749,0
14.700000000000001,15.113748907386638,-2.1815407394369775,405.78456078884545,0.12336500762675806,138.00950292716988,-3.6687681675,34.8978271484,129.694442749,0
14.8,15.015388152913465,-1.637416045866201,405.7037789056225,0.12934909531725353,139.804728940081,-3.6687681675,34.8978271484,129.694442749,0
14.9,14.91702739844029,-1.0932913522954248,405.62299702239955,0.135333183007749,141.59995495299208,-3.155508668518718,32.88083131735857,132.01514743698573,0
15.0,14.813456712923177,-0.6329214474229229,405.5567651247875,0.14193875119134533,143.2585000691083,-1.89879214764,27.861623764,137.604385376,0
15.100000000000001,14.69142831111234,-0.4692775673280035,405.5420808396521,0.15074609719637455,144.43281282311952,-1.89879214764,27.861623764,137.604385376,0
15.200000000000001,14.569399909301502,-0.30563368723308715,405.52739655451677,0.1595534432014036,145.6071255771307,-1.89879214764,27.861623764,137.604385376,0
15.3,14.447371507490667,-0.14198980713817067,405.5127122693814,0.1683607892064327,146.78143833114189,-0.453943014145,17.3335762024,143.175323486,0
15.4,14.334024322204854,-0.24964900591781175,405.5453296502577,0.17392731740712064,147.19636582191794,-0.453943014145,17.3335762024,143.175323486,0
15.5,14.222662362152791,-0.4193499377452115,405.58876400139326,0.17875273366058178,147.4376366849201,-0.453943014145,17.3335762024,143.175323486,0
15.600000000000001,14.111300402100724,-0.5890508695726142,405.63219835252875,0.18357814991404303,147.67890754792228,0.4419097719687199,8.066317637508094,146.31659063860354,0
15.700000000000001,13.999938442048661,-0.7587518014000139,405.6756327036643,0.18840356616750417,147.92017841092442,0.762201845646,4.68076086044,147.421142578,0
15.8,13.910075640734561,-0.5944697674479623,405.7404855440334,0.19488549786337023,147.3485999928996,0.762201845646,4.68076086044,147.421142578,0
15.9,13.830842165725345,-0.2650643457945091,405.81592782717087,0.20218642175241958,146.37514351303835,0.762201845646,4.68076086044,147.421142578,0
16.0,13.751608690716129,0.064341075858944,405.8913701103083,0.20948734564146895,145.4016870331771,1.097298380372528,-2.985502048504209,147.78095933463396,0
16.1,13.67237521570691,0.3937464975124031,405.9668123934457,0.21678826953051844,144.42823055331584,1.3191010952,-8.08285808563,148.012008667,0
16.2,13.624026835871753,0.5575260446999298,406.0179033077781,0.224475722380634,143.3286413240427,1.3191010952,-8.08285808563,148.012008667,0
16.3,13.599936182515966,0.5912199587346867,406.049868205482,0.23246676224452015,142.12998509439012,1.3191010952,-8.08285808563,148.012008667,0
16.400000000000002,13.57584552916018,0.6249138727694437,406.08183310318594,0.24045780210840625,140.93132886473754,0.8744787218763024,-13.590697254435554,146.16186517664448,0
16.5,13.551754875804395,0.6586077868041993,406.11379800088986,0.2484488419722921,139.732672635085,0.400336921215,-19.1544437408,144.236572266,0
16.6,13.527664222448609,0.6923017008389563,406.1457628985938,0.2564398818361782,138.53401640543245,0.400336921215,-19.1544437408,144.236572266,0
16.7,13.538969994559904,0.4408925840012022,406.1311336349364,0.261374612611303,137.0377664462504,0.400336921215,-19.1544437408,144.236572266,0
16.8,13.578715639222127,-0.03958751260081228,406.0790674834225,0.2638536987891667,135.3024096386199,0.400336921215,-19.1544437408,144.236572266,0
16.900000000000002,13.618461283884349,-0.5200676092028267,406.02700133190854,0.26633278496703044,133.5670528309894,-0.21758340052289393,-21.014293973086353,142.7788482412753,0
17.0,13.65820692854657,-1.0005477058048242,405.9749351803946,0.2688118711448941,131.83169602335897,-1.74961555004,-25.4170532227,138.339141846,0
17.1,13.713419799118713,-1.1101451338024788,405.9025424469257,0.270000010729,129.99367209851064,-1.74961555004,-25.4170532227,138.339141846,0
17.2,13.782868133379859,-0.878395846329165,405.81144187786765,0.270000010729,128.06115714936874,-1.74961555004,-25.4170532227,138.339141846,0
17.3,13.852316467641009,-0.6466465588558428,405.7203413088096,0.270000010729,126.12864220022676,-2.1837202358514247,-25.072922476749532,136.27661445268166,0
17.400000000000002,13.921764801902157,-0.41489727138252064,405.6292407397516,0.270000010729,124.1961272510848,-3.12351560593,-24.3166503906,131.814407349,0
17.5,13.981308143709736,-0.4970271138305896,405.5104533425997,0.2767067839145687,122.65864541618275,-3.12351560593,-24.3166503906,131.814407349,0
17.6,14.039732703724455,-0.614610012640011,405.3885386821694,0.28417109586294204,121.16578308582447,-3.12351560593,-24.3166503906,131.814407349,0
17.7,14.098157263739173,-0.7321929114494281,405.26662402173906,0.2916354078113151,119.67292075546627,-4.05753135681,-23.7145404816,124.959579468,0
17.8,14.156581823753895,-0.8497758102588495,405.14470936130874,0.29909971975968846,118.18005842510799,-4.05753135681,-23.7145404816,124.959579468,0
17.900000000000002,14.216868505804063,-1.1308554064906575,404.9717655957784,0.30427662540463996,117.14467648754997,-4.05753135681,-23.7145404816,124.959579468,0
18.0,14.277410588344525,-1.4343594925723844,404.7918229020286,0.3091398004345855,116.17204055395797,-4.05753135681,-23.7145404816,124.959579468,0
18.1,14.337952670884988,-1.737863578654122,404.6118802082789,0.3140029754645312,115.19940462036594,-4.5342168808,-22.7413864136,118.67175293,0
18.2,14.39849475342545,-2.0413676647358487,404.4319375145291,0.31886615049447675,114.22676868677395,-4.5342168808,-22.7413864136,118.67175293,0
18.3,14.474611523789298,-2.146145570356843,404.25849453795314,0.32196257812434226,112.822451220015,-4.5342168808,-22.7413864136,118.67175293,0
18.400000000000002,14.555463522197666,-2.190504044553633,404.0870276936368,0.32452185522308225,111.28688807274328,-4.5342168808,-22.7413864136,118.67175293,0
18.5,14.636315520606033,-2.234862518750422,403.9155608493205,0.3270811323218221,109.75132492547161,-3.39910936356,-19.4308452606,114.144104004,0
18.6,14.717167519014403,-2.279220992947212,403.74409400500423,0.3296404094205621,108.21576177819989,-3.39910936356,-19.4308452606,114.144104004,0
18.7,14.774195758846933,-1.9325952592148061,403.62195502862687,0.32818436793513406,106.7290509511992,-3.39910936356,-19.4308452606,114.144104004,0
18.8,14.827329278887392,-1.5220512344972716,403.5078801964084,0.32607190018885995,105.25032652559025,-3.39910936356,-19.4308452606,114.144104004,0
18.900000000000002,14.880462798927852,-1.111507209779737,403.39380536419,0.32395943244258585,103.7716020999813,-1.81293284893,-16.7026138306,108.418235779,0
19.0,14.933596318968311,-0.7009631850622169,403.27973053197155,0.32184696469631185,102.2928776743724,-1.81293284893,-16.7026138306,108.418235779,0
19.1,14.975542396979947,-0.355119003551513,403.17461530730895,0.319999992847,100.90648501167438,-1.81293284893,-16.7026138306,108.418235779,0
19.200000000000003,14.939660942704014,-0.4593713788056693,403.13182926786516,0.319999992847,100.1624155217449,-1.81293284893,-16.7026138306,108.418235779,0
19.3,14.903779488428084,-0.5636237540598219,403.08904322842136,0.319999992847,99.41834603181546,-1.81293284893,-16.7026138306,108.418235779,0
19.400000000000002,14.867898034152153,-0.6678761293139783,403.04625718897756,0.319999992847,98.67427654188599,0.0584754906595,-12.2953500748,101.918235779,0
19.5,14.832016579876223,-0.772128504568131,403.0034711495337,0.319999992847,97.93020705195654,0.0584754906595,-12.2953500748,101.918235779,0
19.6,14.79613512560029,-0.8763808798222873,402.9606851100899,0.319999992847,97.18613756202707,0.0584754906595,-12.2953500748,101.918235779,0
19.700000000000003,14.738838482098972,-0.7079418299270764,402.95684822336455,0.319999992847,96.54221242566915,0.0584754906595,-12.2953500748,101.918235779,0
19.8,14.674397291183512,-0.4485273141648833,402.9660055747666,0.319999992847,95.93169750459444,0.0584754906595,-12.2953500748,101.918235779,0
19.900000000000002,14.60995610026805,-0.18911279840268092,402.9751629261686,0.319999992847,95.32118258351971,1.8005065918,-1.17832052708,97.3303222656,0
20.0,14.555142946753728,0.022240375303654712,402.9777948535413,0.32546703584325654,95.1093408338561,1.8005065918,-1.17832052708,97.3303222656,0
20.1,14.51101770304186,0.1802415243473852,402.973183025978,0.33700294417475196,95.34005894547819,1.8005065918,-1.17832052708,97.3303222656,0
20.200000000000003,14.466892459329992,0.33824267339111563,402.96857119841474,0.3485388525062474,95.57077705710029,1.8005065918,-1.17832052708,97.3303222656,0
20.3,14.422767215618125,0.49624382243484055,402.9639593708515,0.3600747608377424,95.80149516872237,2.24297356606,3.66132044792,95.2310791016,0
20.400000000000002,14.386761492871186,0.5609765267134841,402.9423715513401,0.3724586379509005,96.1229316542585,2.24297356606,3.66132044792,95.2310791016,0
20.5,14.400789921317894,0.05096997148048987,402.81617419248977,0.3900678723742319,97.00339334042671,2.24297356606,3.66132044792,95.2310791016,0
20.6,14.414818349764603,-0.45903658375252243,402.68997683363943,0.40767710679756386,97.88385502659496,2.24297356606,3.66132044792,95.2310791016,0
20.700000000000003,14.428846778211312,-0.9690431389855348,402.5637794747891,0.42528634122089587,98.7643167127632,-0.158402755857,3.71841549873,96.3578109741,0
20.8,14.501551006303838,-1.445636808120775,402.4055062613894,0.43168228969096406,98.83177158576416,-0.158402755857,3.71841549873,96.3578109741,0
20.900000000000002,14.59570276639293,-1.9100171977096978,402.23550848827483,0.43397949028335664,98.60205130744068,-0.158402755857,3.71841549873,96.3578109741,0
21.0,14.689854526482021,-2.3743975872986036,402.06551071516026,0.4362766908757491,98.37233102911719,-2.22551846504,2.03507709503,99.119102478,0
21.1,14.784006286571113,-2.8387779768875268,401.8955129420456,0.4385738914681417,98.14261075079371,-2.22551846504,2.03507709503,99.119102478,0
21.200000000000003,14.87047934120783,-3.017374186114806,401.74522304798916,0.43585584846145126,97.91711703666998,-2.22551846504,2.03507709503,99.119102478,0
21.3,14.944381257178769,-2.7281008329408847,401.6271977696266,0.42492713464341986,97.69854281242182,-2.22551846504,2.03507709503,99.119102478,0
21.400000000000002,15.01828317314971,-2.438827479766953,401.509172491264,0.41399842082538807,97.47996858817365,-2.223344005677862,2.03507709503,99.11649015005577,0
21.5,15.09218508912065,-2.1495541265930322,401.3911472129014,0.40306970700735667,97.26139436392549,-1.41758060455,5.03554916382,98.7411880493,0
21.6,15.16608700509159,-1.860280773419101,401.27312193453884,0.3921409931893249,97.04282013967732,-1.41758060455,5.03554916382,98.7411880493,0
21.700000000000003,15.200206474578058,-1.4022572570592935,401.1889138441621,0.3955529852319401,97.18509997721003,-1.41758060455,5.03554916382,98.7411880493,0
21.8,15.224633481329844,-0.9031200130963372,401.1129448608114,0.4024588990774178,97.41529709624612,-1.41758060455,5.03554916382,98.7411880493,0
21.900000000000002,15.249060488081632,-0.4039827691333633,401.03697587746075,0.40936481292289567,97.64549421528221,-0.021901808252301036,3.713287279827599,98.13347465286594,0
22.0,15.27348749483342,0.09515447482959294,400.96100689411,0.4162707267683734,97.8756913343183,0.298883527517,3.4224216938,97.9970016479,0
22.1,15.2961425603538,0.20405232878275867,400.87988224638485,0.424860873787226,97.87847789268488,0.298883527517,3.4224216938,97.9970016479,0
22.200000000000003,15.31671744013943,-0.14517472448311808,400.7927050618741,0.4354282409074839,97.61429385639997,0.298883527517,3.4224216938,97.9970016479,0
22.3,15.33729231992506,-0.4944017777489824,400.7055278773633,0.44599560802774135,97.35010982011505,0.8405251726582557,2.8183951845503445,98.45085736134102,0
22.400000000000002,15.357867199710691,-0.8436288310148593,400.6183506928525,0.45656297514799926,97.08592578383013,1.46815145016,2.12229537964,98.9694061279,0
22.5,15.395621596765942,-0.9259368867614522,400.5256928199392,0.46329749765210343,97.1648746225961,1.46815145016,2.12229537964,98.9694061279,0
22.6,15.441657032521436,-0.8795820404254893,400.4303930920742,0.4681844749603654,97.40922372104494,1.46815145016,2.12229537964,98.9694061279,0
22.700000000000003,15.48769246827693,-0.8332271940895263,400.33509336420923,0.47307145226862746,97.65357281949377,1.7716062359163793,3.080691380209139,98.33469394945836,0
22.8,15.533727904032421,-0.786872347753565,400.23979363634425,0.4779584295768893,97.8979219179426,2.07219576836,3.9572634697,97.7120132446,0
22.900000000000002,15.575326272094012,-0.864632896019343,400.1513035859855,0.4787190042390698,98.51239450144271,2.07219576836,3.9572634697,97.7120132446,0
23.0,15.613741086880731,-1.0314450428193234,400.0676994135581,0.4765189248018259,99.39242711562738,2.07219576836,3.9572634697,97.7120132446,0
23.1,15.65215590166745,-1.1982571896193097,399.9840952411308,0.47431884536458185,100.2724597298121,2.13753012492788,6.097450373704442,98.34307554599368,0
23.200000000000003,15.69057071645417,-1.365069336419296,399.9004910687034,0.47211876592733787,101.1524923439968,2.19889831543,8.11507320404,98.9266815186,0
23.3,15.727562423848678,-1.513320463963363,399.81824974263293,0.46975324722534606,102.02467514502841,2.19889831543,8.11507320404,98.9266815186,0
23.400000000000002,15.727472010999314,-1.1779243617449888,399.7715203060778,0.463076853081331,102.69231420127494,2.19889831543,8.11507320404,98.9266815186,0
23.5,15.727381598149949,-0.8425282595266265,399.7247908695226,0.4564004589373162,103.35995325752145,2.19889831543,8.11507320404,98.9266815186,0
23.6,15.726227099560473,-0.5150816741751325,399.67989382378886,0.450098744045361,104.05925345973354,2.38513588905,13.852640152,102.409797668,0
23.700000000000003,15.70038947300275,-0.3720365282138811,399.6775019404012,0.45248829864141143,105.49298331176689,2.38513588905,13.852640152,102.409797668,0
23.8,15.674551846445025,-0.22899138225263488,399.6751100570135,0.4548778532374618,106.9267131638002,2.38513588905,13.852640152,102.409797668,0
23.900000000000002,15.648714219887301,-0.08594623629138348,399.67271817362587,0.4572674078335123,108.36044301583357,3.010327556230994,20.327942881713938,104.42975253234266,0
24.0,15.622876593329579,0.05709890966986275,399.67032629023817,0.45965696242956267,109.79417286786688,3.04878258705,20.741350174,104.548774719,0
24.1,15.570718440152897,0.18519141494269226,399.706834765192,0.460000008345,111.28973621267032,3.04878258705,20.741350174,104.548774719,0
24.200000000000003,15.514148310015488,0.3107774845664786,399.7498639107711,0.460000008345,112.79566439361297,3.04878258705,20.741350174,104.548774719,0
24.3,15.45757817987808,0.4363635541902605,399.79289305635024,0.460000008345,114.30159257455557,3.9431950746349926,25.715413793317598,109.49759022019518,0
24.400000000000002,15.401008049740671,0.5619496238140468,399.83592220192935,0.460000008345,115.80752075549822,4.16596984863,26.9886302948,110.69090271,0
24.5,15.346703099624696,0.6103386964924978,399.87808361064447,0.45904832467473405,117.38067326389421,4.16596984863,26.9886302948,110.69090271,0
24.6,15.3010157578225,0.3650409644222632,399.9169438175379,0.4544760735301938,119.20957274059717,4.16596984863,26.9886302948,110.69090271,0
24.700000000000003,15.255328416020305,0.11974323235202855,399.95580402443136,0.44990382238565363,121.03847221730013,4.16596984863,26.9886302948,110.69090271,0
24.8,15.20964107421811,-0.12555449971819743,399.9946642313248,0.4453315712411136,122.86737169400301,5.41290235519,32.6630249023,117.503143311,0
24.900000000000002,15.163953732415914,-0.3708522317884321,400.03352443821825,0.4407593200965734,124.69627117070597,5.41290235519,32.6630249023,117.503143311,0
25.0,15.113924673540184,0.00648784428354493,400.0697412256381,0.4382493611749248,126.75063811065877,5.41290235519,32.6630249023,117.503143311,0
25.1,15.063030987059596,0.5078226044012358,400.1054315915041,0.43615009570819224,128.8499055794627,5.41290235519,32.6630249023,117.503143311,0
25.200000000000003,15.012137300579008,1.0091573645189267,400.1411219573701,0.4340508302414597,130.94917304826663,4.06010246277,30.9012622833,125.407409668,0
25.3,14.96124361409842,1.5104921246365999,400.17681232323616,0.43195156477472724,133.0484405170705,4.06010246277,30.9012622833,125.407409668,0
25.400000000000002,14.908855846625025,1.9543312732444462,400.2157848871228,0.43017557267866696,135.12289598517276,4.06010246277,30.9012622833,125.407409668,0
25.5,14.83672786055401,1.6385222199991978,400.29812277505863,0.4326707593437219,136.8695283164745,4.06010246277,30.9012622833,125.407409668,0
25.6,14.764599874482993,1.322713166753938,400.38046066299444,0.43516594600877695,138.61616064777624,4.06010246277,30.9012622833,125.407409668,0
25.700000000000003,14.692471888411976,1.0069041135086785,400.46279855093024,0.43766113267383194,140.36279297907802,3.30333042145,30.2340946198,135.922042847,0
25.8,14.620066256426114,0.7231714050684286,400.5478322057752,0.43948779301177154,142.10244091677538,3.30333042145,30.2340946198,135.922042847,0
25.900000000000002,14.543506522984728,0.919360725069365,400.67319956856267,0.4313120508650756,143.73758928114466,3.30333042145,30.2340946198,135.922042847,0
26.0,14.466946789543345,1.1155500450702944,400.79856693135014,0.4231363087183799,145.3727376455139,3.30333042145,30.2340946198,135.922042847,0
26.1,14.39038705610196,1.3117393650712308,400.9239342941376,0.414960566571684,147.00788600988318,5.32403516769,30.0769462585,142.573944092,0
26.200000000000003,14.307169944160044,1.3265894768777706,401.06222734280277,0.4089798525261381,148.510072435336,5.32403516769,30.0769462585,142.573944092,0
26.3,14.213681408772757,1.0616580208396689,401.2204629548901,0.40638576628005024,149.80711679524143,5.32403516769,30.0769462585,142.573944092,0
26.400000000000002,14.120192873385468,0.7967265648015576,401.3786985669774,0.4037916800339623,151.10416115514693,5.32403516769,30.01987752630154,142.573944092,0
26.5,14.026704337998181,0.5317951087634558,401.53693417906476,0.40119759378787445,152.40120551505234,5.80589437485,26.8718700409,148.173416138,0
26.6,13.957391928621194,0.7621559151287631,401.6826029717371,0.40396083533447025,153.79216584339224,5.80589437485,26.8718700409,148.173416138,0
26.700000000000003,13.908812112892347,1.4172619105745903,401.8174949029607,0.4113183323924036,155.26366519646228,5.80589437485,26.8718700409,148.173416138,0
26.8,13.860232297163503,2.072367906020394,401.95238683418427,0.4186758294503367,156.7351645495323,5.833751653111371,24.85457592954806,151.3384932771756,0
26.900000000000002,13.811652481434656,2.7274739014662215,402.0872787654079,0.42603332650827,158.20666390260234,5.85619354248,23.1766014099,153.853515625,0
27.0,13.774666050702052,2.821406063546751,402.21309437883315,0.42903469801155164,159.28959215554704,5.85619354248,23.1766014099,153.853515625,0
27.1,13.751241915967666,2.258859928993035,402.3282922383759,0.4269401407419372,159.91795806298504,5.85619354248,23.1766014099,153.853515625,0
27.200000000000003,13.72781778123328,1.696313794439319,402.44349009791864,0.4248455834723228,160.546323970423,5.85619354248,23.1766014099,153.853515625,0
27.3,13.704393646498895,1.1337676598856228,402.5586879574614,0.42275102620270844,161.17468987786097,3.7346777916,19.961315155,159.28213501,0
27.400000000000002,13.68096951176451,0.5712215253319068,402.6738858170042,0.420656468933094,161.80305578529894,3.7346777916,19.961315155,159.28213501,0
27.5,13.646805037871504,0.48063827317386937,402.76846916248803,0.41734192655497876,162.0,3.7346777916,19.961315155,159.28213501,0
27.6,13.60773759387563,0.605506308714855,402.85364197217564,0.4134704603754281,162.0,3.7346777916,19.961315155,159.28213501,0
27.700000000000003,13.568670149879756,0.7303743442558406,402.93881478186324,0.40959899419587753,162.0,3.67127083123907,20.72309714859652,161.04752546897151,0
27.8,13.529602705883883,0.8552423797968218,403.02398759155085,0.405727528016327,162.0,3.60573458672,21.522146225,162.836273193,0
27.900000000000002,13.49053526188801,0.9801104153378073,403.10916040123846,0.40185606183677636,162.0,3.60573458672,21.522146225,162.836273193,0
28.0,13.45247007117065,1.0555044707500414,403.1819136886584,0.396580013137887,162.56999878103755,3.60573458672,21.522146225,162.836273193,0
28.1,13.415327887587388,1.085336353814998,403.24322944037664,0.3900104394253326,163.6649276896248,3.60573458672,21.522146225,162.836273193,0
28.200000000000003,13.378185704004126,1.1151682368799545,403.30454519209485,0.38344086571277813,164.759856598212,4.198701015560919,20.08384866596967,162.77167128234694,0
28.3,13.341043520420866,1.14500011994491,403.36586094381306,0.37687129200022396,165.8547855067992,5.14964056015,18.0065193176,162.671844482,0
28.400000000000002,13.303901336837605,1.1748320030098665,403.42717669553133,0.3703017182876695,166.94971441538644,5.14964056015,18.0065193176,162.671844482,0
28.5,13.289796442468205,1.1022023482590768,403.47931834623336,0.3672595808636712,167.82212795536208,5.14964056015,18.0065193176,162.671844482,0
28.6,13.2768004850244,1.0246405427815923,403.53101838684483,0.3643872422522306,168.68383036059984,5.14964056015,18.0065193176,162.671844482,0
28.700000000000003,13.263804527580595,0.9470787373041077,403.58271842745626,0.36151490364079003,169.54553276583758,2.86613488197,14.2780370712,167.692520142,0
28.8,13.248964557893784,0.9631447057565189,403.6337591589467,0.36132083384799596,170.26416416053254,2.86613488197,14.2780370712,167.692520142,0
28.900000000000002,13.232066703222165,1.083697610703993,403.6840641131419,0.36411566459426803,170.8231308428735,2.86613488197,14.2780370712,167.692520142,0
29.0,13.215168848550546,1.2042505156514631,403.7343690673371,0.36691049534054,171.38209752521442,2.8316385062280762,14.198642563853198,167.692520142,0
29.1,13.198270993878927,1.3248034205989372,403.78467402153234,0.36970532608681206,171.94106420755534,2.00060200691,11.9415969849,170.876800537,0
29.200000000000003,13.185723294524875,1.0202192885286707,403.83410513418374,0.3722062233666527,172.22062207025047,2.00060200691,11.9415969849,170.876800537,0
29.3,13.173688323196387,0.665526675801539,403.88343325211036,0.37467247638326834,172.46724760709415,2.00060200691,11.9415969849,170.876800537,0
29.400000000000002,13.161653351867901,0.31083406307439443,403.93276137003704,0.377138729399884,172.71387314393783,1.8103761673,10.922586441,172.289901733,0
29.5,13.149618380539415,-0.04385854965273728,403.9820894879637,0.37960498241649965,172.9604986807815,1.8103761673,10.922586441,172.289901733,0
29.6,13.14844934321172,-0.08791424817513799,404.0427150170714,0.37770772504609673,173.0,1.8103761673,10.922586441,172.289901733,0
29.700000000000003,13.149352582764507,-0.07272739143413746,404.1054951114468,0.37497828871233013,173.0,1.8103761673,10.922586441,172.289901733,0
29.8,13.150255822317293,-0.057540534693137475,404.1682752058222,0.37224885237856364,173.0,1.79505777359,11.3396425247,173.592666626,0
29.900000000000002,13.147078381752706,-0.03606479238346927,404.22635737483694,0.370000004768,173.07945010454745,1.79505777359,11.3396425247,173.592666626,0
30.0,13.124805970190323,0.014838909013442904,404.2624562601997,0.370000004768,173.530675844153,1.79505777359,11.3396425247,173.592666626,0
30.1,13.10253355862794,0.0657426104103569,404.2985551455625,0.370000004768,173.9819015837586,1.79505777359,11.3396425247,173.592666626,0
30.200000000000003,13.080261147065556,0.11664631180727086,404.33465403092526,0.370000004768,174.43312732336418,2.20726060867,10.4284496307,173.344497681,0
30.3,13.057988735503173,0.16755001320418306,404.37075291628804,0.370000004768,174.88435306296975,2.20726060867,10.4284496307,173.344497681,0
30.400000000000002,13.057885077793962,0.22668275389000198,404.36104555052856,0.370000004768,175.63178922314378,2.20726060867,10.4284496307,173.344497681,0
30.5,13.065421200849276,0.28865138045764505,404.3355524658903,0.370000004768,176.48130521551312,2.20726060867,10.4284496307,173.344497681,0
30.6,13.07295732390459,0.3506200070252903,404.3100593812521,0.370000004768,177.33082120788245,0.9280144736733074,6.431962901341189,174.50109603033937,0
30.700000000000003,13.0811816778697,0.3784007554703363,404.2861929324579,0.3690535717660987,178.04732162471174,-0.215601757169,2.81004929543,175.826446533,0
30.8,13.091959856160972,0.2793202520206072,404.26836245520906,0.36459520172542703,178.2702400071719,-0.215601757169,2.81004929543,175.826446533,0
30.900000000000002,13.102738034452246,0.1802397485708745,404.2505319779603,0.3601368316847552,178.49315838963207,-0.215601757169,2.81004929543,175.826446533,0
31.0,13.113516212743518,0.08115924512114536,404.2327015007115,0.3556784616440835,178.71607677209224,-0.687583088875,-1.841360569,178.511459351,0
31.1,13.124294391034791,-0.01792125832858732,404.21487102346276,0.35122009160341167,178.93899515455243,-0.687583088875,-1.841360569,178.511459351,0
31.200000000000003,13.12973004936555,-0.09621461542317353,404.1772918585333,0.35326975587076576,179.0,-0.687583088875,-1.841360569,178.511459351,0
31.3,13.133152783943885,-0.16667591181369495,404.1322718973493,0.35777147964132133,179.0,-0.687583088875,-1.841360569,178.511459351,0
31.400000000000002,13.136575518522221,-0.2371372082042189,404.0872519361654,0.3622732034118771,179.0,-0.5265006423,-1.82702946663,179.215774536,0
31.5,13.139998253100556,-0.30759850459474036,404.0422319749814,0.3667749271824326,179.0,-0.5265006423,-1.82702946663,179.215774536,0
31.6,13.140210581501593,-0.3912649070246532,403.9942341320282,0.37136926025520745,179.0,-0.5265006423,-1.82702946663,179.215774536,0
31.700000000000003,13.132312746628951,-0.5082901930696548,403.9387135315097,0.3761975439623193,179.0,-0.5265006423,-1.82702946663,179.215774536,0
31.8,13.124414911756311,-0.6253154791146522,403.88319293099113,0.38102582766943094,179.0,-0.5265006423,-1.82702946663,179.215774536,0
31.900000000000002,13.11651707688367,-0.7423407651596536,403.8276723304726,0.38585411137654274,179.0,-0.093932390213,2.64362096786,179.084075928,0
32.0,13.109225082604583,-0.8338144336836221,403.7751542088832,0.38861596790105846,179.0692009041341,-0.093932390213,2.64362096786,179.084075928,0
32.1,13.105613780589774,-0.7700531411465183,403.7408771907884,0.3788235607684172,179.55882136291325,-0.093932390213,2.64362096786,179.084075928,0
32.2,13.102002478574967,-0.7062918486094147,403.70660017269364,0.36903115363577604,180.04844182169236,-0.093932390213,2.64362096786,179.084075928,0
32.300000000000004,13.098391176560158,-0.6425305560723111,403.67232315459887,0.3592387465031348,180.5380622804715,-0.0372039340436,3.02274537086,179.740234375,0
32.4,13.092623788374613,-0.5698835819839634,403.6392353774022,0.34999999404,181.01247973434687,-0.0372039340436,3.02274537086,179.740234375,0
32.5,13.050878113510114,-0.3489625720394175,403.62599228477546,0.34999999404,181.2332069247108,-0.0372039340436,3.02274537086,179.740234375,0
32.6,13.009132438645613,-0.1280415620948716,403.61274919214867,0.34999999404,181.45393411507473,-0.0372039340436,3.02274537086,179.740234375,0
32.7,12.967386763781112,0.09287944784967428,403.59950609952193,0.34999999404,181.67466130543866,0.9085414618501452,1.9268649238697222,-148.21849453666897,0
32.800000000000004,12.925641088916612,0.31380045779422017,403.58626300689514,0.34999999404,181.8953884958026,0.99974322319,1.81737208366,-178.894683838,0
32.9,12.87598669997988,0.309915912605559,403.5555299962748,0.35698837777985637,181.8252903700548,0.99974322319,1.81737208366,-178.894683838,0
33.0,12.819207154204493,0.10349846208060531,403.50903988435306,0.3702727699150549,181.4931804973884,0.99974322319,1.81737208366,-178.894683838,0
33.1,12.762427608429107,-0.10291898844434832,403.4625497724313,0.3835571620502535,181.16107062472202,1.159813513152858,2.4596195463941153,-178.5573796777967,0
33.2,12.716946929358807,-0.2475847599398603,403.4312168393333,0.3874900787920192,181.0,1.63769936562,4.40260601044,-177.563796997,0
33.300000000000004,12.682106588928393,-0.3340979048397421,403.4141576842802,0.38261654904974274,181.0,1.63769936562,4.40260601044,-177.563796997,0
33.4,12.647266248497983,-0.4206110497396178,403.3970985292272,0.3777430193074667,181.0,1.95950895580661,4.760428963676459,-177.92185181106112,0
33.5,12.61242590806757,-0.5071241946394998,403.3800393741742,0.3728694895651903,181.0,2.44907522202,5.30556106567,-178.462692261,0
33.6,12.574943434438035,-0.4534591082751719,403.39347030046235,0.368434928014729,181.07825379568823,2.44907522202,5.30556106567,-178.462692261,0
33.7,12.533677831560015,-0.19908030813114275,403.4505583438667,0.3646289015457549,181.26855501705936,2.44907522202,5.30556106567,-178.462692261,0
33.800000000000004,12.492412228681996,0.05529849201288639,403.507646387271,0.3608228750767808,181.45885623843049,2.44907522202,5.30556106567,-178.462692261,0
33.9,12.45114662580398,0.30967729215689743,403.56473443067534,0.3570168486078069,181.6491574598016,3.04715061188,4.96477222443,-178.8150177,0
34.0,12.409881022925962,0.5640560923009265,403.6218224740797,0.3532108221388328,181.83945868117272,3.04715061188,4.96477222443,-178.8150177,0
34.1,12.368045218486806,0.7803468826027788,403.6752236601057,0.3511228944689283,181.9625699871896,3.04715061188,4.96477222443,-178.8150177,0
34.2,12.323133432515545,0.791169952620294,403.7087359051323,0.3583033387861886,181.72322185279103,3.04715061188,4.96477222443,-178.8150177,0
34.300000000000004,12.278221646544285,0.8019930226378092,403.74224815015896,0.36548378310344887,181.48387371839246,3.04715061188,4.96477222443,-178.8150177,0
34.4,12.233309860573026,0.8128160926553236,403.77576039518556,0.37266422742070865,181.2445255839939,2.85670089722,4.80004930496,-177.755187988,0
34.5,12.188398074601766,0.8236391626728388,403.8092726402122,0.3798446717379689,181.00517744959532,2.85670089722,4.80004930496,-177.755187988,0
34.6,12.181622418588404,0.6273183872569916,403.7720480067118,0.3901202854917929,181.0,2.85670089722,4.80004930496,-177.755187988,0
34.7,12.175689941945611,0.4264177182493699,403.7332594002342,0.40046433259268693,181.0,2.85670089722,4.80004930496,-177.755187988,0
34.800000000000004,12.169757465302817,0.2255170492417482,403.6944707937566,0.41080837969358097,181.0,1.9760343379507037,3.4614834166848962,-178.54179176536533,0
34.9,12.168705598123168,0.029899864176211276,403.6472898421974,0.42054099938036793,181.0,1.86159622669,3.28522324562,-178.674346924,0
35.0,12.20658039840685,-0.12357741520463894,403.5331733923784,0.425397008511321,181.0,1.86159622669,3.28522324562,-178.674346924,0
35.1,12.244455198690531,-0.27705469458548915,403.4190569425594,0.430253017642274,181.0,1.86159622669,3.28522324562,-178.674346924,0
35.2,12.282329998974213,-0.43053197396633935,403.3049404927404,0.4351090267732271,181.0,0.502507567406,1.26196432114,-178.069213867,0
35.300000000000004,12.320204799257894,-0.5840092533471896,403.1908240429214,0.4399650359041801,181.0,0.502507567406,1.26196432114,-178.069213867,0
35.4,12.401701041695631,-1.0104744994013533,403.07837797555896,0.4367168928634691,180.6716892116369,0.502507567406,1.26196432114,-178.069213867,0
35.5,12.483513622090083,-1.438919424515174,402.9659440216285,0.43340997939215686,180.34099754912506,0.502507567406,1.26196432114,-178.069213867,0
35.6,12.565326202484535,-1.867364349628995,402.853510067698,0.4301030659208447,180.0103058866132,-0.514158666134,-1.90705823898,-178.170791626,0
35.7,12.59853388507643,-1.3963877203936292,402.84796488060374,0.4177646153723022,179.38823043528294,-0.514158666134,-1.90705823898,-178.170791626,0
35.800000000000004,12.630178088252944,-0.8964792931388915,402.8458579969365,0.4051356463174382,178.75678200763983,-0.514158666134,-1.90705823898,-178.170791626,0
35.9,12.661822291429456,-0.3965708658841893,402.8437511132692,0.39250667726257515,178.12533357999675,0.353111714125,-2.57018470764,-179.686294556,0
36.0,12.69346649460597,0.10333756137054828,402.84164422960197,0.37987770820771116,177.4938851523536,0.353111714125,-2.57018470764,-179.686294556,0
36.1,12.71852420762237,0.4794337516450322,402.84090573369303,0.37181979538568033,177.0,0.353111714125,-2.57018470764,-179.686294556,0
36.2,12.719934841217627,0.411014315233916,402.8450800780395,0.3801730707911668,177.0,0.353111714125,-2.57018470764,-179.686294556,0
36.300000000000004,12.721345474812884,0.3425948788227999,402.8492544223859,0.3885263461966533,177.0,0.353111714125,-2.57018470764,-179.686294556,0
36.4,12.722756108408142,0.27417544241168856,402.85342876673235,0.39687962160213924,177.0,0.791465759277,-0.899920105934,177.146453857,0
36.5,12.724166742003398,0.20575600600057237,402.85760311107873,0.40523289700762577,177.0,0.791465759277,-0.899920105934,177.146453857,0
36.6,12.735756089673503,0.20587035444047244,402.85464480533636,0.41356050497702906,177.17802546479203,0.791465759277,-0.899920105934,177.146453857,0
36.7,12.760875989684866,0.29708658041150454,402.8422050764349,0.42185399325460926,177.5926999651825,0.791465759277,-0.899920105934,177.146453857,0
36.800000000000004,12.78599588969623,0.38830280638253667,402.82976534753334,0.43014748153218946,178.00737446557298,0.7721084695495206,-0.7948005287595244,177.18015180975559,0
36.9,12.81111578970759,0.47951903235356225,402.81732561863186,0.43844096980976904,178.42204896596343,0.535403490067,0.574837505817,177.569335938,0
37.0,12.836235689718952,0.5707352583245944,402.8048858897304,0.44673445808734924,178.8367234663539,0.535403490067,0.574837505817,177.569335938,0
37.1,12.895839331380408,0.23901511202211767,402.73086785046286,0.45450789433674893,179.300527071909,0.535403490067,0.574837505817,177.569335938,0
37.2,12.97783927909274,-0.3673913641339914,402.61685627745857,0.46194357012779425,179.79623877161572,0.535403490067,0.574837505817,177.569335938,0
37.300000000000004,13.05983922680507,-0.9737978402901004,402.5028447044542,0.46937924591883956,180.29195047132248,0.30712152040519586,3.007034486814815,178.18929203196635,0
37.4,13.141839174517395,-1.5802043164461663,402.3888331314499,0.4768149217098843,180.78766217102918,-0.108927853405,7.55912494659,179.292709351,0
37.5,13.231659362206095,-1.8147555424980488,402.26039138899864,0.479999989271,181.1624623175681,-0.108927853405,7.55912494659,179.292709351,0
37.6,13.327339415429684,-1.7706680348745973,402.1211368258589,0.479999989271,181.4466609678206,-0.108927853405,7.55912494659,179.292709351,0
37.7,13.423019468653271,-1.7265805272511456,401.9818822627192,0.479999989271,181.7308596180731,-0.24064868877984935,7.034720742147189,131.56510734644303,0
37.800000000000004,13.518468119183817,-1.6810584652388503,401.84454388141637,0.4794095197545766,181.98523825900975,-1.10851061344,3.61206364632,-178.674804688,0
37.9,13.609780848648429,-1.6098962361263973,401.74145392099894,0.4682654335984591,181.70663604698342,-1.10851061344,3.61206364632,-178.674804688,0
38.0,13.701093578113046,-1.5387340070139393,401.63836396058144,0.45712134744234084,181.4280338349571,-1.10851061344,3.61206364632,-178.674804688,0
38.1,13.792406307577664,-1.4675717779014812,401.535274000164,0.44597726128622256,181.14943162293073,-0.591774940491,5.61742210388,-177.57434082,0
38.2,13.83324651827503,-1.2311927262907425,401.50648368340455,0.43156720429435824,180.63859453500433,-0.591774940491,5.61742210388,-177.57434082,0
38.300000000000004,13.815697350665776,-0.8036817916853075,401.5636472700277,0.4133788930896191,179.85909540373012,-0.591774940491,5.61742210388,-177.57434082,0
38.400000000000006,13.79814818305652,-0.3761708570798725,401.6208108566508,0.39519058188488004,179.0795962724559,-0.591774940491,5.61742210388,-177.57434082,0
38.5,13.780599015447267,0.051340077525531935,401.67797444327385,0.3770022706801422,178.30009714118174,2.14316439629,1.8112142086,-179.05670166,0
38.6,13.73051758643267,0.6231250810171172,401.75766755172845,0.37164814195932067,178.65925550519432,2.14316439629,1.8112142086,-179.05670166,0
38.7,13.660071538902333,1.2852230922019707,401.8514637411746,0.3743279837943688,179.7311932614134,2.14316439629,1.8112142086,-179.05670166,0
38.800000000000004,13.589625491371994,1.947321103386824,401.9452599306208,0.377007825629417,180.80313101763252,2.781076426097176,0.810265181573812,-58.59575506109931,0
38.900000000000006,13.519179443841656,2.6094191145716774,402.03905612006696,0.37968766746446514,181.87506877385164,4.06227445602,-1.25887691975,178.810852051,0
39.0,13.438334150293954,2.16247441363696,402.14774904716893,0.38592461608167034,182.59246176717053,4.06227445602,-1.25887691975,178.810852051,0
39.1,13.356116964879913,1.5692223098739766,402.25840718532476,0.392630826206294,183.263082419912,4.06227445602,-1.25887691975,178.810852051,0
39.2,13.273899779465872,0.9759702061109936,402.3690653234806,0.39933703633091766,183.93370307265343,4.63437080383,0.55753993988,-177.676483154,0
39.300000000000004,13.20822359231866,0.7521350613879543,402.48585695159835,0.4041512324292199,184.0,4.63437080383,0.55753993988,-177.676483154,0
39.400000000000006,13.144362024247705,0.5688265553932825,402.60332145010216,0.4087578664028352,184.0,4.63437080383,0.55753993988,-177.676483154,0
39.5,13.080500456176756,0.3855180493986239,402.72078594860596,0.4133645003764502,184.0,4.88009643555,2.89743900299,-175.271850586,0
39.6,13.016638888105799,0.20220954340395203,402.8382504471097,0.41797113435006544,184.0,4.88009643555,2.89743900299,-175.271850586,0
39.7,12.96658745937708,0.3807749183490694,402.93869382997104,0.419999986887,183.80516120411585,4.88009643555,2.89743900299,-175.271850586,0
39.800000000000004,12.927405352554869,0.8441544869833253,403.0257406799994,0.419999986887,183.45697380400256,4.88009643555,2.89743900299,-175.271850586,0
39.900000000000006,12.888223245732659,1.3075340556175814,403.1127875300277,0.419999986887,183.10878640388924,4.862261711864637,3.3804161814448177,-175.392385298331,0
40.0,12.882995662737327,1.234905488767333,403.1441086813381,0.4296243325006978,183.5499624285449,4.79480791092,5.24744033813,-175.836105347,0
40.1,12.893197382882573,0.9187090235606168,403.1501074719926,0.4436220849323092,184.34983373725004,4.79480791092,5.24744033813,-175.836105347,0
40.2,12.90339910302782,0.6025125583539005,403.1561062626472,0.45761983736392065,185.1497050459552,4.669482386511392,5.9635907599311695,-175.91785951625434,0
40.300000000000004,12.913600823173065,0.2863160931471842,403.1621050533018,0.4716175897955321,185.94957635466034,4.36945152283,7.63995409012,-176.111358643,0
40.400000000000006,12.923802543318311,-0.02988037205953198,403.1681038439563,0.4856153422271435,186.7494476633655,4.36945152283,7.63995409012,-176.111358643,0
40.5,12.975836848516693,-0.35284561864334046,403.11250716834815,0.48154760153559417,187.16904811972367,4.36945152283,7.63995409012,-176.111358643,0
40.6,13.046951601442961,-0.6788982044170271,403.02881590874983,0.46923992786411994,187.41520153446524,4.36945152283,7.63995409012,-176.111358643,0
40.7,13.118066354369228,-1.0049507901907135,402.94512464915147,0.45693225419264577,187.66135494920684,0.995462596416,12.0061607361,-172.723297119,0
40.800000000000004,13.189181107295497,-1.3310033759644,402.86143338955316,0.44462458052117154,187.90750836394844,0.995462596416,12.0061607361,-172.723297119,0
40.900000000000006,13.24531580088586,-1.1586262079943337,402.833845209741,0.4303628126382979,188.1927436536001,0.995462596416,12.0061607361,-172.723297119,0
41.0,13.292433742178162,-0.6862357005097034,402.8400264271154,0.4149248422400564,188.50150298795052,0.995462596416,12.0061607361,-172.723297119,0
41.1,13.339551683470464,-0.21384519302503957,402.8462076444897,0.3994868718418138,188.81026232230099,0.9661718399917223,11.560787487464054,-172.3451897400382,0
41.2,13.367860012078994,0.1670293834239881,402.8796976173531,0.3911420604471713,189.34262173132845,0.887489676476,10.3266267776,-171.345092773,0
