t_sec,airspeed,climb,altitude,throttle,heading,pitch,roll,yaw,is_boundary
0.0,16.495765686,4.676176548,434.489990234,0.370000004768,285.0,-1.41296613216,2.25458168983,-77.2387466431,0
0.1,16.476220173937353,3.672803229680161,434.6058744350134,0.36678087127129505,285.32191365667956,-1.41296613216,2.25458168983,-77.2387466431,0
0.2,16.456674661874708,2.669429911360323,434.72175863602683,0.3635617377745901,285.6438273133591,-4.02091932297,18.4051418304,-74.8630981445,0
0.30000000000000004,16.437129149812066,1.666056593040484,434.8376428370402,0.36034260427788517,285.96574097003867,-4.02091932297,18.4051418304,-74.8630981445,0
0.4,16.451479476581152,1.4112334887737938,434.9085585622001,0.331719407690904,286.6060129317922,-4.02091932297,18.4051418304,-74.8630981445,0
0.5,16.4698667228024,1.2455610597574884,434.97411864132306,0.300070643365002,287.28420066370524,-4.657315298914617,24.686348971330286,-73.8475723660979,0
0.6000000000000001,16.488253969023646,1.0798886307411828,435.0396787204461,0.2684218790391,287.96238839561835,-5.17468166351,29.4075527191,-73.0349502563,0
0.7000000000000001,16.506641215244894,0.9142162017248773,435.10523879956907,0.23677311471319795,288.6405761275314,-5.17468166351,29.4075527191,-73.0349502563,0
0.8,16.49224546976943,0.7044086496106876,435.1055640764504,0.20325488644296133,289.1860568043639,-5.17468166351,29.4075527191,-73.0349502563,0
0.9,16.44088508894518,0.44483630645850436,435.03233350769005,0.1676287342334044,289.5819029406808,-5.180420615444817,29.4075527191,-73.02309431756998,0
1.0,16.389524708120927,0.18526396330632122,434.9591029389298,0.13200258202384751,289.97774907699767,-7.40540647507,35.2973213196,-70.4893722534,0
1.1,16.338164327296678,-0.07430837984586236,434.8858723701695,0.09637642981429057,290.3735952133145,-7.40540647507,35.2973213196,-70.4893722534,0
1.2000000000000002,16.286803946472425,-0.33388072299804583,434.8126418014092,0.060750277604733616,290.7694413496314,-7.40540647507,35.2973213196,-70.4893722534,0
1.3,16.209545516518634,-0.5174532440347761,434.6335554320716,0.038064776062792696,291.5805669259108,-7.40540647507,35.2973213196,-70.4893722534,0
1.4000000000000001,16.0961620331754,-0.5950140103723082,434.3068113597035,0.0334301205101925,292.9709636227731,-7.40540647507,35.2973213196,-70.4893722534,0
1.5,15.982778549832169,-0.6725747767098401,433.98006728733543,0.028795464957592314,294.36136031963554,-11.6415119171,29.9164810181,-68.2504730225,0
1.6,15.869395066488936,-0.7501355430473722,433.6533232149673,0.024160809404992118,295.7517570164979,-11.6415119171,29.9164810181,-68.2504730225,0
1.7000000000000002,15.768343188249826,-0.8909653910098863,433.30362786033487,0.019999999553,297.1617921255855,-11.6415119171,29.9164810181,-68.2504730225,0
1.8,15.775574373341822,-1.5873571398483457,432.7523987126579,0.019999999553,298.7442709203697,-11.6415119171,29.9164810181,-68.2504730225,0
1.9000000000000001,15.782805558433816,-2.283748888686807,432.201169564981,0.019999999553,300.3267497151538,-17.3268699646,28.1272449493,-62.1933937073,0
2.0,15.79003674352581,-2.980140637525266,431.64994041730404,0.019999999553,301.909228509938,-17.3268699646,28.1272449493,-62.1933937073,0
2.1,15.812419881687994,-3.6496778693351075,431.0778372942873,0.019228302890428563,303.2315090039452,-17.3268699646,28.1272449493,-62.1933937073,0
2.2,15.868415126623857,-4.259642787955993,430.4594287026181,0.0167447245648734,303.97658251826266,-17.3268699646,28.1272449493,-62.1933937073,0
2.3000000000000003,15.924410371559722,-4.869607706576879,429.8410201109489,0.014261146239318234,304.7216560325801,-19.9473800659,25.314207077,-56.3360748291,0
2.4000000000000004,15.980405616495586,-5.479572625197765,429.22261151927967,0.011777567913763068,305.46672954689757,-19.9473800659,25.314207077,-56.3360748291,0
2.5,16.057873476448112,-5.898024771139452,428.5902433959782,0.00999999977648,306.09781193003244,-19.9473800659,25.314207077,-56.3360748291,0
2.6,16.189404346980105,-5.834292653663575,427.9227284446943,0.00999999977648,306.44189136889116,-19.9473800659,25.314207077,-56.3360748291,0
2.7,16.320935217512094,-5.7705605361876975,427.25521349341045,0.00999999977648,306.7859708077499,-21.2357254028,21.478811264,-53.1462249756,0
2.8000000000000003,16.451903273309583,-5.881600930501364,426.5960181319007,0.009200076052199429,307.15998474843207,-21.2357254028,21.478811264,-53.1462249756,0
2.9000000000000004,16.58194508109022,-6.280271840721811,425.9505146712187,0.007083684016369078,307.5832631650593,-21.2357254028,21.478811264,-53.1462249756,0
3.0,16.711986888870854,-6.678942750942257,425.3050112105367,0.004967291980538736,308.00654158168646,-21.6573638916,17.9985027313,-52.3110580444,0
3.1,16.84202869665149,-7.077613661162704,424.6595077498547,0.002850899944708385,308.42981999831363,-21.6573638916,17.9985027313,-52.3110580444,0
3.2,16.972070504432125,-7.476284571383151,424.0140042891727,0.0007345079088780342,308.85309841494086,-21.6573638916,17.9985027313,-52.3110580444,0
3.3000000000000003,17.09657932370537,-7.676232751318268,423.34621169012235,0.0,309.0,-21.6573638916,17.9985027313,-52.3110580444,0
3.4000000000000004,17.218147213461343,-7.7705545518619905,422.6665718253757,0.0,309.0,-21.6573638916,17.9985027313,-52.3110580444,0
3.5,17.339715103217312,-7.864876352405712,421.98693196062897,0.0,309.0,-22.7467975616,9.29740715027,-50.2940750122,0
3.6,17.441448434785283,-7.973666059961285,421.2941818127057,0.0,309.04933399980956,-22.7467975616,9.29740715027,-50.2940750122,0
3.7,17.443393828690596,-8.155244008592033,420.5354736480742,0.0,309.34686803770353,-22.7467975616,9.29740715027,-50.2940750122,0
3.8000000000000003,17.44533922259591,-8.336821957222782,419.7767654834426,0.0,309.64440207559744,-22.7051086426,7.25302505493,-50.9622955322,0
3.9000000000000004,17.44728461650122,-8.518399905853531,419.0180573188111,0.0,309.9419361134914,-22.7051086426,7.25302505493,-50.9622955322,0
4.0,17.55211907645658,-8.58584149189193,418.2551106089481,0.004299867710344037,311.07496695161154,-22.7051086426,7.25302505493,-50.9622955322,0
4.1000000000000005,17.681900858738114,-8.625608644328771,417.4911361868301,0.009642316424170882,312.41057915991917,-23.268511731825388,4.5525755005145365,-50.49883080806904,0
4.2,17.811682641019647,-8.66537579676561,416.7271617647121,0.014984765137997682,313.7461913682268,-23.9249515533,1.33067989349,-49.9612503052,0
4.3,17.9338835567624,-8.681520107306987,415.96134483941194,0.02096115435110511,315.0,-23.9249515533,1.33067989349,-49.9612503052,0
4.4,17.939892047854343,-8.335595614376393,415.1672877503957,0.03665399000459704,315.0,-23.9249515533,1.33067989349,-49.9612503052,0
4.5,17.945900538946287,-7.989671121445804,414.3732306613795,0.05234682565808883,315.0,-23.361459722387306,1.4772742443481968,-45.15496835456872,0
4.6000000000000005,17.951909030038227,-7.643746628515211,413.57917357236335,0.06803966131158076,315.0,-23.2869739532,1.49039018154,-44.5314979553,0
4.7,17.98098375663246,-7.678253007167787,412.77291664905243,0.08459540278643352,314.1891442712953,-23.2869739532,1.49039018154,-44.5314979553,0
4.800000000000001,18.01335123048317,-7.76706658772853,411.9649181771087,0.10127432564368413,313.2625374060072,-23.18680667839033,0.749452253638291,-44.39582543910947,0
4.9,18.04571870433388,-7.855880168289272,411.15691970516497,0.11795324850093461,312.3359305407191,-22.9975357056,-0.689312756062,-44.1413917542,0
5.0,18.07808617818459,-7.944693748850014,410.34892123322123,0.13463217135818506,311.40932367543104,-22.9975357056,-0.689312756062,-44.1413917542,0
5.1000000000000005,18.1104536520353,-8.033507329410757,409.54092276127744,0.1513110942154357,310.48271681014296,-22.9975357056,-0.689312756062,-44.1413917542,0
5.2,18.162801264516826,-8.3250228661462,408.71103994512487,0.16693141091989278,310.5545131927315,-22.9975357056,-0.689312756062,-44.1413917542,0
5.300000000000001,18.236876664486015,-8.836970558457653,407.85735857636644,0.18140052592620182,311.7120424622481,-22.9975357056,-0.689312756062,-44.1413917542,0
5.4,18.310952064455208,-9.348918250769099,407.00367720760795,0.19586964093251072,312.8695717317647,-21.1092281342,1.36495912075,-49.0583000183,0
5.5,18.38616969772256,-9.833035542369261,406.15409142935243,0.21026485217083324,314.0,-21.1092281342,1.36495912075,-49.0583000183,0
5.6000000000000005,18.509031799759175,-9.15630009078977,405.4753396078042,0.22157741315599117,314.0,-21.1092281342,1.36495912075,-49.0583000183,0
5.7,18.631893901795788,-8.479564639210286,404.7965877862559,0.23288997414114895,314.0,-18.7726097107,-4.46375799179,-45.7552452087,0
5.800000000000001,18.754756003832405,-7.802829187630795,404.11783596470764,0.24420253512630688,314.0,-18.7726097107,-4.46375799179,-45.7552452087,0
5.9,18.824624583044503,-7.362867514548398,403.5076433662452,0.2512433517479497,314.0,-18.7726097107,-4.46375799179,-45.7552452087,0
6.0,18.83878641102343,-7.171802258881998,402.96952017139324,0.25379371391579025,314.0,-18.7726097107,-4.46375799179,-45.7552452087,0
6.1000000000000005,18.852948239002355,-6.980737003215597,402.43139697654135,0.25634407608363075,314.0,-15.6898593903,-3.04915237427,-45.8326644897,0
6.2,18.867110066981283,-6.789671747549197,401.8932737816894,0.25889443825147124,314.0,-15.6898593903,-3.04915237427,-45.8326644897,0
6.300000000000001,18.845363358387456,-6.448009411117826,401.35622836624964,0.2613561203609492,314.0,-15.6898593903,-3.04915237427,-45.8326644897,0
6.4,18.796139844385866,-5.991111894473212,400.8200076554068,0.26374994549435005,314.0,-15.6898593903,-3.04915237427,-45.8326644897,0
6.5,18.746916330384277,-5.534214377828598,400.283786944564,0.26614377062775096,314.0,-13.1609039307,-2.59007954597,-45.262802124,0
6.6000000000000005,18.697692816382688,-5.077316861183981,399.74756623372116,0.2685375957611519,314.0,-13.1609039307,-2.59007954597,-45.262802124,0
6.7,18.670163923932233,-4.796850596963953,399.2468336018746,0.2803889696293133,313.53826851166554,-13.1609039307,-2.59007954597,-45.262802124,0
6.800000000000001,18.676697940017192,-4.793400532356445,398.8018211026008,0.3070897206466476,312.3515685136022,-12.843331007736976,-2.058743999308409,-45.281009099796435,0
6.9,18.68323195610215,-4.789950467748937,398.35680860332707,0.33379047166398157,311.16486851553896,-11.0230560303,1.09351718426,-45.3839759827,0
7.0,18.689901155066046,-4.785242394171195,397.91497831640976,0.3604721468353241,310.00944265116925,-11.0230560303,1.09351718426,-45.3839759827,0
7.1000000000000005,18.703783344688574,-4.713410384321309,397.64294222370705,0.38613598675988486,310.5227194802518,-11.0230560303,1.09351718426,-45.3839759827,0
7.2,18.717665534311102,-4.641578374471424,397.37090613100435,0.41179982668444537,311.0359963093343,-9.42531967163,-6.71683597565,-49.5483474731,0
7.300000000000001,18.73154772393363,-4.569746364621539,397.09887003830164,0.43746366660900615,311.5492731384168,-9.42531967163,-6.71683597565,-49.5483474731,0
7.4,18.74288378753156,-4.450360194096435,396.8385460089031,0.4622179217551962,312.03696524039515,-9.42531967163,-6.71683597565,-49.5483474731,0
7.5,18.735872800952762,-3.988304979073421,396.66261757149005,0.48041782829196006,312.34029715462043,-9.42531967163,-6.71683597565,-49.5483474731,0
7.6000000000000005,18.72886181437396,-3.5262497640504025,396.486689134077,0.49861773482872407,312.64362906884577,-7.23685503006,-5.04919576645,-47.1024246216,0
7.7,18.721850827795162,-3.064194549027388,396.31076069666386,0.5168176413654879,312.94696098307105,-7.23685503006,-5.04919576645,-47.1024246216,0
7.800000000000001,18.693744379513564,-2.5877169993839826,396.1444988451255,0.5323180950040098,312.6920473132683,-7.23685503006,-5.04919576645,-47.1024246216,0
7.9,18.66116763837722,-2.1081832445571815,395.98028541852204,0.5472465135208191,312.31883705054736,-5.982634556663706,-2.508858006965765,-46.860363958776354,0
8.0,18.621158185543443,-1.667987905421778,395.8425437776435,0.5607277654432465,312.0,-4.00817251205,1.56938874722,-46.4761924744,0
8.1,18.537564331854117,-1.4584676345941985,395.8600290535843,0.5657230311574183,312.0,-4.00817251205,1.56938874722,-46.4761924744,0
8.200000000000001,18.45397047816479,-1.2489473637666149,395.877514329525,0.5707182968715903,312.0,-0.827565550804,5.81469583511,-47.0394706726,0
8.3,18.370376624475462,-1.0394270929390352,395.8949996054658,0.575713562585762,312.0,-0.827565550804,5.81469583511,-47.0394706726,0
8.4,18.28059330143426,-0.711191204111016,395.96247851065164,0.5786099033167968,312.06950406599447,-0.827565550804,5.81469583511,-47.0394706726,0
8.5,18.153381950936698,0.33492390140149064,396.33227136581456,0.5688139408096154,312.5593026584622,-0.827565550804,5.81469583511,-47.0394706726,0
8.6,18.026170600439137,1.3810390069139973,396.7020642209775,0.559017978302434,313.04910125092994,3.75536394119,6.31413602829,-47.0633659363,0
8.700000000000001,17.898959249941573,2.4271541124265226,397.0718570761405,0.5492220157952525,313.5388998433977,3.75536394119,6.31413602829,-47.0633659363,0
8.8,17.770567574549396,3.425172840974394,397.4471080114162,0.5394228925432605,314.0,3.75536394119,6.31413602829,-47.0633659363,0
8.9,17.623211520878858,3.650423079476517,397.9100543739464,0.5295729853414387,314.0,3.75536394119,6.31413602829,-47.0633659363,0
9.0,17.47585546720832,3.87567331797864,398.3730007364766,0.5197230781396169,314.0,5.6571075361887,4.245073494558752,-45.75094839720253,0
9.1,17.32842729066563,4.1027859637867135,398.8356026296776,0.5097965109051279,313.9877912221613,6.5685544014,3.24220848083,-45.1222686768,0
9.200000000000001,17.17546954753364,4.472686949923932,399.2717945084533,0.49399251889939655,313.03955136268894,6.5685544014,3.24220848083,-45.1222686768,0
9.3,17.022511804401653,4.842587936061143,399.707986387229,0.47818852689366553,312.09131150321656,6.721053707407091,4.861191393358048,-45.39891524493754,0
9.4,16.869554061269667,5.212488922198354,400.14417826600476,0.4623845348879345,311.14307164374424,7.03641033173,8.24608421326,-45.9680213928,0
9.5,16.7320543218273,5.394359861775724,400.5803115582218,0.4490545795563841,310.81757619410774,7.03641033173,8.24608421326,-45.9680213928,0
9.600000000000001,16.597301340085583,5.5428194379769495,401.01643444009846,0.4361642398067009,310.60273720681954,7.251914555436824,8.850673519360567,-46.86342916950882,0
9.700000000000001,16.462548358343874,5.691279014178172,401.4525573219751,0.4232739000570179,310.38789821953134,7.66597795486,10.0424156189,-48.6230773926,0
9.8,16.32779537660216,5.839738590379396,401.8886802038517,0.4103835603073349,310.17305923224313,7.66597795486,10.0424156189,-48.6230773926,0
9.9,16.197986317141705,5.899936270265505,402.2907417832622,0.39872055771298426,310.04264827320594,7.66597795486,10.0424156189,-48.6230773926,0
10.0,16.088655869710955,5.594537359263396,402.551715344142,0.3921414055523241,310.26195333651424,7.66597795486,10.0424156189,-48.6230773926,0
10.100000000000001,15.9793254222802,5.28913844826128,402.81268890502184,0.38556225339166383,310.48125839982254,4.48974943161,3.88037085533,-49.7471313477,0
10.200000000000001,15.86999497484945,4.98373953725917,403.07366246590163,0.37898310123100365,310.70056346313083,4.48974943161,3.88037085533,-49.7471313477,0
10.3,15.760664527418697,4.67834062625706,403.3346360267815,0.3724039490703435,310.91986852643913,4.48974943161,3.88037085533,-49.7471313477,0
10.4,15.678413320649222,4.3813180021423515,403.5105355592739,0.36872155743158214,310.87215514443255,4.48974943161,3.88037085533,-49.7471313477,0
10.5,15.611753430170694,4.089118162382595,403.63745232665394,0.3667070231039248,310.6707015195405,4.48974943161,3.88037085533,-49.7471313477,0
10.600000000000001,15.545093539692164,3.7969183226228345,403.764369094034,0.36469248877626737,310.46924789464845,1.25159835815,1.97678613663,-48.2029762268,0
10.700000000000001,15.478433649213637,3.5047184828630784,403.8912858614141,0.36267795444861,310.2677942697564,1.25159835815,1.97678613663,-48.2029762268,0
10.8,15.411773758735109,3.2125186431033224,404.0182026287941,0.3606634201209526,310.06634064486434,1.25159835815,1.97678613663,-48.2029762268,0
10.9,15.361821085972934,2.7129481156590094,404.1502375170939,0.3576253042620602,310.23747052306,1.25159835815,1.97678613663,-48.2029762268,0
11.0,15.320071678337204,2.111558317082266,404.2847854092682,0.35408460857079765,310.5915393746657,1.25159835815,1.97678613663,-48.2029762268,0
11.100000000000001,15.278322270701475,1.5101685185055111,404.41933330144246,0.3505439128795351,310.9456082262714,-1.7166018486,-2.86598777771,-49.3308601379,0
11.200000000000001,15.26097429087122,1.404871734386549,404.47475218464893,0.3481710854140993,311.73156414797984,-1.7166018486,-2.86598777771,-49.3308601379,0
11.3,15.248055201462787,1.3896164682304044,404.5158090513087,0.346010227528499,312.59590812645837,-2.7244017083535224,-2.3441047214016417,-49.15840726622316,0
11.4,15.235136112054354,1.3743612020742597,404.5568659179684,0.3438493696428988,313.4602521049369,-4.13372850418,-1.59579753876,-48.9148826599,0
11.5,15.222217022645921,1.359105935918115,404.59792278462817,0.34168851175729853,314.32459608341543,-4.13372850418,-1.59579753876,-48.9148826599,0
11.600000000000001,15.220127137632037,1.2296924662712383,404.62008686414737,0.34104399270253855,315.0,-4.13372850418,-1.59579753876,-48.9148826599,0
11.700000000000001,15.25674840253658,0.6921977407222819,404.57471490974126,0.34581992908191345,315.0,-4.13372850418,-1.59579753876,-48.9148826599,0
11.8,15.293369667441125,0.1547030151733253,404.5293429553351,0.35059586546128835,315.0,-6.62561466409963,3.0586597842618692,-45.93094482575747,0
11.9,15.329990932345668,-0.3827917103756311,404.483971000929,0.3553718018406632,315.0,-7.43488121033,4.56367874146,-44.9517021179,0
12.0,15.365910404271776,-0.9041703158320925,404.4383083174083,0.360094120067029,315.0,-7.43488121033,4.56367874146,-44.9517021179,0
12.100000000000001,15.379842596688448,-0.9206284561789727,404.38353704702405,0.36313657349961836,315.0,-7.43488121033,4.56367874146,-44.9517021179,0
12.200000000000001,15.393774789105118,-0.9370865965258526,404.32876577663984,0.3661790269322076,315.0,-7.91534805298,12.1787080765,-44.3859901428,0
12.3,15.40770698152179,-0.9535447368727326,404.27399450625563,0.3692214803647969,315.0,-7.91534805298,12.1787080765,-44.3859901428,0
12.4,15.462825063931875,-1.0182262107766975,404.18560356002206,0.373233787319441,315.4850678453011,-7.91534805298,12.1787080765,-44.3859901428,0
12.5,15.532106231850081,-1.0994908202342406,404.08565141300136,0.37757960942612895,316.1369417829639,-8.132633346652492,11.321352947686178,-44.43927332707354,0
12.600000000000001,15.601387399768289,-1.1807554296917853,403.9856992659807,0.381925431532817,316.78881572062664,-8.29841136932,10.6531772614,-44.4885978699,0
12.700000000000001,15.670668567686494,-1.2620200391493284,403.88574711896,0.3862712536395049,317.44068965828944,-8.29841136932,10.6531772614,-44.4885978699,0
12.8,15.73629142658127,-1.3030669575545,403.79579416879943,0.3903225607092773,318.1290297442321,-8.29841136932,10.6531772614,-44.4885978699,0
12.9,15.779809158196468,-1.1011007313868486,403.7662608053577,0.3925942771717316,319.0377144877642,-8.29841136932,10.6531772614,-44.4885978699,0
13.0,15.823326889811668,-0.899134505219197,403.736727441916,0.3948659936341859,319.9463992312963,-6.88052415848,16.0814094543,-41.9886550903,0
13.100000000000001,15.866844621426868,-0.6971682790515419,403.7071940784743,0.3971377100966403,320.8550839748284,-6.88052415848,16.0814094543,-41.9886550903,0
13.200000000000001,15.910362353042068,-0.4952020528838903,403.67766071503263,0.39940942655909456,321.7637687183605,-6.88052415848,16.0814094543,-41.9886550903,0
13.3,16.01756582454129,-0.5844701572294315,403.56602692283184,0.41247472491604675,323.455383820354,-6.88052415848,16.0814094543,-41.9886550903,0
13.4,16.147141943082318,-0.776048180481359,403.42555144773706,0.42933178259749066,325.42204047168116,-7.470988629233806,23.0897166273457,-39.11705858325903,0
13.5,16.276718061623345,-0.9676262037332864,403.28507597264223,0.44618884027893463,327.38869712300834,-7.94277763367,28.9995422363,-36.8428421021,0
13.600000000000001,16.40846046427305,-1.2133414456425728,403.1451469873964,0.46186273103942704,329.37254452408297,-7.94277763367,28.9995422363,-36.8428421021,0
13.700000000000001,16.550025584644573,-1.7045344690613622,403.00769598530286,0.47217171392112794,331.43434101850113,-7.94277763367,28.9995422363,-36.8428421021,0
13.8,16.6915907050161,-2.1957274924801515,402.87024498320926,0.4824806968028288,333.49613751291923,-8.02864551544,37.3919029236,-30.3331947327,0
13.9,16.84594176361099,-2.4948079312422364,402.7366294457373,0.4922745107622945,335.60653423851,-8.02864551544,37.3919029236,-30.3331947327,0
14.0,17.034756204260706,-2.2760656426532475,402.6133520688529,0.5006797317941545,337.8479286512158,-8.02864551544,37.3919029236,-30.3331947327,0
14.100000000000001,17.22357064491042,-2.0573233540642546,402.49007469196846,0.5090849528260145,340.08932306392165,-7.80494070053,40.7747154236,-24.4514293671,0
14.200000000000001,17.412385085560135,-1.8385810654752657,402.366797315084,0.5174901738578745,342.33071747662746,-7.80494070053,40.7747154236,-24.4514293671,0
14.3,17.598223167144198,-2.0018397602319116,402.27462556710174,0.519999980927,344.9541142658969,-7.80494070053,40.7747154236,-24.4514293671,0
14.4,17.78279414737279,-2.3277246546878647,402.1956961677996,0.519999980927,347.7401378479892,-7.80494070053,40.7747154236,-24.4514293671,0
14.5,17.96036466188632,-2.1275747982711133,402.1407623403549,0.5214800255876797,297.34639208022935,-5.2035946846,41.8156089783,-16.5435600281,0
14.600000000000001,18.132156219058242,-1.4931777775609008,402.10563710733743,0.5241818625270286,203.0521929685758,-5.2035946846,41.8156089783,-16.5435600281,0
14.700000000000001,18.303947776230157,-0.8587807568506993,402.07051187432,0.5268836994663775,108.75799385692392,-5.439494133,41.3838348389,-9.97721195221,0
14.8,18.475739333402075,-0.22438373614049834,402.0353866413025,0.5295855364057264,14.463794745272025,-5.439494133,41.3838348389,-9.97721195221,0
14.9,18.627879280743812,-0.3879924664809269,401.938734302447,0.5381121536010507,1.8252400183820219,-5.439494133,41.3838348389,-9.97721195221,0
15.0,18.77645871936392,-0.6961850991622522,401.83093438846424,0.5476941133908091,3.9811798145776747,-5.489215527888698,43.243329363678114,-3.718536464934891,0
15.100000000000001,18.925038157984027,-1.0043777318435831,401.7231344744814,0.5572760731805678,6.137119610773366,-5.52368116379,44.5000114441,0.652142167091,0
15.200000000000001,19.073617596604134,-1.3125703645249085,401.61533456049864,0.5668580329703262,8.29305940696902,-5.52368116379,44.5000114441,0.652142167091,0
15.3,19.226091412307813,-1.7079711962505004,401.5363444600476,0.5627260098091842,10.309316634665754,-5.52368116379,44.5000114441,0.652142167091,0
15.4,19.380465224394467,-2.14591933636306,401.47141014832215,0.5519031815606742,12.257425254968467,-4.5714956210924536,44.526808807007896,2.1874611406967204,0
15.5,19.534839036481124,-2.5838674764756195,401.4064758365967,0.5410803533121641,14.205533875271183,0.0143059380352,44.6550559998,9.52175235748,0
15.600000000000001,19.68921284856778,-3.021815616588187,401.3415415248713,0.5302575250636539,16.153642495573934,0.0143059380352,44.6550559998,9.52175235748,0
15.700000000000001,19.844329624282654,-3.391391802016645,401.2811450240777,0.519999980927,18.143304686619317,0.0143059380352,44.6550559998,9.52175235748,0
15.8,20.01292808477968,-2.520302757038101,401.3030908268113,0.519999980927,20.886990521684893,0.0143059380352,44.6550559998,9.52175235748,0
15.9,20.181526545276704,-1.6492137120595574,401.32503662954485,0.519999980927,23.630676356750467,-1.4484467261359613,36.27687144760992,18.185441153191903,0
16.0,20.35012500577373,-0.7781246670810131,401.3469824322784,0.519999980927,26.37436219181604,-1.54823756218,35.6228370667,18.7455215454,0
16.1,20.522989928291235,-0.08206555913285737,401.398504573382,0.519999980927,28.74553918999607,-1.54823756218,35.6228370667,18.7455215454,0
16.2,20.702058271235156,0.3595006501566486,401.4930306040556,0.519999980927,30.575089679686204,-1.54823756218,35.6228370667,18.7455215454,0
16.3,20.88112661417908,0.8010668594461703,401.58755663472925,0.519999980927,32.40464016937641,-2.97275328636,37.4164886475,28.8050003052,0
16.400000000000002,21.04891280026826,1.1813653348635704,401.67676386351,0.519739185067367,34.28687571916093,-2.97275328636,37.4164886475,28.8050003052,0
16.5,21.139842377641276,1.1442941255869254,401.7297382087049,0.5177017887228573,36.52801383527093,-2.97275328636,37.4164886475,28.8050003052,0
16.6,21.230771955014294,1.107222916310279,401.7827125538997,0.5156643923783475,38.76915195138101,-1.67942130566,41.3353691101,34.9307022095,0
16.7,21.321701532387312,1.070151707033634,401.8356868990946,0.5136269960338378,41.01029006749101,-1.67942130566,41.3353691101,34.9307022095,0
16.8,21.412631109760333,1.0330804977569874,401.88866124428944,0.511589599689328,43.25142818360109,-1.67942130566,41.3353691101,34.9307022095,0
16.900000000000002,21.507983096571955,0.9229940066797158,401.91653090708917,0.5112237796776073,45.48951615266999,-1.67942130566,41.3353691101,34.9307022095,0
17.0,21.619034290798798,0.5537089792879322,401.8552809120448,0.5167919248319732,47.71677633844304,-1.67942130566,41.3353691101,34.9307022095,0
17.1,21.73008548502564,0.18442395189613536,401.7940309170005,0.5223600699863393,49.944036524216166,-3.16869902611,42.852355957,45.682308197,0
17.2,21.841136679252482,-0.18486107549564834,401.73278092195613,0.5279282151407053,52.171296709989214,-3.16869902611,42.852355957,45.682308197,0
17.3,21.96584833666832,-0.5497907446794773,401.62319321217586,0.5345682459810629,54.37048096142931,-3.16869902611,42.852355957,45.682308197,0
17.400000000000002,22.098654388257238,-0.9121396824772221,401.48496339040526,0.5418434137952456,56.55302905082093,-3.16869902611,42.852355957,45.682308197,0
17.5,22.231460439846156,-1.2744886202749541,401.34673356863465,0.5491185816094281,58.73557714021247,-4.50214958191,43.697013855,53.6721916199,0
17.6,22.364266491435075,-1.6368375580726988,401.20850374686404,0.5563937494236108,60.918125229604094,-4.50214958191,43.697013855,53.6721916199,0
17.7,22.517383689448266,-1.6442143542021097,401.07453351080426,0.5645929718109507,63.37789008891605,-4.50214958191,43.697013855,53.6721916199,0
17.8,22.690465137066685,-1.3026816259189522,400.94475011041425,0.5737004667183155,66.11013709541162,-4.335943261126188,43.60513759395306,54.85340737176223,0
17.900000000000002,22.863546584685103,-0.9611488976357946,400.8149667100243,0.5828079616256805,68.84238410190719,-3.271879673,42.9983978271,62.3635406494,0
18.0,23.036628032303515,-0.6196161693526492,400.68518330963434,0.5919154565330451,71.57463110840266,-3.271879673,42.9983978271,62.3635406494,0
18.1,23.214777534159172,-0.4326857920399361,400.5565585152755,0.6003354859334983,74.26836992914299,-3.271879673,42.9983978271,62.3635406494,0
18.2,23.432981704272933,-1.4676337905634567,400.43709060402176,0.603322226436622,76.65776461040772,-3.271879673,42.9983978271,62.3635406494,0
18.3,23.6511858743867,-2.5025817890870146,400.317622692768,0.6063089669397459,79.04715929167254,-4.11608314514,48.3413047791,74.0072021484,0
18.400000000000002,23.86939004450047,-3.537529787610572,400.19815478151423,0.6092957074428698,81.43655397293735,-4.11608314514,48.3413047791,74.0072021484,0
18.5,24.07047082230543,-3.2964312667588778,400.11254461865013,0.610000014305,84.15409205690446,-4.11608314514,48.3413047791,74.0072021484,0
18.6,24.266267712557468,-2.6615739509736436,400.03738218320245,0.610000014305,86.97288769602471,-4.050330378191927,48.22913336080843,74.50295178151768,0
18.7,24.462064602809498,-2.026716635188433,399.9622197477547,0.610000014305,89.79168333514485,-2.97131872177,46.2640113831,82.6305084229,0
18.8,24.657861493061535,-1.3918593194031992,399.88705731230704,0.610000014305,92.6104789742651,-2.97131872177,46.2640113831,82.6305084229,0
18.900000000000002,24.7660744232533,-0.90702680482428,399.8529821638201,0.60305559279633,94.89285428520881,-2.97131872177,46.2640113831,82.6305084229,0
19.0,24.78913943793524,-0.5680463285489941,399.8588515078665,0.5893599006728364,96.6537291667371,-2.661977588251099,45.78261519587415,85.28163081178593,0
19.1,24.81220445261718,-0.22906585227369602,399.8647208519129,0.5756642085493423,98.41460404826546,-1.57556343079,44.0438652039,94.6146316528,0
19.200000000000003,24.83526946729912,0.10991462400160201,399.8705901959594,0.5619685164258482,100.17547892979381,-1.57556343079,44.0438652039,94.6146316528,0
19.3,24.85833448198106,0.44889510027688795,399.8764595400058,0.5482728243023546,101.9363538113221,-1.57556343079,44.0438652039,94.6146316528,0
19.400000000000002,24.81645392981292,0.838343929663216,399.9467677852974,0.5337688152273345,103.62312042144258,-1.57556343079,44.0438652039,94.6146316528,0
19.5,24.67549669683694,1.304783955748471,400.11537977570885,0.5180316910301886,105.19683233194895,-0.7075216616018678,41.6479589977212,96.0801743971021,0
19.6,24.53453946386096,1.7712239818337427,400.28399176612027,0.5022945668330423,106.77054424245537,3.92941761017,28.8075141907,103.994880676,0
19.700000000000003,24.393582230884977,2.2376640079190144,400.45260375653163,0.4865574426358959,108.3442561529618,3.92941761017,28.8075141907,103.994880676,0
19.8,24.252624997909,2.7041040340042697,400.62121574694305,0.47082031843875005,109.91796806346818,3.92941761017,28.8075141907,103.994880676,0
19.900000000000002,24.01659640309033,3.135419486910086,400.88452042391503,0.4516009866108918,109.6933498088991,3.92941761017,28.8075141907,103.994880676,0
20.0,23.77533955016219,3.564803334640491,401.1530325345118,0.43219015778613346,109.36983600800741,3.87464880943,10.76469952983502,110.167533875,0
20.1,23.534082697234048,3.9941871823709114,401.4215446451086,0.4127793289613744,109.04632220711571,3.87464880943,10.675450325,110.167533875,0
20.200000000000003,23.33774936240366,4.043684564977202,401.7846198886105,0.39597280103771193,108.79961147400762,3.87464880943,10.675450325,110.167533875,0
20.3,23.148923313351116,4.029698133813318,402.16349782283714,0.37960148460112597,108.56573550101808,4.629857444157442,8.451384471048891,109.78096498402712,0
20.400000000000002,22.960097264298565,4.015711702649434,402.54237575706384,0.3632301681645394,108.33185952802856,5.96163749695,4.44958686829,109.099555969,0
20.5,22.77127121524602,4.001725271485551,402.9212536912905,0.34685885172795344,108.09798355503902,5.96163749695,4.44958686829,109.099555969,0
20.6,22.626989802599724,3.9187133729896435,403.2032663197687,0.3366681660020535,107.7778775038959,5.96163749695,4.44958686829,109.099555969,0
20.700000000000003,22.51482675166066,3.7859315110224485,403.4154354120121,0.3309339479625039,107.39559631644856,5.639153951257529,1.8289132579644432,109.01795619113774,0
20.8,22.402663700721604,3.653149649055258,403.62760450425543,0.3251997299229545,107.01331512900124,3.80034637451,-13.5247497559,108.557937622,0
20.900000000000002,22.290500649782544,3.5203677870880625,403.8397735964988,0.3194655118834049,106.63103394155391,3.80034637451,-13.5247497559,108.557937622,0
21.0,22.178337598843484,3.387585925120872,404.0519426887421,0.31373129384385545,106.24875275410659,3.80034637451,-13.5247497559,108.557937622,0
21.1,22.079738063826756,3.0380617178509306,404.17493604548287,0.3122598238731557,105.62336310010575,3.80034637451,-13.5247497559,108.557937622,0
21.200000000000003,22.006406270343692,2.2847639173718544,404.13180216437064,0.31872951141969447,104.545081885193,3.287640110984051,-14.847009173941242,108.30247223223827,0
21.3,21.933074476860632,1.5314661168928048,404.08866828325836,0.32519919896623295,103.46680067028029,0.272445887327,-22.9052085876,106.815002441,0
21.400000000000002,21.859742683377572,0.7781683164137285,404.0455344021461,0.3316688865127717,102.38851945536754,0.272445887327,-22.9052085876,106.815002441,0
21.5,21.786410889894512,0.024870515934678927,404.00240052103385,0.33813857405931025,101.31023824045484,0.272445887327,-22.9052085876,106.815002441,0
21.6,21.733632830528983,-0.29498620497097616,403.7571926084448,0.3494632337809239,100.24294131286676,0.272445887327,-22.9052085876,106.815002441,0
21.700000000000003,21.689157111682746,-0.4397615797285076,403.430360237262,0.36274897911251347,99.1800813062396,0.19028186602361957,-22.92389718540434,106.72257390259492,0
21.8,21.644681392836514,-0.5845369544860339,403.1035278660791,0.37603472444410246,98.11722129961248,-4.850877285,-23.8816871643,101.539672852,0
21.900000000000002,21.600205673990278,-0.7293123292435654,402.7766954948963,0.389320469775692,97.05436129298532,-4.850877285,-23.8816871643,101.539672852,0
22.0,21.57775565352133,-1.5328680456574393,402.50069784962113,0.4029640587048345,95.70359300810591,-4.850877285,-23.8816871643,101.539672852,0
22.1,21.55649288835226,-2.3719341208663796,402.22744035799377,0.41662693654370664,94.33730554996895,-5.17773914337,-24.0999698639,97.785118103,0
22.200000000000003,21.53523012318319,-3.2110001960753194,401.95418286636635,0.43028981438257885,92.97101809183198,-5.17773914337,-24.0999698639,97.785118103,0
22.3,21.53081878163176,-3.7345066060666663,401.71975040186635,0.4426820299330114,91.64239570527396,-5.17773914337,-24.0999698639,97.785118103,0
22.400000000000002,21.567804620334442,-3.482809648179732,401.58069543678903,0.4519527385419445,90.40630127319703,-5.17773914337,-24.0999698639,97.785118103,0
22.5,21.60479045903712,-3.2311126902928065,401.44164047171165,0.46122344715087726,89.17020684112015,-5.34167814255,-29.8085575104,92.2327880859,0
22.6,21.641196757010363,-2.980271561095003,401.30907300426406,0.4693836040356226,87.9229506373784,-5.34167814255,-29.8085575104,92.2327880859,0
22.700000000000003,21.66731003141955,-2.7446305108848312,401.29172775086084,0.4578196337184093,86.47745404616002,-5.34167814255,-29.8085575104,92.2327880859,0
22.8,21.693423305828738,-2.5089894606746683,401.2743824974577,0.4462556634011964,85.03195745494168,-3.62820506096,-26.863910675,88.3301010132,0
22.900000000000002,21.719536580237925,-2.273348410464497,401.25703724405446,0.43469169308398303,83.58646086372327,-3.62820506096,-26.863910675,88.3301010132,0
23.0,21.707245227318133,-1.7782169529495742,401.3662619012789,0.4223939242876762,82.23939163575518,-3.62820506096,-26.863910675,88.3301010132,0
23.1,21.66873516172617,-1.105932248456633,401.56189541989545,0.40959519368492214,80.9595184447133,-3.499344555938968,-25.542049992211215,87.96917004683102,0
23.200000000000003,21.630225096134204,-0.43364754396369176,401.757528938512,0.3967964630821681,79.67964525367142,-2.39606022835,-16.2171878815,83.2440338135,0
23.3,21.59171503054224,0.23863716052922568,401.95316245712854,0.3839977324794145,78.3997720626296,-2.39606022835,-16.2171878815,83.2440338135,0
23.400000000000002,21.55320496495027,0.9109218650221664,402.1487959757451,0.37119900187666044,77.11989887158771,-2.39606022835,-16.2171878815,83.2440338135,0
23.5,21.509297393345022,1.5403546911792905,402.35241627595207,0.3583981198860104,76.04004733899134,-2.39606022835,-16.2171878815,83.2440338135,0
23.6,21.4276046265016,1.8698033051364684,402.6119479731962,0.34558217712256944,76.36044573619965,-2.39606022835,-16.2171878815,83.2440338135,0
23.700000000000003,21.34591185965818,2.1992519190936464,402.87147967044035,0.3327662343591285,76.68084413340794,-1.68579351902,5.90599536896,76.7274932861,0
23.8,21.264239248212483,2.5275358801701575,403.1305509770286,0.31999006365375765,77.0049646013559,-1.68579351902,5.90599536896,76.7274932861,0
23.900000000000002,21.187743743344804,2.5566676155025445,403.2713665426105,0.3174297262593942,78.2851345194357,-1.68579351902,5.90599536896,76.7274932861,0
24.0,21.11124823847713,2.5857993508349306,403.41218210819244,0.31486938886503074,79.56530443751545,-2.4306058329182783,10.27712373907366,77.30591806136128,0
24.1,21.03475273360945,2.6149310861673176,403.55299767377437,0.3123090514706673,80.84547435559526,-3.05996441841,13.9399852753,77.7914886475,0
24.200000000000003,20.95969074404747,2.5912772767025505,403.67574089686184,0.3106540980334704,82.09811429478714,-3.05996441841,13.9399852753,77.7914886475,0
24.3,20.897801103162177,2.0825853247132784,403.63242018202334,0.3173185766404654,83.09778554956276,-3.05996441841,13.9399852753,77.7914886475,0
24.400000000000002,20.83591146227688,1.5738933727239883,403.58909946718484,0.3239830552474607,84.0974568043384,-5.457569024397158,22.22964314368738,81.14006131057026,0
24.5,20.78373055188406,1.0639474795086585,403.5336549408955,0.3309333431674137,85.11666628114122,-6.69602060318,26.6240291595,82.857208252,0
24.6,20.82176609103655,0.542349586534829,403.3655523049907,0.34053945735446206,86.31743080503176,-6.69602060318,26.6240291595,82.857208252,0
24.700000000000003,20.859801630189043,0.020751693560999485,403.1974496690858,0.35014557154151044,87.5181953289223,-8.40069961548,33.7050628662,85.2219619751,0
24.8,20.897837169341535,-0.5008461994128113,403.02934703318095,0.3597516857285584,88.7189598528128,-8.40069961548,33.7050628662,85.2219619751,0
24.900000000000002,20.935872708494028,-1.0224440923866407,402.86124439727615,0.3693577999156068,89.91972437670336,-8.40069961548,33.7050628662,85.2219619751,0
25.0,21.040428250666793,-1.50461602393408,402.6175888457539,0.39137107250771364,91.86996881732381,-8.40069961548,33.7050628662,85.2219619751,0
25.1,21.149749511358785,-1.9839633459509165,402.36852042723245,0.41427323598823473,93.87390853991629,-9.295947254591741,35.851619201118105,89.77940848907349,0
25.200000000000003,21.25907077205078,-2.463310667967753,402.119452008711,0.4371753994687559,95.87784826250876,-9.46070289612,36.2900085449,90.5880813599,0
25.3,21.39314981318399,-2.73505821138191,401.85514924667575,0.45864223398040116,97.86422426961855,-9.46070289612,36.2900085449,90.5880813599,0
25.400000000000002,21.558735278546106,-2.742617019864454,401.5714594603983,0.47828248781334826,99.82824892450016,-9.46070289612,36.2900085449,90.5880813599,0
25.5,21.724320743908212,-2.750175828346998,401.2877696741208,0.4979227416462947,101.7922735793817,-11.0277891159,41.9122657776,97.7518234253,0
25.6,21.889906209270325,-2.757734636829542,401.0040798878434,0.5175629954792418,103.7562982342633,-11.0277891159,41.9122657776,97.7518234253,0
25.700000000000003,22.055491674632442,-2.765293445312086,400.7203901015659,0.5372032493121889,105.72032288914491,-11.0277891159,41.9122657776,97.7518234253,0
25.8,22.34644952268433,-3.1955779829920368,400.3651398524616,0.5463393755530942,108.5357440563768,-11.0277891159,41.9122657776,97.7518234253,0
25.900000000000002,22.65822479995151,-3.696053919736487,399.9980073623282,0.55373134627965,111.49253516689083,-10.091772118824732,44.73055294949578,102.06275915247247,0
26.0,22.970000077218675,-4.19652985648092,399.6308748721948,0.5611233170062057,114.44932627740475,-9.14545822144,47.6289710999,106.424850464,0
26.1,23.281775354485852,-4.69700579322537,399.2637423820614,0.5685152877327615,117.40611738791877,-9.14545822144,47.6289710999,106.424850464,0
26.200000000000003,23.563276846369625,-4.638703143666372,399.02480428559164,0.5740291763196855,120.21605302331604,-9.14545822144,47.6289710999,106.424850464,0
26.3,23.83716946353268,-4.439959640545321,398.8180859815572,0.5790710363335491,122.98907867543683,-9.18760580053277,46.2841021142169,109.11140689302307,0
26.400000000000002,24.11106208069574,-4.241216137424262,398.61136767752276,0.5841128963474126,125.76210432755772,-9.34177589417,41.1860466003,118.826423645,0
26.5,24.384954697858788,-4.042472634303211,398.4046493734883,0.589154756361276,128.53512997967852,-9.34177589417,41.1860466003,118.826423645,0
26.6,24.539696466179734,-3.8686388824290225,398.32944294895884,0.589999973774,130.92086749227704,-9.34177589417,41.1860466003,118.826423645,0
26.700000000000003,24.670440867616293,-3.6998220351382174,398.28072344292644,0.589999973774,133.22860391915603,-7.991665354153191,41.11755097533548,121.50059786004923,0
26.8,24.801185269052844,-3.531005187847418,398.23200393689405,0.589999973774,135.53634034603493,-4.17243146896,40.9233474731,129.435501099,0
26.900000000000002,24.931929670489403,-3.362188340556613,398.18328443086165,0.589999973774,137.84407677291395,-4.17243146896,40.9233474731,129.435501099,0
27.0,24.9408335868688,-2.7553153872181575,398.21858059524135,0.589999973774,140.43710043123195,-4.17243146896,40.9233474731,129.435501099,0
27.1,24.940908780744923,-2.116700309746283,398.25996464608704,0.589999973774,143.05079637921568,-1.1917427270195948,39.859008644706314,137.56498374343195,0
27.200000000000003,24.940983974621048,-1.4780852322744087,398.3013486969328,0.589999973774,145.6644923271994,-0.740779399872,39.6767082214,138.734222412,0
27.3,24.941059168497173,-0.8394701548025569,398.3427327477785,0.589999973774,148.27818827518303,-0.740779399872,39.6767082214,138.734222412,0
27.400000000000002,24.915504264862733,-0.448417207504091,398.4155610341377,0.5908284675307182,150.7456406477727,-0.740779399872,39.6767082214,138.734222412,0
27.5,24.840469617943672,-0.5352910664896916,398.5490934477577,0.5932563956391167,152.9307650048508,-0.740779399872,39.6767082214,138.734222412,0
27.6,24.76543497102461,-0.6221649254752952,398.6826258613777,0.5956843237475153,155.11588936192896,1.59657406807,43.5948753357,150.217544556,0
27.700000000000003,24.69040032410555,-0.709038784460899,398.8161582749977,0.5981122518559141,157.30101371900713,1.59657406807,43.5948753357,150.217544556,0
27.8,24.60933372122872,-0.7724284961608716,398.93735681160666,0.5988418320797807,159.5790947075453,1.59657406807,43.5948753357,150.217544556,0
27.900000000000002,24.50718625486073,-0.7537443156440546,399.0154501300399,0.5936359180518719,162.18204644648785,1.59657406807,43.5948753357,150.217544556,0
28.0,24.405038788492742,-0.7350601351272384,399.0935434484731,0.5884300040239633,164.78499818543028,2.51615285873,45.3146209717,159.964401245,0
28.1,24.30289132212475,-0.7163759546104215,399.1716367669063,0.5832240899960545,167.38794992437283,2.51615285873,45.3146209717,159.964401245,0
28.200000000000003,24.159157816751776,-0.43654040880257355,399.2362952025738,0.579999983311,170.01835054086212,2.51615285873,45.3146209717,159.964401245,0
28.3,23.947769992282485,0.2681496848914574,399.2790970761016,0.579999983311,172.69340641100894,2.51615285873,45.3146209717,159.964401245,0
28.400000000000002,23.736382167813183,0.9728397785855134,399.32189894962943,0.579999983311,175.36846228115587,-0.096423484385,44.9247741699,169.705307007,0
28.5,23.52499434334389,1.6775298722795444,399.3647008231572,0.579999983311,178.0435181513027,-0.096423484385,44.9247741699,169.705307007,0
28.6,23.293618629779203,2.0969197541331788,399.47206923817305,0.573650576492418,180.58735321846459,-0.096423484385,44.9247741699,169.705307007,0
28.700000000000003,23.051118546315465,2.357524229801817,399.61537251790566,0.5637673722952127,183.05815662410933,-0.07916101951507537,44.93617746811876,169.901864540977,0
28.8,22.80861846285173,2.6181287054704456,399.7586757976382,0.5538841680980078,185.528960029754,0.864644825459,45.8226242065,179.742523193,0
28.900000000000002,22.56611837938799,2.8787331811390837,399.9019790773708,0.5440009639008025,187.99976343539876,0.864644825459,45.8226242065,179.742523193,0
29.0,22.342721536054842,3.037907531325037,400.07814334945294,0.5256786568205395,190.2531192003759,0.864644825459,45.8226242065,179.742523193,0
29.1,22.13231815806285,3.1280920760643536,400.2766587076468,0.5016163187260597,192.3585734385326,0.864644825459,45.8226242065,179.742523193,0
29.200000000000003,21.921914780070864,3.21827662080367,400.4751740658406,0.4775539806315799,194.4640276766893,2.8059015274,43.4872169495,-170.104095459,0
29.3,21.71056652118394,3.3965869776037665,400.6942100522509,0.4542911139055794,196.39962263457696,2.8059015274,43.4872169495,-170.104095459,0
29.400000000000002,21.496669786453214,3.8125849672609373,400.9685930412188,0.43318453320596456,197.87708337160666,2.695165292270656,42.71935739550664,-169.6279688012857,0
29.5,21.282773051722497,4.228582956918093,401.24297603018675,0.41207795250635054,199.3545441086363,1.18251752853,31.6047019958,-163.209442139,0
29.6,21.068876316991776,4.644580946575264,401.51735901915464,0.3909713718067357,200.83200484566598,1.18251752853,31.6047019958,-163.209442139,0
29.700000000000003,20.854979582261052,5.060578936232434,401.7917420081226,0.3698647911071209,202.30946558269568,1.18251752853,31.6047019958,-163.209442139,0
29.8,20.653552768319816,5.071477948988073,402.0596571786244,0.3528373132197888,203.0,1.18251752853,31.6047019958,-163.209442139,0
29.900000000000002,20.46306841400961,4.726899226467415,402.32189678440847,0.33938928211546215,203.0,1.1708592549407761,30.822658366321065,-162.64003131372436,0
30.0,20.272584059699405,4.382320503946769,402.58413639019255,0.32594125101113597,203.0,1.05691981316,23.0179729462,-156.897201538,0
30.1,20.082099705389197,4.037741781426111,402.8463759959766,0.31249321990680934,203.0,1.05691981316,23.0179729462,-156.897201538,0
30.200000000000003,19.895532559970608,3.7156925606860947,403.10664457898656,0.2990011171740397,203.04994472295976,1.05691981316,23.0179729462,-156.897201538,0
30.3,19.760219415903425,3.6884264742288875,403.3411236759817,0.28493236730136207,203.7533820139451,1.05691981316,23.0179729462,-156.897201538,0
30.400000000000002,19.62490627183624,3.6611603877716794,403.5756027729768,0.2708636174286839,204.45681930493043,0.27203742961173183,13.267688167440884,-156.5550682583225,0
30.5,19.48959312776906,3.6338943013144718,403.8100818699719,0.25679486755600633,205.16025659591577,0.177082687616,11.9753875732,-156.515014648,0
30.6,19.354279983701876,3.6066282148572637,404.044560966967,0.2427261176833282,205.8636938869011,0.177082687616,11.9753875732,-156.515014648,0
30.700000000000003,19.25767628398346,3.4342382061476195,404.2426123629292,0.23491284661099104,206.50871490861883,0.177082687616,11.9753875732,-156.515014648,0
30.8,19.170376135374802,3.2269686518739134,404.4319086092354,0.22860303723163425,207.13969597817714,-2.4434914780870045,5.413472365697964,-154.004608154019,0
30.900000000000002,19.083075986766136,3.0196990976002,404.62120485554163,0.22229322785227723,207.77067704773552,-3.39909791946,2.94002532959,-153.097198486,0
31.0,19.01472630258904,2.696989812848467,404.68618268204693,0.22190801603476998,208.57240486099303,-3.39909791946,2.94002532959,-153.097198486,0
31.1,18.957196209161175,2.3083712917038413,404.68018206738014,0.2249053978842754,209.47161893350622,-4.046493586324775,2.474425039964335,-152.71665716055546,0
31.200000000000003,18.899666115733314,1.9197527705592157,404.67418145271336,0.22790277973378087,210.37083300601944,-6.02893781662,1.03460359573,-151.559387207,0
31.3,18.85731372740214,1.4197971942586358,404.6132141832223,0.23265280575965755,210.89388793016943,-6.02893781662,1.03460359573,-151.559387207,0
31.400000000000002,18.850322992094927,0.6604438837119552,404.4241832991463,0.24148621559385813,210.54055151574255,-6.02893781662,1.03460359573,-151.559387207,0
31.5,18.843332256787715,-0.09890942683469839,404.23515241507033,0.2503196254280584,210.18721510131567,-8.98376655579,-7.82279157639,-148.351638794,0
31.6,18.836341521480502,-0.8582627373813789,404.04612153099436,0.25915303526225897,209.83387868688882,-8.98376655579,-7.82279157639,-148.351638794,0
31.700000000000003,18.829350786173293,-1.6176160479280597,403.8570906469184,0.2679864450964595,209.48054227246195,-8.98376655579,-7.82279157639,-148.351638794,0
31.8,18.82236005086608,-2.3769693584747134,403.6680597628424,0.2768198549306598,209.12720585803507,-8.98376655579,-7.82279157639,-148.351638794,0
31.900000000000002,18.86208761245789,-2.816761480375191,403.4197283910978,0.28515070337052245,208.4849298026132,-8.98376655579,-7.82279157639,-148.351638794,0
32.0,18.928095749031705,-3.076789947840478,403.1380385492015,0.29319884453542777,207.68011571810064,-9.097396921358717,-7.83871392998681,-148.43762512380368,0
32.1,18.994103885605522,-3.3368184153057743,402.85634870730524,0.3012469857003333,206.875301633588,-11.6537590027,-8.26538276672,-150.284805298,0
32.2,19.060112022179336,-3.5968468827710707,402.57465886540894,0.30929512686523886,206.0704875490754,-11.6537590027,-8.26538276672,-150.284805298,0
32.300000000000004,19.22772220495739,-3.561889358945928,402.3436982882708,0.3192924472591101,205.25660458723152,-11.6537590027,-8.26538276672,-150.284805298,0
32.4,19.405085105187915,-3.4986163126192604,402.1176071818199,0.3294768681592652,204.44185110947265,-11.67134556655849,-9.02369521204741,-151.3265624015709,0
32.5,19.582448005418456,-3.4353432662925885,401.891516075369,0.339661289059421,203.6270976317137,-11.7107915878,-10.7784423828,-153.641708374,0
32.6,19.759810905648994,-3.3720702199659165,401.66542496891816,0.3498457099595768,202.81234415395477,-11.7107915878,-10.7784423828,-153.641708374,0
32.7,19.93691305906334,-3.3077595613531097,401.4396967502939,0.3600066594313887,201.99601292036428,-11.7107915878,-10.7784423828,-153.641708374,0
32.800000000000004,20.026100025887796,-2.8936004210826107,401.33632228253913,0.36225382099015346,200.64771469923343,-11.7107915878,-10.7784423828,-153.641708374,0
32.9,20.11528699271225,-2.4794412808121415,401.2329478147843,0.36450098254891805,199.29941647810267,-10.252065799664932,-8.899549681269987,-156.5477345272954,0
33.0,20.204473959536706,-2.0652821405416426,401.1295733470296,0.36674814410768275,197.95111825697182,-9.7777223587,-8.26682090759,-157.492492676,0
33.1,20.293660926361163,-1.6511230002711437,401.0261988792748,0.36899530566644745,196.60282003584098,-9.7777223587,-8.26682090759,-157.492492676,0
33.2,20.38106023945092,-1.6286576472454528,400.9254745069433,0.373406871071097,196.1703434776029,-9.7777223587,-8.26682090759,-157.492492676,0
33.300000000000004,20.467013992483135,-1.9229297488158212,400.82689309553234,0.37956865000271006,196.47843271799286,-9.7777223587,-8.26682090759,-157.492492676,0
33.4,20.552967745515346,-2.217201850386169,400.7283116841213,0.3857304289343227,196.7865219583828,-8.25473308563,-10.6980743408,-163.529464722,0
33.5,20.616628303475522,-2.2900292112281146,400.6406036553215,0.389999985695,196.58432906223177,-8.25473308563,-10.6980743408,-163.529464722,0
33.6,20.629987124568387,-1.8631949020950669,400.5774300205017,0.389999985695,195.2307499391431,-8.25473308563,-10.6980743408,-163.529464722,0
33.7,20.643223498915187,-1.4622921904614934,400.514225589434,0.389999985695,193.92140828301126,-6.62107419968,-12.2312202454,-162.984985352,0
33.800000000000004,20.65523295535516,-1.3212244058310751,400.4507125795821,0.389999985695,193.0553265917842,-6.62107419968,-12.2312202454,-162.984985352,0
33.9,20.66724241179513,-1.1801566212006669,400.3871995697302,0.389999985695,192.18924490055718,-5.494487333594525,-13.527798997303986,-165.2053921391584,0
34.0,20.679251868235102,-1.0390888365702484,400.3236865598783,0.389999985695,191.32316320933012,-5.3655872345,-13.6559152603,-165.453323364,0
34.1,20.68241135786484,-0.7761847668283152,400.26431799468384,0.39148629078360675,190.85136979233843,-5.3655872345,-13.6559152603,-165.453323364,0
34.2,20.680303051734764,-0.44075967188214227,400.207416341339,0.3938572942910252,190.61426992207947,-5.339355167506104,-13.514575814585989,-165.53225925180348,0
34.300000000000004,20.67819474560469,-0.10533457693596926,400.1505146879942,0.3962282977984436,190.37717005182054,-4.23375892639,-7.98675298691,-168.630752563,0
34.4,20.676086439474613,0.23009051801017977,400.0936130346494,0.39859930130586185,190.14007018156158,-4.23375892639,-7.98675298691,-168.630752563,0
34.5,20.64806218419483,0.2816107632103888,400.0951573954895,0.3965974141996007,189.6597408374797,-4.23375892639,-7.98675298691,-168.630752563,0
34.6,20.582626166067254,-0.0767085405357879,400.1810732917672,0.38828290679711736,188.82829013026767,-4.050912690255491,-7.539269149032024,-168.76206484668657,0
34.7,20.517190147939676,-0.4350278442819647,400.2669891880449,0.37996839939463395,187.99683942305563,-3.09092617035,-5.18547344208,-169.451797485,0
34.800000000000004,20.451754129812095,-0.7933471480281414,400.3529050843226,0.37165389199215054,187.16538871584362,-3.09092617035,-5.18547344208,-169.451797485,0
34.9,20.346178182237047,-0.33939070821563366,400.52129330822106,0.36243498135237445,186.4326231254591,-3.09092617035,-5.18547344208,-169.451797485,0
35.0,20.23063515731573,0.31626053460180414,400.710160094978,0.3529914998889218,185.72436186793914,-2.7027456018333154,-0.6677828902989029,-170.97981265162105,0
35.1,20.115092132394416,0.9719117774192421,400.8990268817349,0.3435480184254692,185.0161006104192,-2.37842822075,2.1450214386,-172.250457764,0
35.2,19.999549107473097,1.6275630202366798,401.08789366849186,0.3341045369620166,184.30783935289924,-2.37842822075,2.1450214386,-172.250457764,0
35.300000000000004,19.906770227108904,1.9894858567858447,401.25276193158106,0.3272860159796607,184.40709935161243,-2.37842822075,2.1450214386,-172.250457764,0
35.4,19.831492136409068,2.125593967741018,401.39918042978184,0.32248553178940403,185.12717159386818,-2.3618645941738623,2.130289524199781,-172.56996941837966,0
35.5,19.75621404570923,2.2617020786962008,401.54559892798267,0.31768504759914695,185.847243836124,-2.1984548837625915,1.9802113429128019,-175.6883294021908,0
35.6,19.68093595500939,2.3978101896513833,401.6920174261835,0.3128845634088899,186.5673160783798,-2.19470906258,1.97629773617,-175.756500244,0
35.7,19.60778977911667,2.340758600020897,401.79273599256516,0.310000002384,187.23161654408662,-2.19470906258,1.97629773617,-175.756500244,0
35.800000000000004,19.53785335530177,1.9928910977480787,401.82465000323793,0.310000002384,187.8119485627126,-2.19470906258,1.97629773617,-175.756500244,0
35.9,19.46791693148688,1.6450235954752852,401.85656401391066,0.310000002384,188.39228058133853,-4.92678785324,9.29534244537,-172.801223755,0
36.0,19.397980507671985,1.297156093202467,401.8884780245834,0.310000002384,188.9726125999645,-4.92678785324,9.29534244537,-172.801223755,0
36.1,19.355072066822128,1.125325339273246,401.76834194308606,0.32073325264158475,190.78887497185283,-4.92678785324,9.29534244537,-172.801223755,0
36.2,19.313502324562926,0.9622137023871108,401.64067480592837,0.33199812181470384,192.66635309277422,-7.56407551971683,16.712970577047827,-170.7629640068792,0
36.300000000000004,19.271476704506156,0.6318495501917922,401.4803017458528,0.3448780263779098,194.34843023573603,-8.21927928925,18.6211471558,-170.262664795,0
36.4,19.228333127260676,-0.10867090445631467,401.2397233723474,0.3617185108026727,195.55132210326315,-8.624980826717042,19.593145083584123,-169.26751387838266,0
36.5,19.185189550015192,-0.8491913591044741,400.9991449988419,0.37855899522743686,196.75421397079032,-9.98204231262,22.8779449463,-165.963973999,0
36.6,19.14204597276971,-1.5897118137526336,400.7585666253365,0.39539947965220096,197.95710583831752,-9.98204231262,22.8779449463,-165.963973999,0
36.7,19.105761867288695,-2.31937494563653,400.50890100510264,0.41186756693954363,199.14006781788743,-9.98204231262,22.8779449463,-165.963973999,0
36.800000000000004,19.114189046995314,-2.978268072022079,400.20000305707504,0.4259083019195908,200.19312316108463,-9.98204231262,22.8779449463,-165.963973999,0
36.9,19.122616226701933,-3.6371611984075813,399.8911051090475,0.439949036899637,201.24617850428177,-10.0274600983,29.0386314392,-161.005767822,0
37.0,19.13727160179782,-3.9830986551235252,399.61837129234414,0.45442395692140897,202.589862488884,-10.0274600983,29.0386314392,-161.005767822,0
37.1,19.167616871614918,-3.540646987442641,399.43674113853154,0.4699926636933396,204.6656899759952,-10.0274600983,29.0386314392,-161.005767822,0
37.2,19.19796214143201,-3.098195319761757,399.25511098471895,0.4855613704652702,206.7415174631064,-7.84684896469,32.4434509277,-157.356323242,0
37.300000000000004,19.22830741124911,-2.655743652080873,399.0734808309064,0.5011300772372008,208.8173449502176,-7.84684896469,32.4434509277,-157.356323242,0
37.4,19.25543348416783,-2.466707561938426,398.89843038299364,0.5170687350319737,211.1486712320854,-7.84684896469,32.4434509277,-157.356323242,0
37.5,19.278296998918634,-2.613220577370373,398.73209216363085,0.533497247223337,213.81830502010092,-7.791034948994008,34.01000363180791,-155.68044397268994,0
37.6,19.301160513669437,-2.75973359280232,398.565753944268,0.5499257594147005,216.48793880811647,-7.57955408096,40.1993484497,-149.257766724,0
37.7,19.32402402842024,-2.906246608234267,398.3994157249052,0.5663542716060639,219.15757259613198,-7.57955408096,40.1993484497,-149.257766724,0
37.800000000000004,19.346887543171043,-3.052759623666214,398.23307750554244,0.5827827837974273,221.82720638414753,-7.57955408096,40.1993484497,-149.257766724,0
37.9,19.37257992360368,-2.7381075339465117,398.1055670833338,0.5860168488560689,224.46048052938636,-7.57955408096,40.1993484497,-149.257766724,0
38.0,19.40048875685037,-2.062126625536468,398.008478741897,0.5789128940982067,227.06526642469998,-7.061121452521643,41.021421319589784,-147.03400374756595,0
38.1,19.428397590097052,-1.3861457171264249,397.9113904004603,0.5718089393403445,229.6700523200136,-4.5475692749,45.1037559509,-136.319320679,0
38.2,19.456306423343737,-0.7101648087163817,397.8143020590235,0.5647049845824822,232.27483821532724,-4.5475692749,45.1037559509,-136.319320679,0
38.300000000000004,19.45621967298842,-0.2089535183800598,397.75,0.5606288406028629,234.94325822787965,-4.5475692749,45.1037559509,-136.319320679,0
38.400000000000006,19.40122661619433,-0.0505089423428319,397.75,0.5624909870619166,237.7364805803563,-4.5475692749,45.1037559509,-136.319320679,0
38.5,19.34623355940024,0.10793563369438475,397.75,0.56435313352097,240.52970293283275,-2.4323952198,39.2184143066,-125.450454712,0
38.6,19.291240502606147,0.2663802097316126,397.75,0.5662152799800237,243.32292528530937,-2.4323952198,39.2184143066,-125.450454712,0
38.7,19.236247445812054,0.42482478576884053,397.75,0.5680774264390773,246.116147637786,-2.4323952198,39.2184143066,-125.450454712,0
38.800000000000004,19.181254389017962,0.5832693618060684,397.75,0.569939572898131,248.90936999026266,-2.4323952198,39.2184143066,-125.450454712,0
38.900000000000006,19.091270460946443,0.41789982684216287,397.9206507771709,0.5601072238611442,250.73123364384776,-2.4323952198,39.2184143066,-125.450454712,0
39.0,19.000113132449552,0.24167135634107434,398.09702423820795,0.5498827060816073,252.52052329544702,-0.400383234024,41.4015007019,-110.989746094,0
39.1,18.908955803952658,0.06544288583997326,398.27339769924504,0.5396581883020696,254.3098129470464,-0.400383234024,41.4015007019,-110.989746094,0
39.2,18.818313098555848,-0.07102312748673754,398.4551511371463,0.5290697758358839,256.079731089588,-0.400383234024,41.4015007019,-110.989746094,0
39.300000000000004,18.73644724979853,0.47065644999976525,398.72865965882113,0.5122751680083699,257.51926966334844,-0.400383234024,41.4015007019,-110.989746094,0
39.400000000000006,18.654581401041213,1.012336027486268,399.002168180496,0.4954805601808559,258.9588082371089,2.86934113503,39.181804657,-103.450080872,0
39.5,18.5727155522839,1.5540156049727325,399.27567670217087,0.4786859523533431,260.39834681086927,2.86934113503,39.181804657,-103.450080872,0
39.6,18.49084970352658,2.0956951824592354,399.54918522384577,0.4618913445258291,261.8378853846297,2.86934113503,39.181804657,-103.450080872,0
39.7,18.387559951483624,3.0775245353206993,399.7997863810039,0.44088725730529504,263.1945467441804,2.86934113503,39.181804657,-103.450080872,0
39.800000000000004,18.28155134653512,4.1152121731873645,400.04748042297655,0.4193489557949581,264.5406903679267,2.70408345700512,37.117351447422614,-101.79451207838764,0
39.900000000000006,18.175542741586618,5.152899811054031,400.2951744649492,0.39781065428462115,265.88683399167303,2.26218438148,31.5500926971,-97.3468780518,0
40.0,18.070060575940687,5.86130117188499,400.5393858069191,0.3782364065838649,267.1763588578062,2.26218438148,31.5500926971,-97.3468780518,0
40.1,17.967093734936586,4.996374168336007,400.7669568237948,0.36804639923347315,268.19535955235705,2.26218438148,31.5500926971,-97.3468780518,0
