t_sec,airspeed,climb,altitude,throttle,heading,pitch,roll,yaw,is_boundary
0.0,13.1424484253,-0.343899726868,428.440002441,0.469999998808,274.0,-0.513939082623,3.02959799767,-85.0208511353,0
0.1,13.150038976076326,-0.5580075926671834,428.3359267934419,0.46405291945724514,274.2973538080223,-0.513939082623,3.02959799767,-85.0208511353,0
0.2,13.157629526852652,-0.7721154584663668,428.2318511458838,0.4581058401064903,274.59470761604456,-0.4855974951768278,1.7448659228242456,-85.5310465171199,0
0.30000000000000004,13.16522007762898,-0.98622332426555,428.1277754983257,0.45215876075573547,274.89206142406687,-0.47313028574,1.20656323433,-85.7563400269,0
0.4,13.15769665490897,-0.8738262333119058,428.0232288992096,0.4351630173355187,275.37092434596804,-0.47313028574,1.20656323433,-85.7563400269,0
0.5,13.141560509981288,-0.5753697654100747,427.91841392758744,0.41187117485047176,275.9532205295709,-0.5567523102179107,4.372478591255497,-84.8229340344225,0
0.6000000000000001,13.125424365053606,-0.27691329750824323,427.8135989559653,0.3885793323654248,276.53551671317376,-0.608088672161,6.32606172562,-84.2490615845,0
0.7000000000000001,13.109288220125926,0.021543170393587996,427.70878398434314,0.36528748988037785,277.1178128967766,-0.608088672161,6.32606172562,-84.2490615845,0
0.8,13.093152075198244,0.3199996382954191,427.603969012721,0.34199564739533095,277.7001090803795,-0.608088672161,6.32606172562,-84.2490615845,0
0.9,13.081946865131759,0.31307541130893474,427.4607171654106,0.3233874751222409,278.16531336108665,-0.608088672161,6.32606172562,-84.2490615845,0
1.0,13.075977898077392,-0.01813773342993036,427.2766485506116,0.30975297135396607,278.50617577243787,-1.600194908566161,19.085750432925828,-82.62165160427837,0
1.1,13.070008931023025,-0.3493508781687959,427.0925799358126,0.2961184675856912,278.8470381837891,-2.28666591644,27.3249378204,-81.4939651489,0
1.2000000000000002,13.072705999872374,-0.6405518864800155,426.8535805397119,0.2785839875375809,279.68496028787564,-2.28666591644,27.3249378204,-81.4939651489,0
1.3,13.08245771689988,-0.8991807304833932,426.56986435031143,0.2578747040541881,280.927517370948,-2.901690377265025,28.276512253769404,-80.80990992634308,0
1.4000000000000001,13.092209433927385,-1.1578095744867716,426.2861481609109,0.23716542057079532,282.17007445402044,-3.51277947426,29.2233600616,-80.1285247803,0
1.5,13.101961150954889,-1.4164384184901493,426.0024319715104,0.21645613708740252,283.4126315370928,-3.51277947426,29.2233600616,-80.1285247803,0
1.6,13.111712867982394,-1.6750672624935277,425.71871578210994,0.1957468536040097,284.65518862016523,-3.51277947426,29.2233600616,-80.1285247803,0
1.7000000000000002,13.112955446418146,-1.9619276929531255,425.3371295269273,0.18246622366475304,285.753377440026,-3.51277947426,29.2233600616,-80.1285247803,0
1.8,13.110929785520145,-2.259631474982981,424.9179527688826,0.17203883409148257,286.7961164595003,-7.229980811417034,27.63647934484009,-76.60043999917876,0
1.9000000000000001,13.108904124622144,-2.5573352570128374,424.498776010838,0.1616114445182121,287.83885547897455,-8.91626930237,26.9297447205,-74.998085022,0
2.0,13.106878463724144,-2.855039039042693,424.0795992527934,0.15118405494494164,288.88159449844886,-8.91626930237,26.9297447205,-74.998085022,0
2.1,13.104852802826143,-3.1527428210725494,423.66042249474873,0.14075666537167114,289.9243335179232,-8.91626930237,26.9297447205,-74.998085022,0
2.2,13.164382533324416,-3.7300847640185895,423.07451024625203,0.13764622432689938,290.7061325019607,-8.91626930237,26.9297447205,-74.998085022,0
2.3000000000000003,13.228728531206675,-4.329306385140485,422.47555214285615,0.13510828196581348,291.467514801881,-12.024367417683012,25.745675576734886,-71.84496762261942,0
2.4000000000000004,13.293074529088937,-4.92852800626238,421.87659403946026,0.13257033960472758,292.22889710180135,-14.7925386429,24.7609710693,-69.0269699097,0
2.5,13.357420526971197,-5.527749627384273,421.27763593606437,0.13003239724364168,292.99027940172164,-14.7925386429,24.7609710693,-69.0269699097,0
2.6,13.466060159606398,-5.758720137093743,420.6369392366077,0.13349751440716362,294.04925518972857,-14.7925386429,24.7609710693,-69.0269699097,0
2.7,13.575272603958334,-5.984928369954752,419.9957027675657,0.13704026400819355,295.1120794999386,-16.70303560938813,20.392368338602452,-66.41868220668714,0
2.8000000000000003,13.69302454805099,-6.203610945698739,419.3525349922078,0.1407046358120716,296.1056953044588,-16.930311203,19.8887805939,-66.1006851196,0
2.9000000000000004,13.854128302911008,-6.3840886062670235,418.69956270505344,0.14498643754546175,296.7479656984449,-16.930311203,19.8887805939,-66.1006851196,0
3.0,14.015232057771025,-6.564566266835307,418.0465904178991,0.1492682392788519,297.39023609243105,-18.295124054,16.2065563202,-63.8823204041,0
3.1,14.176335812631041,-6.74504392740359,417.3936181307448,0.1535500410122421,298.03250648641716,-18.295124054,16.2065563202,-63.8823204041,0
3.2,14.337439567491058,-6.925521587971875,416.74064584359047,0.15783184274563225,298.6747768804033,-18.295124054,16.2065563202,-63.8823204041,0
3.3000000000000003,14.490112383842959,-7.03778614829847,416.0932459599874,0.159999996424,299.0,-18.295124054,16.2065563202,-63.8823204041,0
3.4000000000000004,14.63413684916261,-7.080078565509539,415.4515621780923,0.159999996424,299.0,-18.768567211370232,13.46084447914104,-62.29100608024281,0
3.5,14.77816131448226,-7.122370982720608,414.80987839619706,0.159999996424,299.0,-19.1813488007,11.1542196274,-60.9017448425,0
3.6,14.922214068237544,-7.163899586729981,414.16828232015575,0.1600153170530197,299.00076603104003,-19.1813488007,11.1542196274,-60.9017448425,0
3.7,15.076389108979946,-6.932117339192029,413.5580695215332,0.16551272957873325,299.27563650987145,-19.1813488007,11.1542196274,-60.9017448425,0
3.8000000000000003,15.23056414972235,-6.700335091654076,412.9478567229106,0.17101014210444684,299.55050698870286,-18.917823453731796,10.597866650612158,-60.450433614011956,0
3.9000000000000004,15.384739190464751,-6.468552844116124,412.33764392428805,0.17650755463016043,299.8253774675343,-18.9072608948,10.5751647949,-60.4321632385,0
4.0,15.529673280183035,-6.364209211377673,411.7484648848648,0.18092866244802552,300.185731236137,-18.9072608948,10.5751647949,-60.4321632385,0
4.1000000000000005,15.65851049880596,-6.481851708599775,411.19592468376015,0.18347494828097266,300.6949888884054,-18.9072608948,10.5751647949,-60.4321632385,0
4.2,15.787347717428885,-6.599494205821876,410.6433844826555,0.18602123411391977,301.20424654067386,-18.2705039978,7.74446630478,-59.9583244324,0
4.3,15.916184936051808,-6.717136703043977,410.0908442815509,0.18856751994686688,301.7135041929423,-18.2705039978,7.74446630478,-59.9583244324,0
4.4,16.028833001910876,-6.613847023936881,409.5295425084237,0.189999997616,302.2087114356965,-18.2705039978,7.74446630478,-59.9583244324,0
4.5,16.120660067736146,-6.2264146896881325,408.95697240680266,0.189999997616,302.6858483333723,-18.11046997117364,6.482666481007806,-59.427938195502506,0
4.6000000000000005,16.213058637879204,-5.984588949460469,408.3906583672815,0.19087651606643083,303.0,-17.6831188202,3.59741187096,-57.982624054,0
4.7,16.306558774297688,-6.0234178052939535,407.83640279663246,0.19344251110478441,303.0,-17.6831188202,3.59741187096,-57.982624054,0
4.800000000000001,16.400058910716176,-6.062246661127439,407.2821472259834,0.19600850614313803,303.0,-17.4080982208,3.61084389687,-56.4146156311,0
4.9,16.493559047134664,-6.101075516960924,406.7278916553343,0.19857450118149161,303.0,-17.4080982208,3.61084389687,-56.4146156311,0
5.0,16.577254421978637,-6.02241573355821,406.18587918983127,0.20182183787584915,302.9089082362058,-17.4080982208,3.61084389687,-56.4146156311,0
5.1000000000000005,16.648694831365468,-5.796906972288484,405.6591693739146,0.20592078308667994,302.70396093291225,-17.4080982208,3.61084389687,-56.4146156311,0
5.2,16.7201352407523,-5.571398211018761,405.13245955799795,0.2100197282975107,302.49901362961873,-16.4400100708,4.76191473007,-55.997379303,0
5.300000000000001,16.791575650139126,-5.345889449749035,404.6057497420813,0.2141186735083415,302.29406632632515,-16.4400100708,4.76191473007,-55.997379303,0
5.4,16.863016059525958,-5.120380688479312,404.0790399261646,0.21821761871917225,302.0891190230316,-16.4400100708,4.76191473007,-55.997379303,0
5.5,16.9103259835539,-5.143931593731378,403.558946906328,0.23238546367239085,301.8761453439731,-16.4400100708,4.76191473007,-55.997379303,0
5.6000000000000005,16.939069757108058,-5.359110606616652,403.0439448919083,0.25430038478020434,301.6569961198315,-15.802599390712485,5.71908679474827,-56.812728355108966,0
5.7,16.967813530662216,-5.574289619501925,402.52894287748865,0.2762153058880176,301.43784689568986,-15.0807790756,6.77455043793,-57.7407455444,0
5.800000000000001,16.996557304216374,-5.789468632387199,402.01394086306897,0.2981302269958311,301.2186976715483,-15.0807790756,6.77455043793,-57.7407455444,0
5.9,17.02534441419578,-6.00425052332288,401.4989313854598,0.3200731855450529,301.0019518052039,-15.0807790756,6.77455043793,-57.7407455444,0
6.0,17.075120386675938,-6.02669679937502,400.9803073074824,0.35559534448502494,301.9492093392924,-15.0807790756,6.77455043793,-57.7407455444,0
6.1000000000000005,17.124896359156097,-6.04914307542716,400.461683229505,0.3911175034249973,302.896466873381,-14.1517677307,1.99452924728,-58.7874946594,0
6.2,17.174672331636256,-6.071589351479299,399.9430591515276,0.4266396623649693,303.84372440746955,-14.1517677307,1.99452924728,-58.7874946594,0
6.300000000000001,17.224448304116418,-6.094035627531439,399.42443507355017,0.46216182130494166,304.79098194155813,-14.1517677307,1.99452924728,-58.7874946594,0
6.4,17.33361177931289,-6.320932204332733,398.9339713912474,0.4912441793686977,304.78755818172937,-14.1517677307,1.99452924728,-58.7874946594,0
6.5,17.459589663550002,-6.60571488221661,398.4514807738145,0.5185032338564433,304.51496762060276,-10.876394362947067,-3.0244601786320002,-54.94117806550931,0
6.6000000000000005,17.585567547787115,-6.8904975601004885,397.9689901563816,0.545762288344189,304.2423770594762,-10.6536436081,-3.43173718452,-54.65391922,0
6.7,17.703837030405413,-7.077979329269476,397.51551382258583,0.5715132407614688,303.9495584048561,-10.6536436081,-3.43173718452,-54.65391922,0
6.800000000000001,17.760268605612314,-6.484899202251024,397.29479424873625,0.5851659812780118,303.4944670723945,-10.6536436081,-3.43173718452,-54.65391922,0
6.9,17.816700180819215,-5.891819075232579,397.07407467488673,0.5988187217945545,303.039375739933,-4.43409633636,1.55815124512,-55.0386810303,0
7.0,17.873131756026115,-5.298738948214133,396.85335510103715,0.6124714623110974,302.58428440747144,-4.43409633636,1.55815124512,-55.0386810303,0
7.1000000000000005,17.929563331233016,-4.705658821195682,396.6326355271876,0.6261242028276404,302.1291930750099,-4.43409633636,1.55815124512,-55.0386810303,0
7.2,17.886813567621807,-3.9103309350700157,396.6257207615435,0.6317419522810986,302.34839174208093,-4.43409633636,1.55815124512,-55.0386810303,0
7.300000000000001,17.80474618922583,-3.0348276895630497,396.70356281798234,0.6341744585508895,302.8348934600158,-1.4892945196122582,3.1988036358250387,-55.916608339159495,0
7.4,17.722678810829855,-2.1593244440560913,396.78140487442124,0.6366069648206804,303.32139517795065,3.72513437271,5.93099832535,-57.4887466431,0
7.5,17.64061143243388,-1.2838211985491332,396.85924693086014,0.6390394710904713,303.8078968958855,3.72513437271,5.93099832535,-57.4887466431,0
7.6000000000000005,17.526033265957437,-0.38896126516727436,397.00800873246516,0.6387171295397194,304.25657147574833,3.72513437271,5.93099832535,-57.4887466431,0
7.7,17.39024092585967,0.5185294336176045,397.20304759703805,0.636597174845272,304.68056281899834,6.497400440018902,5.652552339208144,-56.29886937612261,0
7.800000000000001,17.254448585761896,1.4260201324024913,397.3980864616109,0.6344772201508245,305.1045541622484,8.47378444672,5.45485258102,-55.4506225586,0
7.9,17.118656245664127,2.33351083118737,397.5931253261838,0.6323572654563772,305.5285455054984,8.47378444672,5.45485258102,-55.4506225586,0
8.0,16.982863905566354,3.241001529972249,397.7881641907567,0.6302373107619297,305.9525368487484,8.47378444672,5.45485258102,-55.4506225586,0
8.1,16.809098866873846,3.470598204279995,398.09238950570517,0.624177493742732,306.0,8.47378444672,5.45485258102,-55.4506225586,0
8.200000000000001,16.630547190752495,3.614743145357602,398.41037828676036,0.617621038529094,306.0,11.8519611359,6.90058517456,-53.3058204651,0
8.3,16.45199551463115,3.758888086435207,398.72836706781555,0.6110645833154562,306.0,11.8519611359,6.90058517456,-53.3058204651,0
8.4,16.35029252670971,3.9540724883065153,399.03199984785573,0.604675978485306,306.1774676773087,11.8519611359,6.90058517456,-53.3058204651,0
8.5,16.26348619340293,4.159150581755025,399.3328498037023,0.5983199104394306,306.3893363932826,12.877465199958262,3.700504705130886,-53.895862395637025,0
8.6,16.17667986009615,4.364228675203535,399.63369975954885,0.591963842393555,306.60120510925645,12.9358940125,3.5429880619,-53.9303283691,0
8.700000000000001,16.089873526789372,4.569306768652048,399.93454971539546,0.5856077743476795,306.81307382523033,12.9358940125,3.5429880619,-53.9303283691,0
8.8,15.98814348694176,4.7453165884371105,400.23632710252906,0.5793451209824421,306.9672568523466,12.9358940125,3.5429880619,-53.9303283691,0
8.9,15.774571139038152,4.703480874418083,400.54505491149143,0.5737825425925658,306.6891276676149,12.9358940125,3.5429880619,-53.9303283691,0
9.0,15.560998791134542,4.661645160399054,400.85378272045375,0.5682199642026894,306.4109984828832,12.034488678,0.153791606426,-52.4846878052,0
9.1,15.347426443230933,4.619809446380026,401.1625105294161,0.5626573858128131,306.13286929815143,12.034488678,0.153791606426,-52.4846878052,0
9.200000000000001,15.147009272766136,4.538998225374148,401.5624302379302,0.5479794098300284,306.17172276831866,12.034488678,0.153791606426,-52.4846878052,0
9.3,14.958625150340293,4.422536086689918,402.04576322712194,0.5249635746553185,306.50052044727005,12.230775342489059,-4.266518160195873,-53.28612327008729,0
9.4,14.770241027914452,4.306073948005689,402.5290962163137,0.5019477394806088,306.8293181262215,12.3236322403,-6.34989023209,-53.6654815674,0
9.5,14.651621921882432,4.5068524161180274,402.9726416749305,0.4849304202834084,307.0,12.3236322403,-6.34989023209,-53.6654815674,0
9.600000000000001,14.60831232529044,5.050083817050471,403.3732375355351,0.47438834210219655,307.0,11.272470263575816,-4.033105454642764,-52.79903575360427,0
9.700000000000001,14.565002728698447,5.593315217982905,403.77383339613976,0.4638462639209849,307.0,10.6457214355,-2.65041327477,-52.2793998718,0
9.8,14.521693132106455,6.136546618915339,404.1744292567444,0.45330418573977327,307.0,10.6457214355,-2.65041327477,-52.2793998718,0
9.9,14.470827684078987,5.802599293606862,404.4274097749632,0.44716837197566434,307.0,10.6457214355,-2.65041327477,-52.2793998718,0
10.0,14.416512880046298,5.068207129903939,404.6130017437817,0.4430440819633812,307.0,8.788034842084762,1.5304053934970536,-52.25279600264336,0
10.100000000000001,14.362198076013609,4.333814966201004,404.7985937126002,0.43891979195109804,307.0,6.52219200134,6.46998357773,-52.2198371887,0
10.200000000000001,14.30788327198092,3.5994228024980806,404.9841856814187,0.4347955019388149,307.0,6.52219200134,6.46998357773,-52.2198371887,0
10.3,14.253568467948233,2.865030638795157,405.1697776502372,0.4306712119265318,307.0,6.52219200134,6.46998357773,-52.2198371887,0
10.4,14.217835021306735,2.7424039419216477,405.2810015106674,0.430000007153,306.76851883226766,6.52219200134,6.46998357773,-52.2198371887,0
10.5,14.185713386977229,2.738691164985512,405.37776982601326,0.430000007153,306.4920427530223,3.0736302497194723,4.69214155123317,-52.625701063185076,0
10.600000000000001,14.153591752647719,2.7349783880493765,405.4745381413591,0.430000007153,306.2155666737769,2.78838634491,4.5723772049,-52.6595306396,0
10.700000000000001,14.12067983573122,2.6422791143709903,405.56966497249243,0.42890687811383216,306.0,2.78838634491,4.5723772049,-52.6595306396,0
10.8,14.084971001207146,2.234644520502905,405.658982367644,0.4239450166651151,306.0,2.78838634491,4.5723772049,-52.6595306396,0
10.9,14.049262166683073,1.8270099266348192,405.74829976279557,0.418983155216398,306.0,1.01815021038,4.98530960083,-53.4201545715,0
11.0,14.013553332158999,1.4193753327667336,405.83761715794714,0.41402129376768093,306.0,1.01815021038,4.98530960083,-53.4201545715,0
11.100000000000001,13.984816762983478,1.0800427444206213,405.89675676569135,0.4105298717710041,306.0529875852347,1.01815021038,4.98530960083,-53.4201545715,0
11.200000000000001,13.98588948801284,1.032729245366723,405.8268739541348,0.41332518156737785,306.332518831461,0.9119996292531863,4.86942690848809,-53.43791854880493,0
11.3,13.986962213042203,0.9854157463128244,405.75699114257816,0.4161204913637517,306.61205007768734,-1.33720123768,2.37880086899,-53.87342453,0
11.4,13.988034938071564,0.938102247258926,405.6871083310216,0.41891580116012544,306.89158132391367,-1.33720123768,2.37880086899,-53.87342453,0
11.5,14.042006534701239,0.42560763509174054,405.592385858694,0.4248296757601385,306.51703113187614,-1.33720123768,2.37880086899,-53.87342453,0
11.600000000000001,14.129495397892198,-0.3816304923114081,405.4819247230232,0.43271950494387085,305.7280482448518,-2.106009072718603,3.146527401977578,-53.33617062808887,0
11.700000000000001,14.216984261083153,-1.1888686197145422,405.3714635873524,0.440609334127603,304.93906535782753,-3.72425317764,4.76556539536,-52.1779098511,0
11.8,14.30447312427411,-1.9961067471176768,405.2610024516816,0.44849916331133516,304.1500824708032,-3.72425317764,4.76556539536,-52.1779098511,0
11.9,14.328225192877103,-1.71959283465528,405.4061538813239,0.4366304255568048,303.23602492066436,-3.72425317764,4.76556539536,-52.1779098511,0
12.0,14.337005013270561,-1.1884974886056654,405.61135060816207,0.4201202531274239,302.2925863997224,-2.7195100449622776,6.068354452339339,-53.533235583149704,0
12.100000000000001,14.345784833664018,-0.6574021425560415,405.8165473350003,0.4036100806980427,301.34914787878034,-1.66225636005,7.44073200226,-55.0520744324,0
12.200000000000001,14.354564654057477,-0.12630679650642662,406.02174406183843,0.3870999082686618,300.40570935783836,-1.66225636005,7.44073200226,-55.0520744324,0
12.3,14.327198144158677,0.29447958704710464,406.1544995352231,0.3778803420061454,300.31794828708956,-1.66225636005,7.44073200226,-55.0520744324,0
12.4,14.27255971847528,0.6320393550311921,406.232599065735,0.3741614391801053,300.87578424297584,-1.6166449190661092,5.516891925976029,-56.19908407055735,0
12.5,14.217921292791882,0.9695991230152795,406.3106985962468,0.3704425363540652,301.4336201988621,-1.49993753433,0.831701815128,-59.1587944031,0
12.600000000000001,14.163282867108483,1.3071588909993732,406.38879812675873,0.36672363352802506,301.9914561547484,-1.49993753433,0.831701815128,-59.1587944031,0
12.700000000000001,14.108644441425085,1.6447186589834606,406.4668976572706,0.36300473070198497,302.54929211063467,-1.49993753433,0.831701815128,-59.1587944031,0
12.8,14.058695292302266,1.8157735490856863,406.5215960426836,0.36060014639279947,303.0600132660146,-1.49993753433,0.831701815128,-59.1587944031,0
12.9,14.028474810090986,1.286311156310493,406.4778414170535,0.3637251468499874,303.37251360976495,-1.49993753433,0.831701815128,-59.1587944031,0
13.0,13.998254327879705,0.7568487635352998,406.43408679142345,0.3668501473071754,303.68501395351535,-4.10558986664,-6.62042999268,-56.73254776,0
13.100000000000001,13.968033845668423,0.22738637076009693,406.3903321657934,0.36997514776436347,303.99751429726575,-4.10558986664,-6.62042999268,-56.73254776,0
13.200000000000001,13.9642296513515,-0.13812842340828568,406.3147343823769,0.3731355355476132,303.05933986910253,-4.10558986664,-6.62042999268,-56.73254776,0
13.3,13.960637263286158,-0.5023286829056681,406.2388812799726,0.3762962070670531,302.1111375090648,-4.8982462883,-4.30615997314,-55.736114502,0
13.4,13.957044875220813,-0.8665289424030505,406.16302817756826,0.37945687858649296,301.1629351490271,-4.8982462883,-4.30615997314,-55.736114502,0
13.5,13.96915116520494,-0.8528901589721225,406.03296810655263,0.3832505652183987,300.0248280740589,-4.8982462883,-4.30615997314,-55.736114502,0
13.600000000000001,13.984514775005369,-0.7608535258607856,405.89166062779464,0.38717559620066033,298.8473176563887,-5.90182304382,-3.22787046432,-58.1577224731,0
13.700000000000001,13.999911019479041,-0.7449013385972322,405.74252370445674,0.39213280340925777,298.1066408285054,-5.90182304382,-3.22787046432,-58.1577224731,0
13.8,14.015391008777234,-0.924191754754759,405.5732954059886,0.3997387093285265,298.48693592045953,-5.90182304382,-3.22787046432,-58.1577224731,0
13.9,14.030870998075425,-1.1034821709122857,405.4040671075204,0.40734461524779525,298.8672310124137,-6.08130931854,-2.49724030495,-61.3846321106,0
14.0,14.046350987373618,-1.2827725870698123,405.23483880905223,0.414950521167064,299.2475261043678,-6.08130931854,-2.49724030495,-61.3846321106,0
14.100000000000001,14.061830976671809,-1.4620630032273425,405.065610510584,0.4225564270863329,299.627821196322,-6.08130931854,-2.49724030495,-61.3846321106,0
14.200000000000001,14.078705724987232,-1.647748288027436,404.89362495184173,0.43024496875647467,300.0097984676433,-6.08130931854,-2.49724030495,-61.3846321106,0
14.3,14.159538248679032,-2.1266753207923186,404.5952030474021,0.441722837992957,300.4689134013005,-6.08130931854,-2.49724030495,-61.3846321106,0
14.4,14.240370772370833,-2.6056023535572015,404.2967811429625,0.4532007072294393,300.9280283349576,-7.18999862671,1.84446334839,-59.7762794495,0
14.5,14.321203296062633,-3.084529386322084,403.9983592385229,0.46467857646592153,301.3871432686148,-7.18999862671,1.84446334839,-59.7762794495,0
14.600000000000001,14.402035819754433,-3.5634564190869753,403.6999373340833,0.476156445702404,301.84625820227194,-7.18999862671,1.84446334839,-59.7762794495,0
14.700000000000001,14.488700660759786,-3.637552344861351,403.45596273225146,0.48411544257203787,301.72563645749887,-7.18999862671,1.84446334839,-59.7762794495,0
14.8,14.578301814240623,-3.5078338061590273,403.23939992667636,0.49030284364622345,301.3131430689429,-5.38340782110877,3.2817817786690533,-57.32331287273946,0
14.9,14.66790296772146,-3.378115267456704,403.0228371211013,0.496490244720409,300.90064968038695,-5.21598005295,3.31640911102,-57.0924224854,0
15.0,14.757504121202297,-3.2483967287543805,402.8062743155262,0.5026776457945945,300.48815629183093,-5.21598005295,3.31640911102,-57.0924224854,0
15.100000000000001,14.847105274683134,-3.1186781900520546,402.5897115099511,0.5088650468687802,300.075662903275,-5.21598005295,3.31640911102,-57.0924224854,0
15.200000000000001,14.898886458091901,-3.0202705968566317,402.4542581970127,0.5133009106031147,300.0,-5.21598005295,3.31640911102,-57.0924224854,0
15.3,14.94217206624109,-2.928896443759009,402.3370246710717,0.5173433230136559,300.0,-0.223393291235,5.36110448837,-59.5847892761,0
15.4,14.980060534157381,-2.723731736653939,402.2353301368555,0.519999980927,300.0,-0.223393291235,5.36110448837,-59.5847892761,0
15.5,15.007602035610173,-2.300416861983754,402.16342571727694,0.519999980927,300.0,-0.223393291235,5.36110448837,-59.5847892761,0
15.600000000000001,15.035143537062963,-1.8771019873135608,402.0915212976984,0.519999980927,300.0,1.36823880672,6.51506280899,-60.0007820129,0
15.700000000000001,15.062685038515754,-1.4537871126433755,402.0196168781199,0.519999980927,300.0,1.36823880672,6.51506280899,-60.0007820129,0
15.8,15.090226539968544,-1.0304722379731903,401.9477124585414,0.519999980927,300.0,1.36823880672,6.51506280899,-60.0007820129,0
15.9,15.095501056125148,-0.8082666943769845,401.91200278514657,0.519999980927,300.0,1.36823880672,6.51506280899,-60.0007820129,0
16.0,15.098101213743016,-0.6102152268545258,401.8806402529218,0.519999980927,300.0,2.427822653613429,5.6371240288380555,-59.7797542866996,0
16.1,15.100701371360884,-0.4121637593320634,401.84927772069705,0.519999980927,300.0,2.5833876133,5.51978302002,-59.747428894,0
16.2,15.103301528978752,-0.2141122918096081,401.8179151884723,0.519999980927,300.0,2.5833876133,5.51978302002,-59.747428894,0
16.3,15.100199168113903,-0.22595191283902916,401.7986903102344,0.519999980927,300.1296216880188,2.5833876133,5.51978302002,-59.747428894,0
16.400000000000002,15.08948755801618,-0.517863156501763,401.7956615100222,0.519999980927,300.4322062051999,2.8142628687440663,4.585628050548726,-59.58926777115039,0
16.5,15.078775947918453,-0.8097744001644863,401.79263270981,0.519999980927,300.7347907223811,3.30177545547,2.62845420837,-59.2532157898,0
16.6,15.066629456096072,-1.03409817991037,401.79208161809015,0.519999980927,301.0,3.30177545547,2.62845420837,-59.2532157898,0
16.7,15.044301251724903,-0.7788311211374614,401.8091119863715,0.519999980927,301.0,3.30177545547,2.62845420837,-59.2532157898,0
16.8,15.02197304735373,-0.5235640623645439,401.82614235465286,0.519999980927,301.0,3.54609203339,1.63122928143,-58.6516113281,0
16.900000000000002,14.99964484298256,-0.26829700359162634,401.84317272293424,0.519999980927,301.0,3.54609203339,1.63122928143,-58.6516113281,0
17.0,14.977316638611391,-0.013029944818717887,401.8602030912156,0.519999980927,301.0,3.54609203339,1.63122928143,-58.6516113281,0
17.1,14.964328935354871,0.1893267671988459,401.8814415307946,0.519999980927,301.0,3.54609203339,1.63122928143,-58.6516113281,0
17.2,14.963977056914775,0.3201063909670172,401.9083726469312,0.519999980927,301.0,3.54609203339,1.63122928143,-58.6516113281,0
17.3,14.963625178474677,0.45088601473519313,401.9353037630678,0.519999980927,301.0,3.58023095131,5.42687606812,-58.4730377197,0
17.400000000000002,14.963273300034581,0.5816656385033692,401.96223487920435,0.519999980927,301.0,3.58023095131,5.42687606812,-58.4730377197,0
17.5,14.962921421594485,0.7124452622715405,401.98916599534095,0.519999980927,301.0,3.58023095131,5.42687606812,-58.4730377197,0
17.6,14.959556671011121,0.8333484525470474,402.04369312169626,0.5176651865249754,301.0,3.58023095131,5.42687606812,-58.4730377197,0
17.7,14.956096798914377,0.9539398269684629,402.09909150117164,0.5152566786806314,301.0,3.87284326553,7.40670490265,-58.7205696106,0
17.8,14.952636926817634,1.0745312013898827,402.154489880647,0.5128481708362872,301.0,3.87284326553,7.40670490265,-58.7205696106,0
17.900000000000002,14.949177054720892,1.1951225758113027,402.2098882601224,0.5104396629919431,301.0,3.87284326553,7.40670490265,-58.7205696106,0
18.0,14.953929129194707,1.0438520349666276,402.27946265315313,0.5070266494665288,301.29733438321495,3.87284326553,7.40670490265,-58.7205696106,0
18.1,14.960515063152847,0.8318703646164238,402.35220277755883,0.5033893136985786,301.66106830690296,3.5445716542236587,5.894782458229641,-58.526882507367496,0
18.2,14.966849711373113,0.6306594056182104,402.42288411847466,0.49982935431971826,301.98293541569734,3.51554965973,5.81016540527,-58.5095443726,0
18.3,14.96975044665251,0.5766342177138922,402.465431418326,0.4973267720369866,301.73267694875267,3.51554965973,5.81016540527,-58.5095443726,0
18.400000000000002,14.972651181931907,0.522609029809574,402.50797871817724,0.494824189754255,301.482418481808,2.902733869378074,3.399889656498701,-57.94413115514667,0
18.5,14.975551917211304,0.4685838419052578,402.55052601802856,0.4923216074715235,301.2321600148633,2.6828854084,2.5665974617,-57.7410888672,0
18.6,14.978090745160749,0.41135985773788436,402.59156436401395,0.490000009537,300.9776019718455,2.6828854084,2.5665974617,-57.7410888672,0
18.7,14.975987164426678,0.3131029396688057,402.6132464274647,0.490000009537,300.66789061292127,2.6828854084,2.5665974617,-57.7410888672,0
18.8,14.973883583692608,0.2148460215997235,402.63492849091534,0.490000009537,300.35817925399704,1.81605553627,1.34857404232,-58.9676818848,0
18.900000000000002,14.971780002958537,0.11658910353064134,402.65661055436607,0.490000009537,300.04846789507275,1.81605553627,1.34857404232,-58.9676818848,0
19.0,14.969762356791811,0.31902572680707636,402.6978750015569,0.4881965353762549,299.8196529494168,1.81605553627,1.34857404232,-58.9676818848,0
19.1,14.967760653866426,0.5772493267072766,402.74277252307013,0.48605846682948856,299.6058465280403,1.51314330101,0.148764193058,-59.8582611084,0
19.200000000000003,14.96575895094104,0.8354729266074766,402.7876700445833,0.4839203982827222,299.3920401066637,1.51314330101,0.148764193058,-59.8582611084,0
19.3,14.963757248015657,1.0936965265076677,402.8325675660965,0.48178232973595597,299.1782336852872,1.51314330101,0.148764193058,-59.8582611084,0
19.400000000000002,14.962416243019394,1.2446436373828396,402.877097142013,0.47940813033395824,299.0,1.51314330101,0.148764193058,-59.8582611084,0
19.5,14.96438559982587,0.858092481732045,402.91978316281103,0.4758508205737298,299.0,1.51314330101,0.148764193058,-59.8582611084,0
19.6,14.96635495663235,0.4715413260812369,402.9624691836091,0.4722935108135012,299.0,0.623526394367,2.41412615776,-60.3259239197,0
19.700000000000003,14.968798720177746,0.2630344116120896,402.998417312765,0.469999998808,299.10535616727856,0.623526394367,2.41412615776,-60.3259239197,0
19.8,14.972103426502265,0.3776382188806754,403.0221376663018,0.469999998808,299.4019103594018,0.623526394367,2.41412615776,-60.3259239197,0
19.900000000000002,14.975408132826784,0.49224202614926527,403.0458580198385,0.469999998808,299.69846455152515,0.479396879673,-1.82472276688,-60.4913787842,0
20.0,14.978712839151301,0.606845833417851,403.0695783733752,0.469999998808,299.9950187436484,0.479396879673,-1.82472276688,-60.4913787842,0
20.1,14.99932319890817,0.42903371855088723,403.09147143234884,0.469999998808,300.0,0.479396879673,-1.82472276688,-60.4913787842,0
20.200000000000003,15.020229209891552,0.24622594568297695,403.11333327366975,0.469999998808,300.0,-0.09279447130449153,1.525398363468546,-59.57596114098809,0
20.3,15.040735208222038,0.10094728827565162,403.1346427623777,0.4693372256379069,300.0,-0.19957524538,2.1409330368,-59.4031105042,0
20.400000000000002,15.059956320888798,0.07621637374367835,403.15417803232407,0.4665455504483408,300.0,-0.19957524538,2.1409330368,-59.4031105042,0
20.5,15.079177433555556,0.05148545921170593,403.17371330227036,0.46375387525877476,300.0,-0.434414923191,5.25738334656,-59.406917572,0
20.6,15.098398546222313,0.026754544679732636,403.1932485722167,0.4609622000692086,300.0,-0.434414923191,5.25738334656,-59.406917572,0
20.700000000000003,15.111950941460952,0.0668409245310172,403.19616547867025,0.460000008345,300.12721218852886,-0.434414923191,5.25738334656,-59.406917572,0
20.8,15.122521952555102,0.14101707093232438,403.190342184884,0.460000008345,300.3213298819932,-0.4851414582953165,5.651277957789375,-59.49828296660212,0
20.900000000000002,15.133092963649256,0.2151932173336342,403.18451889109775,0.460000008345,300.5154475754576,-0.518102228642,5.89660072327,-59.558265686,0
21.0,15.143663974743408,0.28936936373494143,403.17869559731156,0.460000008345,300.70956526892195,-0.518102228642,5.89660072327,-59.558265686,0
21.1,15.15423498583756,0.36354551013625125,403.1728723035253,0.460000008345,300.9036829623863,-0.518102228642,5.89660072327,-59.558265686,0
21.200000000000003,15.16280062928573,0.2933067893204586,403.16321951798255,0.460000008345,301.2706017454069,-0.518102228642,5.89660072327,-59.558265686,0
21.3,15.169391326151928,0.08084394866895539,403.14979533337976,0.460000008345,301.8077002567503,-0.7690460842351237,6.090098906455996,-58.792322294737765,0
21.400000000000002,15.175982023018127,-0.1316188919825555,403.1363711487769,0.460000008345,302.34479876809365,-0.894372940063,6.18656873703,-58.409538269,0
21.5,15.182572719884325,-0.3440817326340587,403.1229469641741,0.460000008345,302.88189727943706,-0.894372940063,6.18656873703,-58.409538269,0
21.6,15.197282223682523,-0.34242334580975803,403.1140677525189,0.460000008345,303.0,-0.894372940063,6.18656873703,-58.409538269,0
21.700000000000003,15.214280182896008,-0.28041041592891447,403.1064696364781,0.460000008345,303.0,-0.9648701778802758,5.315069089809256,-57.742824267603304,0
21.8,15.231278142109494,-0.2183974860480731,403.09887152043734,0.460000008345,303.0,-1.05952966213,4.14394044876,-56.8463516235,0
21.900000000000002,15.24827610132298,-0.15638455616722957,403.09127340439653,0.460000008345,303.0,-1.05952966213,4.14394044876,-56.8463516235,0
22.0,15.265274060536466,-0.09437162628638823,403.0836752883557,0.460000008345,303.0,-1.05952966213,4.14394044876,-56.8463516235,0
22.1,15.271977781713895,0.06167196520199242,403.0850893918052,0.460000008345,303.0,-1.05952966213,4.14394044876,-56.8463516235,0
22.200000000000003,15.268968368581227,0.3064382423580382,403.09500698021725,0.460000008345,303.0,-0.9440687166715144,5.385459363331265,-56.83551684854953,0
22.3,15.26595895544856,0.5512045195140752,403.1049245686293,0.460000008345,303.0,-0.801964640617,6.8460111618,-56.8221244812,0
22.400000000000002,15.262949542315893,0.7959707966701209,403.11484215704144,0.460000008345,303.0,-0.801964640617,6.8460111618,-56.8221244812,0
22.5,15.253319940796828,0.6748992266478068,403.10582880501534,0.460000008345,303.15740987132875,-0.801964640617,6.8460111618,-56.8221244812,0
22.6,15.236530585688143,0.15817292798725036,403.07634158414356,0.460000008345,303.48505899047166,-0.8518154201028162,6.081872065598583,-56.68219485298372,0
22.700000000000003,15.219741230579459,-0.35855337067330595,403.0468543632718,0.460000008345,303.8127081096145,-0.997176587582,3.88201618195,-56.2740516663,0
22.8,15.200956205142331,-0.6405470821874935,402.99664546671687,0.4611912021278147,304.0,-0.997176587582,3.88201618195,-56.2740516663,0
22.900000000000002,15.179508168532145,-0.6093149600846013,402.91878568359914,0.4639719181416821,304.0,-0.9977740844002716,3.8854142212231553,-56.268175874482225,0
23.0,15.15806013192196,-0.5780828379817103,402.8409259004814,0.46675263415554946,304.0,-1.06374967098,4.243496418,-55.6042671204,0
23.1,15.136612095311776,-0.5468507158788183,402.7630661173637,0.4695333501694169,304.0,-1.06374967098,4.243496418,-55.6042671204,0
23.200000000000003,15.116684636736034,-0.5913579076851863,402.69613669929356,0.469999998808,303.7306999331973,-1.06374967098,4.243496418,-55.6042671204,0
23.3,15.097063813860366,-0.6511384869911849,402.63141146940876,0.469999998808,303.40709353508976,-0.6772065946462189,3.525083848220815,-55.632429407110784,0
23.400000000000002,15.077442990984697,-0.7109190662971857,402.56668623952396,0.469999998808,303.0834871369822,-0.279607146978,2.78995037079,-55.661945343,0
23.5,15.035343488228833,-0.736110233212966,402.549987793,0.469999998808,303.0,-0.279607146978,2.78995037079,-55.661945343,0
23.6,14.98542836661115,-0.7492749970954241,402.549987793,0.469999998808,303.0,0.26314026638851856,1.288259469124461,-56.40856510525603,0
23.700000000000003,14.935513244993464,-0.7624397609778822,402.549987793,0.469999998808,303.0,0.461206167936,0.753353118896,-56.6812438965,0
23.8,14.886123330344367,-0.6664109310655052,402.54544537025737,0.469999998808,303.0,0.461206167936,0.753353118896,-56.6812438965,0
23.900000000000002,14.837189403970632,-0.475579477628062,402.53695918508146,0.469999998808,303.0,0.6999393061354214,-0.7706549552890273,-56.58903790936202,0
24.0,14.788255477596898,-0.28474802419062567,402.52847299990555,0.469999998808,303.0,0.805958151817,-1.37284755707,-56.5480422974,0
24.1,14.739321551223165,-0.0939165707531826,402.5199868147296,0.469999998808,303.0,0.805958151817,-1.37284755707,-56.5480422974,0
24.200000000000003,14.69038762484943,0.09691488268426052,402.51150062955367,0.469999998808,303.0,0.805958151817,-1.37284755707,-56.5480422974,0
24.3,14.627050158723842,0.12931424588864646,402.5308674143482,0.469999998808,303.0,0.805958151817,-1.37284755707,-56.5480422974,0
24.400000000000002,14.560566404364563,0.12710593417932345,402.556318361314,0.469999998808,303.0,1.45957374573,-1.86501181126,-56.3026657104,0
24.5,14.494082650005288,0.12489762247000051,402.5817693082799,0.469999998808,303.0,1.45957374573,-1.86501181126,-56.3026657104,0
24.6,14.427598895646009,0.12268931076067749,402.6072202552457,0.469999998808,303.0,1.45957374573,-1.86501181126,-56.3026657104,0
24.700000000000003,14.37105331822393,0.18982685258611176,402.7147909223153,0.46417772064957685,303.2911137517532,1.45957374573,-1.86501181126,-56.3026657104,0
24.8,14.315719069473097,0.2654167112850876,402.83237086694805,0.4576457859304161,303.6177103125085,1.991453154574319,-2.059669697055824,-56.49061799920867,0
24.900000000000002,14.260384820722264,0.34100656998406614,402.9499508115808,0.45111385121125513,303.9443068732638,2.19578170776,-2.13099884987,-56.5628242493,0
25.0,14.22815713460026,0.6034188522734636,403.05558978518735,0.4446504849245476,303.82168323527003,2.19578170776,-2.13099884987,-56.5628242493,0
25.1,14.20067976375419,0.9042386392586099,403.1587738987619,0.4382012151383606,303.60670758427216,1.934870460691855,0.02294525604403841,-56.119275526479754,0
25.200000000000003,14.173202392908122,1.2050584262437563,403.2619580123365,0.43175194535217354,303.3917319332743,1.79927074909,1.11331439018,-55.8886795044,0
25.3,14.145725022062052,1.505878213228892,403.36514212591106,0.4253026755659868,303.1767562822764,1.79927074909,1.11331439018,-55.8886795044,0
25.400000000000002,14.122324621595371,1.7381332081765506,403.46178282926945,0.41959306339394686,302.9186152237727,1.79927074909,1.11331439018,-55.8886795044,0
25.5,14.117779323955327,1.6532909265067348,403.5281616810612,0.4173042070953764,302.46084352748176,1.79927074909,1.11331439018,-55.8886795044,0
25.6,14.113234026315283,1.568448644836916,403.59454053285293,0.4150153507968059,302.00307183119077,0.721722304821,5.44861936569,-56.2374839783,0
25.700000000000003,14.108688728675238,1.483606363167097,403.6609193846447,0.41272649449823534,301.54530013489983,0.721722304821,5.44861936569,-56.2374839783,0
25.8,14.104143431035194,1.3987640814972813,403.72729823643647,0.41043763819966494,301.08752843860884,0.721722304821,5.44861936569,-56.2374839783,0
