t_sec,airspeed,climb,altitude,throttle,heading,pitch,roll,yaw,is_boundary
0.0,17.3479328156,-3.12603807449,430.299987793,0.490000009537,264.0,-4.06257486343,11.3023757935,-98.1391830444,0
0.1,17.624561134798345,-2.9031246141670346,430.1597081211778,0.534889495155319,265.1222373745777,-4.06257486343,11.3023757935,-98.1391830444,0
0.2,17.901189453996693,-2.68021115384407,430.0194284493556,0.5797789807736381,266.2444747491555,-4.020946995589951,15.209442353686612,-97.14396410711164,0
0.30000000000000004,18.177817773195038,-2.4572976935211046,429.8791487775334,0.6246684663919571,267.3667121237332,-3.93370223045,23.4277076721,-95.0587768555,0
0.4,18.52282706969596,-2.6742677949399942,429.7361048835898,0.6224636051112777,268.66087298390266,-3.93370223045,23.4277076721,-95.0587768555,0
0.5,18.95640347597527,-3.4609755228059864,429.5894807664069,0.5592620989115101,270.1777093135161,-3.93370223045,23.4277076721,-95.0587768555,0
0.6000000000000001,19.389979882254583,-4.247683250671979,429.442856649224,0.4960605927117424,271.6945456431296,-3.74654568952213,31.258208466096264,-91.38364873080776,0
0.7000000000000001,19.823556288533897,-5.034390978537971,429.2962325320411,0.43285908651197474,273.211381972743,-3.73799467087,31.5589466095,-91.1891555786,0
0.8,20.12486524792532,-4.154525020511981,429.11953285577516,0.3683460653585957,274.6881291310267,-3.73799467087,31.5589466095,-91.1891555786,0
0.9,20.282936262462155,-1.4698567824642796,428.91026309991105,0.3024127498620394,276.12146205060463,-3.73799467087,31.5589466095,-91.1891555786,0
1.0,20.441007276998988,1.2148114555834226,428.7009933440469,0.2364794343654832,277.5547949701825,-5.28554677963,38.1706924438,-85.9096679688,0
1.1,20.59907829153582,3.899479693631127,428.49172358818277,0.17054611886892687,278.9881278897604,-5.28554677963,38.1706924438,-85.9096679688,0
1.2000000000000002,20.679036410232875,3.085703085065065,428.2624142723008,0.12814671592680374,281.61583033343857,-5.28554677963,38.1706924438,-85.9096679688,0
1.3,20.758342126201377,2.2427072939417116,428.0329375850329,0.08594386937398066,284.2535082098291,-5.081984798177963,37.6294606708573,-84.61607040295533,0
1.4000000000000001,20.837647842169876,1.3997115028183562,427.80346089776504,0.043741022821157494,286.89118608621965,-4.52302885056,36.2701301575,-80.6279525757,0
1.5,20.920862375213385,0.59877623843022,427.58960424776075,0.009447456924589726,289.3867800049685,-4.52302885056,36.2701301575,-80.6279525757,0
1.6,21.019663086209952,-0.03444515193559705,427.4380315767076,0.006691681982021247,291.3158225078844,-4.52302885056,36.2701301575,-80.6279525757,0
1.7000000000000002,21.118463797206516,-0.6676665423014141,427.28645890565446,0.003935907039452767,293.2448650108003,-4.964783755625284,36.203716690045994,-77.42903545680326,0
1.8,21.21726450820308,-1.3008879326672296,427.13488623460137,0.0011801320968842944,295.1739075137162,-6.05620574951,36.0388183594,-69.5112838745,0
1.9000000000000001,21.242639533295016,-1.4390097499122585,427.02218906939805,0.0,296.79649470273534,-6.05620574951,36.0388183594,-69.5112838745,0
2.0,21.213019856440923,-1.2063096521567194,426.93860905619505,0.0,298.1895516062708,-6.05620574951,36.0388183594,-69.5112838745,0
2.1,21.183400179586826,-0.9736095544011798,426.85502904299204,0.0,299.5826085098063,-4.06322813034,36.7610397339,-63.0697402954,0
2.2,21.153780502732733,-0.7409094566456402,426.77144902978904,0.0,300.97566541334174,-4.06322813034,36.7610397339,-63.0697402954,0
2.3000000000000003,21.03969168325815,-0.8633538439240986,426.72629830078813,0.0,302.4564163670245,-4.06322813034,36.7610397339,-63.0697402954,0
2.4000000000000004,20.924101082417327,-0.9921123638361096,426.68183080806915,0.0,303.9387264378754,-4.06322813034,36.603895900264966,-63.0697402954,0
2.5,20.8085104815765,-1.1208708837481198,426.6373633153501,0.0,305.42103650872633,-1.0996992588,24.8598556519,-58.5588951111,0
2.6,20.69291988073568,-1.2496294036601308,426.5928958226311,0.0,306.9033465795773,-1.0996992588,24.8598556519,-58.5588951111,0
2.7,20.554853917579525,-0.8990918466737489,426.51600642819136,0.0,307.9247939087611,-1.0996992588,24.8598556519,-58.5588951111,0
2.8000000000000003,20.41522023514577,-0.5151220500246075,426.4368555155777,0.0,308.91409477488446,-1.9415500337369362,16.801101062102614,-54.70107764700016,0
2.9000000000000004,20.275586552712014,-0.1311522533754661,426.35770460296396,0.0,309.9033956410078,-2.37703037262,12.6490821838,-52.6815948486,0
3.0,20.142435470710154,-0.3141297491982593,426.2661929480824,0.0,310.0,-2.37703037262,12.6490821838,-52.6815948486,0
3.1,20.009985912075216,-0.5584602125011371,426.1733436587709,0.0,310.0,-2.7960338103185673,9.623621007963486,-51.5247644224461,0
3.2,19.88602210619163,-0.7725607852006487,426.0663217516887,0.0,309.8044863551244,-3.48930454254,4.99103546143,-49.6110992432,0
3.3000000000000003,19.780289056955784,-0.9217155840570268,425.9288514503144,0.0,309.18893199194326,-3.48930454254,4.99103546143,-49.6110992432,0
3.4000000000000004,19.67455600771994,-1.0708703829134048,425.7913811489401,0.0,308.5733776287621,-4.083581581008643,2.8186771783146,-49.77562605388874,0
3.5,19.5688229584841,-1.2200251817697823,425.65391084756584,0.0,307.95782326558094,-4.37600708008,1.74017238617,-49.8577613831,0
3.6,19.463089909248254,-1.3691799806261602,425.5164405461915,0.0,307.3422689023998,-4.37600708008,1.74017238617,-49.8577613831,0
3.7,19.381292767780796,-1.4826044046657993,425.32490037063656,0.0,306.8762374194216,-4.37600708008,1.74017238617,-49.8577613831,0
3.8000000000000003,19.32947349947353,-1.5512792978087269,425.06564185969785,0.0,306.5974717790698,-4.37600708008,1.74017238617,-49.8577613831,0
3.9000000000000004,19.277654231166267,-1.6199541909516544,424.80638334875914,0.0,306.31870613871797,-6.714118775709798,-3.2630965966945906,-51.65576526583732,0
4.0,19.225834962859,-1.6886290840945817,424.54712483782043,0.0,306.0399404983661,-7.77303123474,-5.53342247009,-52.490322113,0
4.1000000000000005,19.2126455812603,-2.158216033620239,424.1730985033328,0.0,305.76275718369936,-7.77303123474,-5.53342247009,-52.490322113,0
4.2,19.20591656189205,-2.6948504773911504,423.7798786951982,0.0,305.4858384930831,-7.77303123474,-5.53342247009,-52.490322113,0
4.3,19.1991875425238,-3.2314849211620613,423.3866588870636,0.0,305.20891980246694,-11.385725975,-9.70058631897,-53.6786613464,0
4.4,19.195755568648455,-3.6988779845797604,422.974513329891,0.0,305.06380285295677,-11.385725975,-9.70058631897,-53.6786613464,0
4.5,19.202453438243342,-3.9535338121448875,422.5042202962204,0.0,305.32363360871227,-11.385725975,-9.70058631897,-53.6786613464,0
4.6000000000000005,19.209151307838233,-4.2081896397100165,422.0339272625498,0.0,305.5834643644678,-14.750111399853711,-11.338273009912726,-54.0663191819883,0
4.7,19.21584917743312,-4.462845467275144,421.5636342288792,0.0,305.8432951202233,-14.8772583008,-11.4044103622,-54.0808944702,0
4.800000000000001,19.253284043510824,-4.7031711217826775,421.0453292032056,0.0,305.89971369955435,-14.8772583008,-11.4044103622,-54.0808944702,0
4.9,19.337425299161662,-4.921721368082948,420.4540675760654,0.0,305.64703739509247,-14.8772583008,-11.4044103622,-54.0808944702,0
5.0,19.421566554812504,-5.1402716143832174,419.8628059489252,0.0,305.3943610906306,-17.1954441071,-9.28423118591,-53.4328651428,0
5.1000000000000005,19.505707810463345,-5.358821860683489,419.27154432178503,0.0,305.1416847861687,-17.1954441071,-9.28423118591,-53.4328651428,0
5.2,19.623818281281892,-5.675285424740951,418.6334874784078,0.0,304.7161903306142,-17.1954441071,-9.28423118591,-53.4328651428,0
5.300000000000001,19.785291714075967,-6.116738967337561,417.93569480739063,0.0,304.07008710098256,-17.25942687201583,-8.887412444428865,-53.502889419779045,0
5.4,19.946765146870046,-6.558192509934167,417.23790213637346,0.0,303.4239838713509,-18.2937774658,-2.74824380875,-54.6357078552,0
5.5,20.07854114612509,-6.644855066768063,416.5799396968809,0.0,303.1149751127331,-18.2937774658,-2.74824380875,-54.6357078552,0
5.6000000000000005,20.153630357976617,-6.054288692146197,415.99800564090845,0.0,303.44941598379944,-18.2937774658,-2.74824380875,-54.6357078552,0
5.7,20.228719569828144,-5.463722317524337,415.41607158493605,0.0,303.7838568548658,-17.5324707031,0.516818523407,-56.1626663208,0
5.800000000000001,20.312435585646785,-5.2190485928591395,414.7845814359204,0.0,304.1566874894254,-17.5324707031,0.516818523407,-56.1626663208,0
5.9,20.41191373490641,-5.606359334939273,414.06254677536384,0.0,304.5996605054805,-17.5324707031,0.516818523407,-56.1626663208,0
6.0,20.513011193249188,-5.955942280569664,413.3576954414323,0.0,305.02059371834423,-16.589412275464536,1.75681374514768,-55.3399433225423,0
6.1000000000000005,20.629314371327794,-5.951251724598351,412.8141998681193,0.0,305.2345676336615,-16.3376121521,2.09151029587,-55.1090927124,0
6.2,20.745617549406397,-5.946561168627038,412.27070429480636,0.0,305.44854154897877,-16.130346468330984,2.213797906235293,-54.92458977597292,0
6.300000000000001,20.861920727485,-5.941870612655725,411.72720872149335,0.0,305.66251546429606,-15.1488332748,2.77695059776,-54.0475387573,0
6.4,20.978223905563603,-5.937180056684412,411.18371314818035,0.0,305.87648937961336,-15.1488332748,2.77695059776,-54.0475387573,0
6.5,21.075170415801548,-5.831871001255826,410.68291350271244,0.0,306.0,-15.1488332748,2.77695059776,-54.0475387573,0
6.6000000000000005,21.14568903552929,-5.589186303033387,410.24040711906065,0.0,306.0,-15.1488332748,2.77695059776,-54.0475387573,0
6.7,21.21620765525703,-5.346501604810949,409.7979007354088,0.0,306.0,-12.877534572962192,4.985177591626215,-53.43327548847807,0
6.800000000000001,21.286726274984773,-5.103816906588509,409.35539435175696,0.0,306.0,-12.5999984741,5.25091123581,-53.3567733765,0
6.9,21.317563588058206,-4.847036073163875,408.95852444970177,0.0,306.61147725098095,-12.5999984741,5.25091123581,-53.3567733765,0
7.0,21.33599497907602,-4.585848238827518,408.57592228934453,0.0,307.41412610778985,-12.109980688264937,5.3482806203897475,-53.30736994085822,0
7.1000000000000005,21.354426370093833,-4.324660404491158,408.1933201289873,0.0,308.21677496459876,-11.0021495819,5.57021760941,-53.1954460144,0
7.2,21.372469408248744,-4.0612378860305345,407.81152741873626,0.0,309.0160942599906,-11.0021495819,5.57021760941,-53.1954460144,0
7.300000000000001,21.374852928206423,-3.707706396960913,407.46237409363647,0.0,309.6811559443787,-11.0021495819,5.57021760941,-53.1954460144,0
7.4,21.3772364481641,-3.354174907891295,407.11322076853673,0.0,310.3462176287668,-10.774685356706733,5.467497205727568,-52.66231132733106,0
7.5,21.379403356279358,-3.0086150032388455,406.7654119438145,0.0,311.0105220594709,-9.88539791107,5.09750699997,-50.5708618164,0
7.6000000000000005,21.369014800951927,-3.125111723061349,406.4955343399816,0.0,311.6309338255813,-9.88539791107,5.09750699997,-50.5708618164,0
7.7,21.358626245624492,-3.241608442883851,406.2256567361487,0.0,312.25134559169163,-9.856887185325293,5.677976391326791,-50.2355855935377,0
7.800000000000001,21.34823769029706,-3.3581051627063543,405.95577913231585,0.0,312.87175735780204,-9.69028377533,9.09846115112,-48.2392425537,0
7.9,21.343174200055685,-3.23421108299002,405.69033601252073,0.0,313.9115427115576,-9.69028377533,9.09846115112,-48.2392425537,0
8.0,21.339498241829897,-3.0476792842557283,405.42604836941484,0.0,315.0606026506836,-9.681430460114576,10.966433761360781,-47.860409895321645,0
8.1,21.33582228360411,-2.8611474855214363,405.1617607263089,0.0,316.2096625898097,-9.65889453888,15.767821312,-46.8932533264,0
8.200000000000001,21.334171582612093,-2.656591452807958,404.8889892293679,0.0,317.71836189155607,-9.65889453888,15.767821312,-46.8932533264,0
8.3,21.336982927987393,-2.41232443108569,404.597526107208,0.0,320.01941857129924,-9.65889453888,15.767821312,-46.8932533264,0
8.4,21.339794273362696,-2.1680574093634224,404.30606298504813,0.0,322.3204752510424,-9.79978370667,25.0687408447,-42.0225524902,0
8.5,21.342605618737995,-1.9237903876411542,404.0145998628883,0.0,324.6215319307856,-9.79978370667,25.0687408447,-42.0225524902,0
8.6,21.33425139841641,-1.888772575971642,403.7160978055734,0.0,327.01835006227446,-9.79978370667,25.0687408447,-42.0225524902,0
8.700000000000001,21.30921436236068,-2.1664004562977697,403.407078658364,0.0,329.55824832935866,-9.79978370667,25.0687408447,-42.0225524902,0
8.8,21.284177326304956,-2.444028336623892,403.0980595111547,0.0,332.0981465964428,-10.363710909971624,28.505407418891025,-38.58538984544788,0
8.9,21.259140290249228,-2.7216562169500147,402.78904036394533,0.0,334.63804486352694,-11.2543878555,33.9545021057,-33.1174964905,0
9.0,21.234103254193503,-2.999284097276137,402.480021216736,0.0,337.1779431306111,-11.2543878555,33.9545021057,-33.1174964905,0
9.1,21.197422102769544,-3.1430259321811924,402.1486408991426,0.008967537005934674,339.6141566370141,-11.2543878555,33.9545021057,-33.1174964905,0
9.200000000000001,21.15516876928078,-3.2226978573138,401.80655985344566,0.022226404635941683,342.0007527748503,-11.2543878555,33.9545021057,-33.1174964905,0
9.3,21.11291543579202,-3.302369782446406,401.46447880774866,0.035485272265948456,344.38734891268643,-11.9052658081,38.7365264893,-21.213514328,0
9.4,21.070662102303256,-3.382041707579012,401.1223977620517,0.04874413989595523,346.7739450505226,-11.9052658081,38.7365264893,-21.213514328,0
9.5,21.01720671812862,-3.5487300042964294,400.7995286790107,0.06742805989491206,349.32374127191446,-11.9052658081,38.7365264893,-21.213514328,0
9.600000000000001,20.9625792762235,-3.724522724289044,400.47866972161364,0.08667959690843158,351.8906129310909,-11.9052658081,38.7365264893,-21.213514328,0
9.700000000000001,20.907951834318386,-3.900315444281656,400.1578107642166,0.10593113392195075,354.4574845902673,-10.136548996,41.7760734558,-12.2511720657,0
9.8,20.83171962963791,-3.750184229141863,399.83021918456,0.12668299375899025,271.58503745908513,-10.136548996,41.7760734558,-12.2511720657,0
9.9,20.749697477297545,-3.5127073418859913,399.5008233022641,0.14783693117084254,165.81536210852673,-10.136548996,41.7760734558,-12.2511720657,0
10.0,20.66767532495718,-3.275230454630119,399.1714274199682,0.16899086858269483,60.045686757968326,-9.27719974518,39.7175445557,-4.58505725861,0
10.100000000000001,20.581437989212592,-3.2885171634730908,398.8442504938158,0.18967379359814207,6.160854442615582,-9.27719974518,39.7175445557,-4.58505725861,0
10.200000000000001,20.49062633524631,-3.5739325976816105,398.5194815794975,0.20984557582787675,8.581468454476543,-9.27719974518,39.7175445557,-4.58505725861,0
10.3,20.399814681280034,-3.8593480318901303,398.19471266517917,0.23001735805761142,11.002082466337503,-9.22491550446,43.373752594,5.46763324738,0
10.4,20.309003027313754,-4.14476346609865,397.86994375086084,0.25018914028734607,13.422696478198464,-9.22491550446,43.373752594,5.46763324738,0
10.5,20.218191373347477,-4.430178900307169,397.5451748365425,0.27036092251708077,15.843310490059425,-9.22491550446,43.373752594,5.46763324738,0
10.600000000000001,20.147748726145114,-4.421012767585566,397.2282325921893,0.2851080431766086,18.532412534494714,-9.22491550446,43.373752594,5.46763324738,0
10.700000000000001,20.09594692055626,-4.142258215799211,396.91845298059826,0.2948907461642717,21.467223314183833,-9.22491550446,43.373752594,5.46763324738,0
10.8,20.044145114967403,-3.863503664012857,396.6086733690072,0.3046734491519348,24.40203409387295,-4.32596969604,48.4710006714,17.8699111938,0
10.9,19.980609179967633,-3.784731253337003,396.296403643207,0.3152407376106314,27.78184955222611,-4.32596969604,48.4710006714,17.8699111938,0
11.0,19.903047130863264,-3.9450027658931544,395.9811574182726,0.3267458617583811,31.693590829823655,-4.32596969604,48.4710006714,17.8699111938,0
11.100000000000001,19.825485081758895,-4.105274278449309,395.6659111933382,0.33825098590613106,35.605332107421276,-4.0423002243,45.654083252,26.6367092133,0
11.200000000000001,19.747923032654526,-4.26554579100546,395.3506649684038,0.34975611005388074,39.517073385018826,-4.0423002243,45.654083252,26.6367092133,0
11.3,19.664664672702575,-4.378757241303862,395.0442026428439,0.360000014305,43.35032885979243,-4.0423002243,45.654083252,26.6367092133,0
11.4,19.535139628357864,-4.109736558166988,394.80908507198075,0.360000014305,46.546105452930306,-4.0423002243,45.654083252,26.6367092133,0
11.5,19.405614584013154,-3.840715875030115,394.5739675011176,0.360000014305,49.741882046068184,-4.097388677029582,45.516096474648215,29.40303691125863,0
11.600000000000001,19.276089539668444,-3.5716951918932365,394.3388499302544,0.360000014305,52.93765863920612,-4.33929157257,44.9387130737,43.0934829712,0
11.700000000000001,19.146564495323734,-3.3026745087563634,394.1037323593912,0.360000014305,56.133435232344,-4.33929157257,44.9387130737,43.0934829712,0
11.8,18.991331632644048,-3.0762205175317363,393.9308719667549,0.36606170297039403,59.02056481540999,-4.33929157257,44.9387130737,43.0934829712,0
11.9,18.82653438025164,-2.86560312608875,393.78117386300755,0.3743785947789558,61.7928647287806,-3.692205718856421,44.76405963616543,45.42738147322249,0
12.0,18.661737127859237,-2.6549857346457633,393.6314757592601,0.3826954865875176,64.56516464215122,-0.417825996876,43.8733978271,57.2767829895,0
12.100000000000001,18.4971133139287,-2.47073578416659,393.4881112244532,0.39194535700415234,67.36745901046174,-0.417825996876,43.8733978271,57.2767829895,0
12.200000000000001,18.333740873194184,-2.476729154072303,393.39044392612743,0.4079267471193198,70.3861659122723,-0.417825996876,43.8733978271,57.2767829895,0
12.3,18.170368432459664,-2.4827225239780164,393.2927766278017,0.42390813723448734,73.40487281408288,0.621091192810034,43.81691185037181,61.584245864494974,0
12.4,18.006995991725148,-2.4887158938837297,393.19510932947594,0.4398895273496548,76.42357971589345,2.25074839592,43.7332382202,68.356262207,0
12.5,17.843623550990632,-2.494709263789443,393.0974420311502,0.45587091746482233,79.44228661770403,2.25074839592,43.7332382202,68.356262207,0
12.600000000000001,17.680251110256112,-2.5007026336951563,392.9997747328244,0.4718523075799901,82.46099351951466,2.25074839592,43.7332382202,68.356262207,0
12.700000000000001,17.52132394358992,-2.5175766085319813,392.9150447437942,0.4848192424095051,85.3252948895454,2.25074839592,43.7332382202,68.356262207,0
12.8,17.367020216574144,-2.5457672804915825,392.8437705884984,0.4946509032653885,88.0290021889067,2.25074839592,43.7332382202,68.356262207,0
12.9,17.212716489558364,-2.5739579524511838,392.77249643320255,0.504482564121272,90.732709488268,2.98087716103,42.3617706299,84.6231613159,0
13.0,17.058412762542588,-2.602148624410785,392.7012222779067,0.5143142249771555,93.4364167876293,2.98087716103,42.3617706299,84.6231613159,0
13.100000000000001,16.91152267116234,-2.503700377188677,392.6410864234137,0.519999980927,96.20381759248565,2.98087716103,42.3617706299,84.6231613159,0
13.200000000000001,16.774799750491525,-2.2315776235468934,392.59622580110675,0.519999980927,99.05856862269493,2.98087716103,42.3617706299,84.6231613159,0
13.3,16.638076829820704,-1.9594548699051093,392.5513651787998,0.519999980927,101.91331965290424,3.8714558561789056,43.602396637332184,91.63870135711815,0
13.4,16.501353909149884,-1.6873321162633257,392.5065045564929,0.519999980927,104.76807068311352,4.37986373901,44.2896270752,95.6970672607,0
13.5,16.364630988479064,-1.4152093626215416,392.461643934186,0.519999980927,107.62282171332281,4.37986373901,44.2896270752,95.6970672607,0
13.600000000000001,16.226632630070025,-1.053611664392393,392.4274978768996,0.5112473211258903,110.62549412914228,4.37986373901,44.2896270752,95.6970672607,0
13.700000000000001,16.087445494210424,-0.6086184437250193,392.40333837788063,0.4943367055953424,113.76603733426069,4.37986373901,44.2896270752,95.6970672607,0
13.8,15.948258358350824,-0.1636252230576456,392.37917887886164,0.4774260900647944,116.90658053937909,5.72797441483,46.4743347168,109.698699951,0
13.9,15.809071222491223,0.2813679976097281,392.3550193798426,0.46051547453424646,120.0471237444975,5.72797441483,46.4743347168,109.698699951,0
14.0,15.661484182123964,0.680489456913069,392.3472207974089,0.4439793623517981,122.96330046084782,5.72797441483,46.4743347168,109.698699951,0
14.100000000000001,15.500085210670466,1.0041841531875475,392.36632440799144,0.4280590446025836,125.5105522116703,5.72797441483,46.4743347168,109.698699951,0
14.200000000000001,15.338686239216972,1.32787884946202,392.38542801857403,0.4121387268533694,128.05780396249276,4.935974554369526,43.212814571425135,117.34722291610872,0
14.3,15.174640822948785,1.5756319865014863,392.42372582678627,0.39952536638242014,130.37971089257977,4.33399868011,40.7298202515,123.157119751,0
14.4,15.00210046229867,1.579616835460151,392.52363596880343,0.3975271594927183,131.9782731648548,4.33399868011,40.7298202515,123.157119751,0
14.5,14.829560101648555,1.5836016844188157,392.62354611082066,0.3955289526030164,133.57683543712986,4.736584774166276,38.46184077115097,125.98327531900554,0
14.600000000000001,14.657019740998438,1.5875865333774806,392.7234562528378,0.3935307457133145,135.17539770940496,5.39279031754,35.2037124634,130.624176025,0
14.700000000000001,14.484479380348322,1.5915713823361453,392.823366394855,0.3915325388236126,136.77395998168,5.39279031754,35.2037124634,130.624176025,0
14.8,14.32896566377263,1.6652283407431363,392.93597934267575,0.39429686574771433,138.16113297556507,5.39279031754,35.2037124634,130.624176025,0
14.9,14.229489799409254,1.9681891687512212,393.090399586825,0.412735577174573,138.8525845407347,5.39279031754,35.2037124634,130.624176025,0
15.0,14.130013935045877,2.2711499967593065,393.2448198309743,0.43117428860143164,139.54403610590435,6.091058474835574,29.23436684936512,133.0824238299322,0
15.100000000000001,14.0305380706825,2.5741108247673967,393.3992400751236,0.4496130000282906,140.23548767107403,7.60602331161,16.1932086945,138.421188354,0
15.200000000000001,13.931062206319123,2.8770716527754816,393.55366031927286,0.46805171145514923,140.92693923624367,7.60602331161,16.1932086945,138.421188354,0
15.3,13.936362542849126,2.262866072579251,393.7006175349755,0.4863297085963937,140.72783804582448,7.60602331161,16.1932086945,138.421188354,0
15.4,13.954041830106183,1.5403004098560633,393.8466930193247,0.5045887178930151,140.42352108515144,7.478997894660456,14.460052341305635,138.77038740194348,0
15.5,13.971721117363238,0.8177347471328757,393.99276850367386,0.5228477271896366,140.11920412447836,6.61033248901,2.79343318939,141.152877808,0
15.600000000000001,14.04969929058956,0.42797963089142965,394.1092288626102,0.5374052198608983,139.55568519767962,6.61033248901,2.79343318939,141.152877808,0
15.700000000000001,14.166507163888255,0.25253914904302016,394.2066184473705,0.5495791066318966,138.8252521655696,6.61033248901,2.79343318939,141.152877808,0
15.8,14.283315037186952,0.07709866719461067,394.30400803213075,0.5617529934028949,138.09481913345954,5.086124002855323,-6.119980468765152,140.33840441752244,0
15.9,14.40012291048565,-0.09834181465379888,394.401397616891,0.573926880173893,137.36438610134948,5.08102369308,-6.16570091248,140.334564209,0
16.0,14.550713751605683,0.05682357029885152,394.4526532953564,0.5813344819438767,136.73310001888214,5.08102369308,-6.16570091248,140.334564209,0
16.1,14.734934280347618,0.5410947959605038,394.45798438644755,0.5839974243177781,136.20051103617175,5.08102369308,-6.16570091248,140.334564209,0
16.2,14.919154809089546,1.025366021622139,394.46331547753863,0.5866603666916794,135.66792205346138,1.89615654945,-15.1358852386,137.69619751,0
16.3,15.103375337831482,1.5096372472837911,394.46864656862977,0.5893233090655808,135.135333070751,1.89615654945,-15.1358852386,137.69619751,0
16.400000000000002,15.358778141444134,1.1667408819237113,394.3971574546157,0.589999973774,134.67625870920295,1.89615654945,-15.1358852386,137.69619751,0
16.5,15.638430592579402,0.542053543166876,394.2994980208163,0.589999973774,134.24222855499707,1.89615654945,-15.1358852386,137.69619751,0
16.6,15.918083043714681,-0.08263379558998118,394.20183858701694,0.589999973774,133.80819840079116,-0.896992862225,-18.0344562531,135.242477417,0
16.7,16.197735494849947,-0.7073211343468164,394.10417915321756,0.589999973774,133.37416824658527,-0.896992862225,-18.0344562531,135.242477417,0
16.8,16.479390976882826,-1.2322989205370851,394.00212726087415,0.5890256756358049,132.83761682210806,-0.896992862225,-18.0344562531,135.242477417,0
16.900000000000002,16.77356645015221,-1.1340398281422568,393.8726202041877,0.5819615043126458,131.660253812103,-0.896992862225,-18.0344562531,135.242477417,0
17.0,17.06774192342158,-1.035780735747432,393.74311314750116,0.574897332989487,130.482890802098,-1.276177963005869,-18.45372662924361,134.581275337605,0
17.1,17.361917396690963,-0.9375216433526037,393.6136060908147,0.5678331616663279,129.305527792093,-2.1510913372,-19.4297904968,133.055389404,0
17.2,17.656092869960332,-0.8392625509577788,393.4840990341282,0.5607689903431691,128.128164782088,-2.1510913372,-19.4297904968,133.055389404,0
17.3,17.89072694225918,-0.9134241928992621,393.3911629230607,0.5531448322219538,126.62896466003434,-2.1510913372,-19.4297904968,133.055389404,0
17.400000000000002,18.11808773627986,-1.008647885133697,393.3026941348987,0.5454522689280691,125.0904505339765,-1.8742813106874299,-19.600521015078975,131.73879328168948,0
17.5,18.314223922055017,-1.03788891358206,393.241344596852,0.5372898055793086,123.59346783628048,-1.19740688801,-20.02161026,128.265487671,0
17.6,18.43436890627691,-0.9065482026739782,393.24599506704516,0.5279837483862566,122.19756000615743,-1.19740688801,-20.02161026,128.265487671,0
17.7,18.5545138904988,-0.7752074917659013,393.25064553723837,0.518677691193205,120.80165217603442,-0.19601240386589436,-19.19445623874544,125.24830916144967,0
17.8,18.67465887472069,-0.6438667808578198,393.2552960074315,0.509371634000153,119.40574434591139,-0.0358562506735,-19.0702362061,124.741371155,0
17.900000000000002,18.794803858942586,-0.5125260699497382,393.2599464776247,0.5000655768071008,118.00983651578834,-0.0358562506735,-19.0702362061,124.741371155,0
18.0,18.771817623872558,0.016003375935060515,393.3728886373821,0.49754556763964763,117.75455652988532,-0.0358562506735,-19.0702362061,124.741371155,0
18.1,18.74781563118327,0.5473515463848709,393.4865993094831,0.49507371693839575,117.50737122401951,0.06524282498264841,-18.652839557423476,124.51623781222405,0
18.2,18.723813638493983,1.0786997168346626,393.60030998158413,0.4926018662371439,117.2601859181537,2.69070100784,-7.27931261063,118.684371948,0
18.3,18.699811645804697,1.6100478872844728,393.7140206536851,0.490130015535892,117.01300061228788,2.69070100784,-7.27931261063,118.684371948,0
18.400000000000002,18.63425884274088,1.6224209335959217,393.8342914395886,0.5014290341207635,117.45716087435424,2.69070100784,-7.27931261063,118.684371948,0
18.5,18.56639937322644,1.6059834104679371,393.95492640598053,0.5134925336361374,117.93970073992205,2.9296183640004854,-4.4231581887646225,118.28858599815,0
18.6,18.498539903711993,1.589545887339952,394.0755613723725,0.5255560331515119,118.42224060548988,3.57908606529,3.39914751053,117.212913513,0
18.7,18.430680434197555,1.5731083642119674,394.1961963387644,0.537619532666886,118.90478047105768,3.57908606529,3.39914751053,117.212913513,0
18.8,18.370843741991138,1.2158560572445827,394.27896298476406,0.5484234652879718,119.56156345756119,3.57908606529,3.39914751053,117.212913513,0
18.900000000000002,18.312979383803473,0.774817230166987,394.3524200146949,0.5589177437158633,120.26118268664749,3.57908606529,3.39914751053,117.212913513,0
19.0,18.255115025615808,0.3337784030894071,394.42587704462585,0.5694120221437545,120.96080191573375,2.5136384964,15.2400541306,119.6042099,0
19.1,18.244280033305703,-0.2232123731374634,394.429992676,0.5747470786094092,121.71206354342078,2.5136384964,15.2400541306,119.6042099,0
19.200000000000003,18.23623638264345,-0.7870852643741841,394.429992676,0.5797759189297903,122.46639031084166,2.4692347498604907,15.906388095717748,119.65755176447044,0
19.3,18.2281927319812,-1.350958155610885,394.429992676,0.5848047592501712,123.22071707826251,1.20829105377,25.0498027802,121.181121826,0
19.400000000000002,18.220149081318944,-1.9148310468476057,394.429992676,0.5898335995705523,123.97504384568339,1.20829105377,25.0498027802,121.181121826,0
19.5,18.243398192011114,-1.2837450053926016,394.3737732973356,0.5929588652256982,125.18355065487786,1.20829105377,25.0498027802,121.181121826,0
19.6,18.26771801622988,-0.6117722336656493,394.31563031568487,0.5960189981455171,126.40759769424669,0.9438679335269132,26.51571413018347,121.94099488142645,0
19.700000000000003,18.292037840448646,0.06020053806130288,394.2574873340342,0.599079131065336,127.63164473361552,0.183513626456,30.7231292725,124.194831848,0
19.8,18.32200072850182,0.1496803444569761,394.16360891218756,0.5959799977728076,129.20600537672752,0.183513626456,30.7231292725,124.194831848,0
19.900000000000002,18.35439282336471,-0.011589427658987628,394.0543472203268,0.5902294446372794,130.93116782125801,0.183513626456,30.7231292725,124.194831848,0
20.0,18.386784918227598,-0.17285919977494557,393.94508552846605,0.5844788915017515,132.65633026578845,-0.948054611683,34.819694519,128.86138916,0
20.1,18.407810233393125,-0.39988938067270396,393.83739917104407,0.5794866643549706,134.46198750097773,-0.948054611683,34.819694519,128.86138916,0
20.200000000000003,18.38880018892617,-0.8585367552924802,393.7352613579309,0.5771653655173934,136.55115844703062,-0.948054611683,34.819694519,128.86138916,0
20.3,18.36979014445921,-1.3171841299122402,393.63312354481764,0.5748440666798162,138.64032939308345,-0.9328111549767637,35.49816446905222,131.64295050782715,0
20.400000000000002,18.35078009999225,-1.7758315045320163,393.53098573170445,0.5725227678422391,140.72950033913634,-0.912404835224,36.4129981995,135.381896973,0
20.5,18.33177005552529,-2.2344788791517765,393.42884791859126,0.570201469004662,142.81867128518914,-0.912404835224,36.4129981995,135.381896973,0
20.6,18.225750312833185,-0.9732175961549066,393.3348643837073,0.5614878019744428,145.2699197308377,-0.912404835224,36.4129981995,135.381896973,0
20.700000000000003,18.11146083142952,0.4515104669407828,393.2416558630082,0.5521665795132827,147.75558142438928,-0.6247906106736038,37.0562180190894,137.86918531964415,0
20.8,17.99717135002586,1.8762385300364217,393.14844734230905,0.542845357052123,150.24124311794077,0.0288850832731,38.4993362427,143.891403198,0
20.900000000000002,17.856513730619493,1.732630270416982,393.07879211673423,0.5268150592117818,152.81293201169277,0.0288850832731,38.4993362427,143.891403198,0
21.0,17.704270639886918,0.8999359822426796,393.01948559402473,0.5078369688339889,155.42241901091177,0.0288850832731,38.4993362427,143.891403198,0
21.1,17.552027549154342,0.06724169406834735,392.96017907131517,0.4888588784561952,158.03190601013085,1.27450203896,41.0770988464,151.581573486,0
21.200000000000003,17.399784458421763,-0.7654525941059847,392.90087254860566,0.46988078807840156,160.64139300934994,1.27450203896,41.0770988464,151.581573486,0
21.3,17.23003855737517,-0.8793679285274003,392.8686005909061,0.4544273426851158,163.39316566760732,1.27450203896,41.0770988464,151.581573486,0
21.400000000000002,17.041282487258993,-0.21260237860242392,392.86569144079806,0.44280208807168664,166.2994777618735,1.27450203896,41.0770988464,151.581573486,0
21.5,16.852526417142823,0.4541631713225287,392.86278229069006,0.43117683345825786,169.20578985613957,1.441132385746576,40.45755929671204,161.97292000677402,0
21.6,16.66390157529122,1.1016693672267461,392.86419071377304,0.41925238745208965,172.06541496420104,1.45543527603,40.4034690857,162.870407104,0
21.700000000000003,16.478547678741766,1.2691243046628926,392.97321730731016,0.39987041174620425,173.7613381922568,1.45543527603,40.4034690857,162.870407104,0
21.8,16.293193782192315,1.4365792420990329,393.0822439008473,0.38048843604031946,175.4572614203125,1.9538945779609718,39.71838744378168,165.7501246925284,0
21.900000000000002,16.10783988564286,1.6040341795351791,393.1912704943844,0.361106460334434,177.15318464836827,3.07727122307,38.2238311768,172.237503052,0
22.0,15.922485989093412,1.7714891169713196,393.30029708792154,0.34172448462854926,178.84910787642397,3.07727122307,38.2238311768,172.237503052,0
22.1,15.730793853903903,2.016575455074678,393.53833309478574,0.3438375697928301,180.34314745535906,3.07727122307,38.2238311768,172.237503052,0
22.200000000000003,15.538482708336314,2.269243496141099,393.78896852717725,0.34804992362017634,181.81747050402967,4.708626261901359,34.443533549148,175.75433528083917,0
22.3,15.346171562768733,2.5219115372075116,394.03960395956875,0.3522622774475225,183.29179355270023,6.38650989532,30.5203380585,179.368530273,0
22.400000000000002,15.153860417201145,2.774579578273933,394.29023939196026,0.3564746312748688,184.7661166013708,6.38650989532,30.5203380585,179.368530273,0
22.5,14.970590131675303,2.9822577889506823,394.5513487057377,0.3627026047747594,186.07721687845392,6.38650989532,30.5203380585,179.368530273,0
22.6,14.83371555132085,2.9590580857084934,394.866207675028,0.37927429509288446,186.55069379306187,6.38650989532,30.5203380585,179.368530273,0
22.700000000000003,14.696840970966395,2.9358583824663045,395.1810666443183,0.39584598541100957,187.02417070766984,6.493148097775174,24.531297258149788,36.47273960287592,0
22.8,14.559966390611947,2.9126586792241165,395.49592561360856,0.4124176757291341,187.49764762227778,6.6494011879,16.3292598724,-173.034591675,0
22.900000000000002,14.423091810257494,2.8894589759819276,395.81078458289886,0.42898936604725924,187.97112453688572,6.6494011879,16.3292598724,-173.034591675,0
23.0,14.337552081878284,2.865938184513482,396.1020485933353,0.4517649643191122,187.72793797866467,6.6494011879,16.3292598724,-173.034591675,0
23.1,14.255346390353221,2.842396539376649,396.3917801855537,0.474943486860962,187.4382063864463,6.4570993470976505,13.218425119847417,-172.53413130909152,0
23.200000000000003,14.173140698828158,2.818854894239816,396.6815117777721,0.4981220094028118,187.1484747942279,6.0886425972,7.74755954742,-171.462112427,0
23.3,14.153967122895645,2.543973655872625,396.92104489866125,0.5132520910955989,187.0,6.0886425972,7.74755954742,-171.462112427,0
23.400000000000002,14.201046502753519,2.0049097734338415,397.1078144866997,0.5199224694967919,187.0,6.0886425972,7.74755954742,-171.462112427,0
23.5,14.24812588261139,1.465845890995077,397.2945840747381,0.5265928478979848,187.0,4.07712888718,1.24063146114,-172.732894897,0
23.6,14.295205262469265,0.9267820085562934,397.48135366277654,0.5332632262991778,187.0,4.07712888718,1.24063146114,-172.732894897,0
23.700000000000003,14.342284642327138,0.3877181261175098,397.668123250815,0.5399336047003709,187.0,4.07712888718,1.24063146114,-172.732894897,0
23.8,14.45668664591112,0.24550961860796724,397.6101955122584,0.5519574896027177,187.23914959096655,4.07712888718,1.24063146114,-172.732894897,0
23.900000000000002,14.571765720414698,0.1072923285937813,397.5498068261811,0.5640352152998703,187.4807043352755,3.748926831505274,0.9281090806510488,-172.72426271225626,0
24.0,14.686844794918272,-0.030924961420399744,397.48941814010385,0.5761129409970225,187.7222590795845,-2.86534333229,-5.92879390717,-172.551391602,0
24.1,14.801923869421852,-0.16914225143458567,397.42902945402665,0.5881906666941751,187.96381382389347,-2.86534333229,-5.92879390717,-172.551391602,0
24.200000000000003,15.007879360634302,-0.3003283855263371,397.2236565644413,0.589999973774,186.79182652780668,-2.86534333229,-5.92879390717,-172.551391602,0
24.3,15.229847380189037,-0.4302756219198204,396.99273729272585,0.589999973774,185.37077151091214,-2.86534333229,-5.92879390717,-172.551391602,0
24.400000000000002,15.45221585591759,-0.6094740657384391,396.7614068274448,0.5896740717913589,183.9782731804371,-7.3193116188,-5.4105091095,-171.234649658,0
24.5,15.685501110492428,-2.1313026761947835,396.51886687280427,0.5804638021731384,183.36425462032005,-7.3193116188,-5.4105091095,-171.234649658,0
24.6,15.918786365067273,-3.6531312866511816,396.2763269181637,0.5712535325549175,182.75023606020295,-8.036006682246082,-4.234923130912204,-172.8029807266651,0
24.700000000000003,16.15207161964212,-5.17495989710758,396.0337869635232,0.5620432629366967,182.13621750008588,-9.03129291534,-2.61350846291,-175.02432251,0
24.8,16.342661951340688,-4.705230776290689,395.798025143378,0.5372553833267405,182.18953848461283,-9.03129291534,-2.61350846291,-175.02432251,0
24.900000000000002,16.521080280615944,-3.6677234772231544,395.56419571856105,0.5080264438952575,182.43311297019716,-9.03129291534,-2.61350846291,-175.02432251,0
25.0,16.699498609891194,-2.6302161781556572,395.3303662937441,0.47879750446377567,182.6766874557815,-8.86935043335,-3.11718297005,-177.663635254,0
25.1,16.877916939166447,-1.5927088790881228,395.0965368689271,0.4495685650322928,182.92026194136582,-8.86935043335,-3.11718297005,-177.663635254,0
25.200000000000003,16.95503278913835,-1.0207726769860712,394.99785769771,0.4263812404355626,182.659530999463,-8.86935043335,-3.11718297005,-177.663635254,0
25.3,16.982845421353087,-0.6754267156459905,394.96495522247307,0.40613432809578026,182.1533580853744,-8.86935043335,-3.11718297005,-177.663635254,0
25.400000000000002,17.010658053567823,-0.3300807543058977,394.9320527472362,0.3858874157559972,181.64718517128586,-5.51150655746,-1.31329023838,-176.772781372,0
25.5,17.038470685782563,0.015265207034182993,394.89915027199925,0.3656405034162149,181.1410122571973,-5.51150655746,-1.31329023838,-176.772781372,0
25.6,16.974631079740714,0.29804433135850644,394.9697721417152,0.3533513062266246,180.77837640619333,-5.51150655746,-1.31329023838,-176.772781372,0
25.700000000000003,16.875398589088096,0.5566623344152791,395.08037148786843,0.34413509993647795,180.47116954206146,-5.51150655746,-1.31329023838,-176.772781372,0
25.8,16.776166098435482,0.8152803374720425,395.1909708340216,0.3349188936463316,180.1639626779296,-0.924388170242,3.45135641098,-178.951324463,0
25.900000000000002,16.654907042554438,1.1092150578376712,395.3467955506596,0.33101893231393276,180.0,-0.924388170242,3.45135641098,-178.951324463,0
26.0,16.508435552464416,1.4435746198611978,395.5543869256984,0.3332041447181576,180.0,-0.924388170242,3.45135641098,-178.951324463,0
26.1,16.36196406237439,1.7779341818847363,395.76197830073727,0.3353893571223826,180.0,0.899649881145199,-0.07490924891647355,-179.64339656935502,0
26.200000000000003,16.215492572284365,2.1122937439082747,395.9695696757761,0.3375745695266076,180.0,1.34481441975,-0.932095229626,-179.812454224,0
26.3,16.069021082194347,2.446653305931801,396.1771610508149,0.3397597819308325,180.0,1.34481441975,-0.932095229626,-179.812454224,0
26.400000000000002,15.90798830572112,2.6006710888933973,396.3911537221547,0.35108239874677916,179.7229400629358,1.34481441975,-0.932095229626,-179.812454224,0
26.5,15.745157095936873,2.7324152447660386,396.6059370038978,0.363533556821918,179.41166104612455,1.34481441975,-0.932095229626,-179.812454224,0
26.6,15.582325886152622,2.864159400638685,396.82072028564096,0.3759847148970573,179.10038202931327,2.60662484169,0.889972627163,-179.700958252,0
26.700000000000003,15.457240880441459,2.6342640091155065,397.04251353335565,0.3844211240602212,179.0,2.60662484169,0.889972627163,-179.700958252,0
26.8,15.350122184295364,2.2322366583918303,397.26764336078156,0.3909466067196526,179.0,2.60662484169,0.889972627163,-179.700958252,0
26.900000000000002,15.243003488149265,1.8302093076681396,397.4927731882074,0.3974720893790842,179.0,2.44432139397,2.36314344406,179.642456055,0
27.0,15.172849068152528,1.6600181543231378,397.6655249644923,0.40763739299207835,179.30549559053446,2.44432139397,2.36314344406,179.642456055,0
27.1,15.126069522953157,1.6364318490029774,397.8051547507074,0.4201043880741714,179.8041755721561,2.44432139397,2.36314344406,179.642456055,0
27.200000000000003,15.079289977753788,1.612845543682817,397.94478453692255,0.4325713831562644,180.3028555537778,1.13295662403,3.12397646904,179.979385376,0
27.3,15.032510432554421,1.5892592383626576,398.0844143231377,0.445038378238357,180.8015355353994,1.13295662403,3.12397646904,179.979385376,0
27.400000000000002,15.029793200074407,1.345406572625266,398.14975195548163,0.4536621400779227,181.0,1.13295662403,3.12397646904,179.979385376,0
27.5,15.056204386370617,0.9559416956221546,398.16597702799385,0.45974524300890884,181.0,1.13295662403,3.12397646904,179.979385376,0
27.6,15.082615572666827,0.5664768186190294,398.1822021005061,0.4658283459398952,181.0,-1.88638317585,4.49882125854,-178.454498291,0
27.700000000000003,15.109026758963038,0.17701194161590417,398.1984271730184,0.4719114488708816,181.0,-1.88638317585,4.49882125854,-178.454498291,0
27.8,15.135437945259246,-0.2124529353872071,398.21465224553066,0.47799455180186773,181.0,-1.88638317585,4.49882125854,-178.454498291,0
27.900000000000002,15.196493222177212,-0.5918286032334434,398.1627869963558,0.479999989271,180.66344211246047,-1.88638317585,4.49882125854,-178.454498291,0
28.0,15.274586816256507,-0.9662422950994353,398.0774342324071,0.479999989271,180.16136162270706,-1.88638317585,4.49882125854,-178.454498291,0
28.1,15.352680410335804,-1.3406559869654404,397.99208146845837,0.479999989271,179.65928113295365,-5.42095470428,5.96801137924,-178.679916382,0
28.200000000000003,15.430774004415102,-1.7150696788314455,397.9067287045097,0.479999989271,179.15720064320024,-5.42095470428,5.96801137924,-178.679916382,0
28.3,15.532765282176523,-1.9377146031272152,397.7404670879415,0.479999989271,179.17226291185804,-5.42095470428,5.96801137924,-178.679916382,0
28.400000000000002,15.645649429681924,-2.091181382865716,397.53732618196426,0.479999989271,179.42304546124865,-5.42095470428,5.96801137924,-178.679916382,0
28.5,15.758533577187322,-2.2446481626042116,397.334185275987,0.479999989271,179.67382801063923,-7.87595176697,6.13336801529,179.506896973,0
28.6,15.871417724692725,-2.3981149423427124,397.13104437000976,0.479999989271,179.92461056002983,-7.87595176697,6.13336801529,179.506896973,0
28.700000000000003,15.99349602567185,-2.500815431862276,396.89978841601925,0.4817545653149792,179.82454275118374,-7.87595176697,6.13336801529,179.506896973,0
28.8,16.11952626115783,-2.581694983252539,396.6564477357162,0.48426331297822967,179.57366849328045,-7.87595176697,6.13336801529,179.506896973,0
28.900000000000002,16.245556496643815,-2.6625745346428054,396.41310705541315,0.48677206064148026,179.3227942353772,-8.646583482946145,4.554847186717937,-159.7167806341918,0
29.0,16.371586732129796,-2.7434540860330685,396.1697663751101,0.48928080830473075,179.0719199774739,-8.69207668304,4.49724149704,-179.742477417,0
29.1,16.484982011569965,-2.5530233973158936,395.9502370849339,0.490000009537,178.77646863061668,-8.69207668304,4.49724149704,-179.742477417,0
29.200000000000003,16.593299425579826,-2.2535557729627227,395.740277359886,0.490000009537,178.4631021870894,-8.69207668304,4.49724149704,-179.742477417,0
29.3,16.701616839589683,-1.9540881486095625,395.5303176348381,0.490000009537,178.14973574356208,-7.55473899841,-1.62458825111,179.795501709,0
29.400000000000002,16.795576576507237,-1.8145236988724451,395.3479901622677,0.48747683022405497,178.25231779593864,-7.55473899841,-1.62458825111,179.795501709,0
29.5,16.876397840902843,-1.8212839959839382,395.1909485063067,0.4826447313095647,178.73552742816983,-7.55473899841,-1.62458825111,179.795501709,0
29.6,16.95721910529845,-1.8280442930954315,395.0339068503458,0.4778126323950743,179.21873706040108,-6.65086698532,-1.03807663918,178.438522339,0
29.700000000000003,17.038040369694055,-1.8348045902069245,394.87686519438483,0.4729805334805839,179.7019466926323,-6.65086698532,-1.03807663918,178.438522339,0
29.8,17.102409046141386,-1.802251115728701,394.72865579514894,0.4714261285791079,180.14261311312092,-6.65086698532,-1.03807663918,178.438522339,0
29.900000000000002,17.14029335454806,-1.7064127404724423,394.59466402164304,0.4751479546777788,180.5147960779389,-6.65086698532,-1.03807663918,178.438522339,0
30.0,17.178177662954734,-1.610574365216187,394.4606722481371,0.4788697807764496,180.88697904275688,-4.86578369141,0.0551094599068,-179.95463562,0
30.1,17.203004599788876,-1.5775708507308692,394.3708129598608,0.479999989271,180.67218699369417,-4.86578369141,0.0551094599068,-179.95463562,0
30.200000000000003,17.22213719643783,-1.5719697174009728,394.3001999174862,0.479999989271,180.2014142221198,-4.86578369141,0.0551094599068,-179.95463562,0
30.3,17.241269793086786,-1.5663685840710766,394.2295868751117,0.479999989271,179.73064145054545,-3.56451702118,3.11372113228,-178.341278076,0
30.400000000000002,17.260402389735745,-1.56076745074118,394.15897383273716,0.479999989271,179.25986867897106,-3.56451702118,3.11372113228,-178.341278076,0
30.5,17.270984856385653,-1.290208576733612,394.1340383404048,0.4774463383063113,179.0,-3.56451702118,3.11372113228,-178.341278076,0
30.6,17.271032150576563,-0.693178000810915,394.16538513468714,0.4717461675441378,179.0,-3.56451702118,3.11372113228,-178.341278076,0
30.700000000000003,17.271079444767476,-0.09614742488821792,394.1967319289695,0.46604599678196423,179.0,-0.873152077198,7.32155370712,179.429656982,0
30.8,17.27112673895839,0.5008831510344578,394.2280787232518,0.4603458260197909,179.0,-0.873152077198,7.32155370712,179.429656982,0
30.900000000000002,17.252639615170974,0.5311919692176985,394.27703745876227,0.46553568228727527,179.55356792216526,-0.873152077198,7.32155370712,179.429656982,0
31.0,17.232955422526825,0.5248983449925896,394.3271336838004,0.4714288847413755,180.14288872961052,-0.5528644635870295,7.54687397957956,179.40096999944072,0
31.1,17.21327122988267,0.5186047207674805,394.3772299088385,0.477322087195476,180.73220953705584,0.0633291974664,7.97969532013,179.345718384,0
31.200000000000003,17.206840770702318,0.3402284661712278,394.41078550351006,0.4861659756210884,181.0,0.0633291974664,7.97969532013,179.345718384,0
31.3,17.211448844838362,0.018531097285639953,394.43056503275267,0.49746737879088443,181.0,0.0633291974664,7.97969532013,179.345718384,0
31.400000000000002,17.21605691897441,-0.30316627159995946,394.4503445619953,0.5087687819606808,181.0,-0.300824046135,6.0810008049,-178.648788452,0
31.5,17.22086739392342,-0.6209114812313898,394.4700221423098,0.520041910643873,181.0,-0.300824046135,6.0810008049,-178.648788452,0
31.6,17.258057750543447,-0.3063941662314119,394.4733900340424,0.5267917149534369,181.0,-0.300824046135,6.0810008049,-178.648788452,0
31.700000000000003,17.29524810716347,0.008123148768566013,394.476757925775,0.5335415192630008,181.0,-0.300824046135,6.2443087240645525,-178.648788452,0
31.8,17.333136642227778,0.2918667368635835,394.4783546368106,0.5401084145774108,181.03251796683563,-0.205783352256,8.79255199432,-178.429840088,0
31.900000000000002,17.386504594671703,-0.106678518227936,394.44068223908346,0.542620007552354,181.78599657791113,-0.205783352256,8.79255199432,-178.429840088,0
32.0,17.43987254711563,-0.5052237733194413,394.4030098413564,0.5451316005272971,182.53947518898661,-0.379560914459519,9.699719923958638,-178.32809427492464,0
32.1,17.493240499559555,-0.9037690284109609,394.36533744362924,0.5476431935022403,183.29295380006212,-0.686951637268,11.3000659943,-178.145080566,0
32.2,17.548215942548744,-1.2693328533767416,394.3230070274767,0.5497030101954429,184.05940022473388,-0.686951637268,11.3000659943,-178.145080566,0
32.300000000000004,17.62766933216222,-1.1326743240092108,394.2097469708803,0.5448834360622713,185.0233130979506,-0.686951637268,11.3000659943,-178.145080566,0
32.4,17.707122721775693,-0.9960157946416894,394.09648691428396,0.5400638619290999,185.98722597116722,-1.4853087210290155,14.428597952547104,-176.8950142899541,0
32.5,17.78657611138917,-0.8593572652741586,393.98322685768755,0.5352442877959283,186.9511388443839,-2.58437156677,18.1718463898,-175.156982422,0
32.6,17.866029501002647,-0.7226987359066277,393.86996680109115,0.5304247136627567,187.91505171760062,-2.58437156677,18.1718463898,-175.156982422,0
32.7,17.96492481034064,-0.31806334342888565,393.7195792267208,0.51404482413798,189.27641223663215,-2.58437156677,18.1718463898,-175.156982422,0
32.800000000000004,18.06569910058913,0.11247090149616801,393.5656034317354,0.4965476780743491,190.67618442230915,-2.5827995374938006,18.2323617008962,-175.1343712198274,0
32.9,18.164489252953878,0.49697982127545365,393.4131908641332,0.47876507894923526,192.10805467569597,-2.344149724343184,29.235225557321776,-171.40193022879214,0
33.0,18.2286987057796,0.07933282583269641,393.2880231250742,0.45600743921196407,194.099348568116,-2.34213066101,29.3387908936,-171.37046814,0
33.1,18.29290815860532,-0.3383141696100609,393.1628553860151,0.4332497994746929,196.09064246053603,-1.6257550737159199,31.939810920473526,-169.0917691063242,0
33.2,18.357117611431047,-0.755961165052818,393.0376876469561,0.4104921597374217,198.08193635295606,-1.03625941277,34.0797805786,-167.215621948,0
33.300000000000004,18.405266370051535,-0.755261071252207,392.9314889969293,0.39636308991994756,200.21230529851522,-1.03625941277,34.0797805786,-167.215621948,0
33.4,18.439676474213073,-0.3966981086630099,392.8415169032571,0.38961507966865006,202.46164195957408,-1.03625941277,34.0797805786,-167.215621948,0
33.5,18.474086578374614,-0.03813514607378721,392.7515448095849,0.38286706941735205,204.71097862063309,-0.5954063478877891,36.29659102508299,-163.57137320995525,0
33.6,18.50849668253615,0.3204278165154353,392.6615727159127,0.37611905916605404,206.96031528169212,-0.233999937773,38.1209487915,-160.582748413,0
33.7,18.539360407283926,0.6316107258622449,392.58142001922823,0.36897622076363246,209.22523242726095,-0.233999937773,38.1209487915,-160.582748413,0
33.800000000000004,18.535721728664193,0.48183739849114254,392.5967993444081,0.3579921351223977,211.64173069219106,-0.233999937773,38.1209487915,-160.582748413,0
33.9,18.53208305004446,0.3320640711200508,392.61217866958793,0.34700804948116376,214.05822895712103,0.22578187708911118,37.80866042425647,-157.90193267098957,0
34.0,18.528444371424726,0.1822907437489485,392.6275579947678,0.33602396383992905,216.47472722205114,1.44031906128,36.9801712036,-150.738677979,0
34.1,18.524805692804993,0.03251741637784611,392.64293731994763,0.32503987819869434,218.89122548698126,1.44031906128,36.9801712036,-150.738677979,0
34.2,18.497412893820492,0.2290687471272371,392.70049944751116,0.319999992847,221.09202633341062,1.44031906128,36.9801712036,-150.738677979,0
34.300000000000004,18.449879783702897,0.7192569821484052,392.7938269392063,0.319999992847,223.109944671353,1.44031906128,36.9801712036,-150.738677979,0
34.4,18.402346673585303,1.2094452171695385,392.8871544309015,0.319999992847,225.12786300929523,2.54419159889,36.6139373779,-139.547485352,0
34.5,18.354813563467705,1.6996334521907066,392.98048192259665,0.319999992847,227.1457813472376,2.54419159889,36.6139373779,-139.547485352,0
34.6,18.277438219986458,1.8549183089928105,393.08017846609556,0.324299260479465,229.07481633153103,2.54419159889,36.6139373779,-139.547485352,0
34.7,18.178157059477023,1.7643659311619724,393.184550238883,0.3317544236162769,230.93860611590398,2.54419159889,36.6139373779,-139.547485352,0
34.800000000000004,18.078875898967585,1.6738135533311342,393.2889220116704,0.33920958675308877,232.8023959002769,4.1630525589,36.2554779053,-131.55229187,0
34.9,17.996705119926787,1.2795696137053008,393.41601104532157,0.340000003576,234.76985720696763,4.1630525589,36.2554779053,-131.55229187,0
35.0,17.91656357541679,0.8493088614187173,393.54579427081603,0.340000003576,236.74961361259213,4.417075117413667,36.043768895202966,-129.58167179415122,0
35.1,17.836422030906792,0.41904810913213386,393.67557749631055,0.340000003576,238.72937001821663,4.85379314423,35.6765899658,-126.194190979,0
35.2,17.756280486396797,-0.011212643154449697,393.805360721805,0.340000003576,240.70912642384113,4.85379314423,35.6765899658,-126.194190979,0
35.300000000000004,17.67707206424769,-0.13523474136668537,393.9501977971087,0.3384360510790531,242.54738308028777,4.85379314423,35.6765899658,-126.194190979,0
35.4,17.599612187638517,0.3145931239187262,394.12324375802655,0.3339414623892397,244.12048827783016,4.85379314423,35.6765899658,-126.194190979,0
35.5,17.522152311029338,0.7644209892041696,394.2962897189445,0.329446873699426,245.6935934753727,5.40398025513,34.0465965271,-117.534469604,0
35.6,17.444692434420155,1.214248854489613,394.46933567986235,0.32495228500961226,247.2666986729152,5.40398025513,34.0465965271,-117.534469604,0
35.7,17.367232557810976,1.6640767197750566,394.6423816407803,0.32045769631979854,248.83980387045773,5.40398025513,34.0465965271,-117.534469604,0
35.800000000000004,17.276243205719396,1.8311431097629571,394.80427131856777,0.32458010727626335,250.14502799306558,5.40398025513,34.0465965271,-117.534469604,0
35.9,17.183719876915443,1.9661499037356256,394.9648960930306,0.32967951669842155,251.41987966471095,5.417361552260616,33.93107891109559,-117.32748198196636,0
36.0,17.091196548111487,2.101156697708304,395.1255208674934,0.33477892612058013,252.6947313363564,5.86530733109,29.7745227814,-110.459121704,0
36.1,16.998673219307527,2.236163491680982,395.2861456419562,0.3398783355427387,253.96958300800188,5.86530733109,29.7745227814,-110.459121704,0
36.2,16.89720450476936,2.1131159782858977,395.40660476444833,0.3424814147090373,255.24070674965662,5.86530733109,29.7745227814,-110.459121704,0
36.300000000000004,16.795517143378326,1.9837609937710667,395.5260821413056,0.3450234775289909,256.5117393716901,5.735015842577074,28.874832566228452,-109.90801259169551,0
36.4,16.6938297819873,1.8544060092562447,395.64555951816294,0.3475655403489442,257.7827719937235,4.57499408722,22.6163253784,-104.999778748,0
36.5,16.593567414812906,1.724404557338129,395.76337996123345,0.3498210116035892,259.0447456517744,4.57499408722,22.6163253784,-104.999778748,0
36.6,16.525542855582536,1.5797779990541034,395.8437154008067,0.34559288893699974,260.10177732646,4.57499408722,22.6163253784,-104.999778748,0
36.7,16.457518296352163,1.4351514407700776,395.92405084037995,0.3413647662704103,261.15880900114564,4.25853557852458,21.149548293484923,-104.2435657233658,0
36.800000000000004,16.38949373712179,1.2905248824860518,396.00438627995317,0.33713664360382084,262.21584067583126,2.72052669525,13.9652862549,-100.562919617,0
36.9,16.321469177891423,1.1458983242020362,396.08472171952644,0.33290852093723167,263.2728723505168,2.72052669525,13.9652862549,-100.562919617,0
37.0,16.25795451051197,0.9742099355572857,396.1565318660891,0.33236372570231953,264.0,2.72052669525,13.9652862549,-100.562919617,0
37.1,16.20437990694037,0.7428756996427623,396.20955177126524,0.3399371982455263,264.0,2.72052669525,13.9652862549,-100.562919617,0
37.2,16.150805303368774,0.5115414637282389,396.26257167644144,0.34751067078873316,264.0,1.0973559618,9.72977638245,-95.8045959473,0
37.300000000000004,16.099434320059462,0.3034184678518933,396.27340801021865,0.35878804158863326,264.0,1.0973559618,9.72977638245,-95.8045959473,0
37.4,16.04914228287091,0.1066602601042998,396.2635902406101,0.37187893113498827,264.0,1.0973559618,9.72977638245,-95.8045959473,0
37.5,15.998850245682355,-0.09009794764330764,396.25377247100147,0.3849698206813442,264.0,0.358884811401,6.4322052002,-95.7898864746,0
37.6,15.969944740402966,-0.3261051867541961,396.2072099786699,0.3945846510120948,264.15282217116436,0.358884811401,6.4322052002,-95.7898864746,0
37.7,15.95438515510093,-0.5866051502576053,396.13771753532353,0.4020303027062599,264.4010105511085,0.358884811401,6.4322052002,-95.7898864746,0
37.800000000000004,15.938825569798892,-0.8471051137610144,396.0682250919772,0.409475954400425,264.64919893105264,-0.818374872208,0.904021978378,-95.1709671021,0
37.9,15.923265984496858,-1.107605077264405,395.99873264863083,0.4169216060945896,264.8973873109968,-0.818374872208,0.904021978378,-95.1709671021,0
38.0,15.91991299735706,-1.271863990485106,395.8952791194173,0.42293021084147214,264.70697776174455,-0.818374872208,0.904021978378,-95.1709671021,0
38.1,15.925164138096807,-1.368284977619595,395.76788726423894,0.4279258768859423,264.20741142528993,-0.818374872208,0.904021978378,-95.1709671021,0
38.2,15.930415278836554,-1.4647059647540845,395.6404954090606,0.43292154293041246,263.70784508883526,-1.77579367161,-3.71836996078,-94.7321777344,0
38.300000000000004,15.9356664195763,-1.561126951888574,395.5131035538822,0.4379172089748826,263.2082787523806,-1.77579367161,-3.71836996078,-94.7321777344,0
38.400000000000006,15.947890995393134,-1.5980827583700383,395.3807758352542,0.4414669289253526,262.5599201874901,-1.77579367161,-3.71836996078,-94.7321777344,0
38.5,15.965101771917007,-1.5925193010254473,395.244918836501,0.4439827570625984,261.8051710265121,-1.77579367161,-3.71836996078,-94.7321777344,0
38.6,15.982312548440884,-1.586955843680856,395.10906183774773,0.4464985851998443,261.050421865534,-1.77170324326,-4.3455119133,-96.9713287354,0
38.7,15.999523324964759,-1.5813923863362644,394.9732048389945,0.4490144133370903,260.29567270455595,-1.77170324326,-4.3455119133,-96.9713287354,0
38.800000000000004,16.00636446179789,-1.4484719505849073,394.8612010644141,0.4458988590689677,259.7265914101946,-1.77170324326,-4.3455119133,-96.9713287354,0
38.900000000000006,16.00652693025293,-1.23352600095056,394.76456019334336,0.43915635760524924,259.2770913304735,-1.77170324326,-4.3455119133,-96.9713287354,0
39.0,16.00668939870797,-1.0185800513162282,394.6679193222726,0.43241385614153127,258.82759125075245,-1.1992352810842322,-4.284394892665724,-99.36897707466811,0
39.1,16.00685186716301,-0.803634101681881,394.57127845120186,0.42567135467781275,258.3780911710314,-1.08673715591,-4.27232074738,-99.8403320312,0
39.2,16.001284579623512,-0.6481634048037942,394.48271134976494,0.41961689300384264,257.96169057514857,-1.08673715591,-4.27232074738,-99.8403320312,0
39.300000000000004,15.965379758666288,-0.807598346096225,394.43689271027046,0.41720541894297847,257.7205429390796,-1.08673715591,-4.27232074738,-99.8403320312,0
39.400000000000006,15.929474937709061,-0.967033287388656,394.39107407077597,0.4147939448821143,257.47939530301073,-0.6765584379353349,-3.5992992889504967,-100.39632607222062,0
39.5,15.893570116751839,-1.1264682286810754,394.3452554312815,0.4123824708212503,257.23824766694185,0.251953303814,-2.15963792801,-101.697784424,0
39.6,15.857445229302385,-1.2798851784874712,394.30001193531564,0.410024115162238,257.00241187612403,0.251953303814,-2.15963792801,-101.697784424,0
39.7,15.803240725812998,-0.9388925782632869,394.30201949542624,0.41202971468974725,257.20297202014916,0.251953303814,-2.15963792801,-101.697784424,0
39.800000000000004,15.749036222323612,-0.5978999780391027,394.3040270555369,0.4140353142172564,257.4035321641743,0.3459435663784112,-1.972017314829753,-101.75855471304418,0
39.900000000000006,15.694831718834225,-0.25690737781491846,394.3060346156475,0.41604091374476565,257.6040923081994,1.5229126215,-0.13761934638,-102.600242615,0
40.0,15.640627215344841,0.08408522240924166,394.3080421757581,0.4180465132722747,257.8046524522245,1.5229126215,-0.13761934638,-102.600242615,0
40.1,15.586842767716886,0.4218501325872783,394.3114552028425,0.4200633682171311,258.00633812016827,1.5229126215,-0.13761934638,-102.600242615,0
40.2,15.548800356979902,0.6386539505768729,394.3675395886258,0.42250203181024254,258.25020398526084,1.5229126215,-0.13761934638,-102.600242615,0
40.300000000000004,15.510757946242917,0.8554577685664675,394.423623974409,0.42494069540335394,258.4940698503534,1.6588950358840995,-0.23817684259938443,-102.48936781299435,0
40.400000000000006,15.47271553550593,1.072261586556062,394.4797083601922,0.42737935899646534,258.737935715446,2.61966991425,-0.898205757141,-101.709686279,0
40.5,15.434673124768947,1.2890654045456411,394.5357927459754,0.42981802258957663,258.98180158053856,2.61966991425,-0.898205757141,-101.709686279,0
40.6,15.412397041480183,1.0242179130030638,394.6290667277458,0.4240611197403978,258.4061115773312,2.61966991425,-0.898205757141,-101.709686279,0
