t_sec,airspeed,climb,altitude,throttle,heading,pitch,roll,yaw,is_boundary
0.0,26.0537910461,1.52647519112,386.410003662,0.370000004768,277.0,3.18249964714,-5.15701293945,-83.2936477661,0
0.1,25.93216702779583,2.0554541549153145,386.69839632733886,0.3005712762272546,278.0681342632058,7.26464557648,4.25686359406,-82.1200256348,0
0.2,25.810543009491663,2.5844331187106286,386.9867889926777,0.23114254768650924,279.1362685264116,7.26464557648,4.25686359406,-82.1200256348,0
0.30000000000000004,25.688918991187492,3.113412082505943,387.27518165801655,0.16171381914576383,280.2044027896174,7.26464557648,4.25686359406,-82.1200256348,0
0.4,25.563145612408015,3.70282652215547,387.5815120261931,0.10280897013718551,281.0,7.6964078910423375,7.715319278715082,-81.39049923302458,0
0.5,25.425259313257417,4.468665765330498,387.94020660022886,0.07462570232815671,281.0,9.30533313751,19.5960941315,-78.3868789673,0
0.6000000000000001,25.287373014106816,5.2345050085055265,388.2989011742647,0.046442434519127884,281.0,9.30533313751,19.5960941315,-78.3868789673,0
0.7000000000000001,25.149486714956215,6.000344251680555,388.6575957483005,0.018259166710099084,281.0,9.30533313751,19.5960941315,-78.3868789673,0
0.8,24.959769361335496,6.373368983089461,389.0213338737531,0.0,281.5117494049481,12.958335838857744,32.24786938197216,-78.35673629285918,0
0.9,24.674689026735862,6.023661692224091,389.39435153447175,0.0,282.9650569022204,13.2787733078,33.3435707092,-78.3540878296,0
1.0,24.389608692136225,5.673954401358722,389.76736919519044,0.0,284.41836439949276,13.2787733078,33.3435707092,-78.3540878296,0
1.1,24.10452835753659,5.324247110493353,390.14038685590907,0.0,285.8716718967651,13.2787733078,33.3435707092,-78.3540878296,0
1.2000000000000002,23.771681492386122,5.001763072312138,390.5122819114217,0.0,287.5236558655276,13.517137358485463,33.99386457905494,-76.59874199401418,0
1.3,23.272989285028128,4.773798137891264,390.8802792828779,0.0,289.86544432758063,14.0516786575,35.4516410828,-72.6705932617,0
1.4000000000000001,22.77429707767013,4.54583320347039,391.2482766543341,0.0,292.20723278963374,14.0516786575,35.4516410828,-72.6705932617,0
1.5,22.30679482667411,4.281459707445914,391.58832927019944,0.008413229695243626,294.5047937616575,13.844916325399064,35.61737614457413,-71.63890806957619,0
1.6,21.941139873732048,3.898198144303821,391.8371314265042,0.04429891566530728,296.6579348343098,12.6462059021,36.5365257263,-65.6997070312,0
1.7000000000000002,21.57548492078999,3.514936581161728,392.085933582809,0.08018460163537094,298.8110759069622,12.6462059021,36.5365257263,-65.6997070312,0
1.8,21.209829967847927,3.131675018019636,392.33473573911374,0.11607028760543452,300.9642169796145,12.6462059021,36.5365257263,-65.6997070312,0
1.9000000000000001,20.853551994217653,2.767332445817197,392.582954113911,0.1505483259249651,303.1462186515094,12.455146917279212,36.169537073413856,-64.60499365057963,0
2.0,20.65993431442076,2.731173238742486,392.82104576576387,0.16060822564822394,305.8288584710321,10.9304800034,33.2484512329,-55.8912963867,0
2.1,20.46631663462387,2.6950140316677746,393.0591374176168,0.17066812537148282,308.51149829055487,10.9304800034,33.2484512329,-55.8912963867,0
2.2,20.26179769601929,2.6443370979045335,393.3009498503244,0.17962587904751798,311.11223837143433,10.879111601089487,32.91195472641968,-55.4276550441359,0
2.3000000000000003,19.917544208813247,2.407568996017588,393.5904560074312,0.17445610092941619,312.66317097486706,10.1635713577,28.2539215088,-48.6495475769,0
2.4000000000000004,19.5732907216072,2.170800894130642,393.87996216453803,0.1692863228113144,314.21410357829984,10.1635713577,28.2539215088,-48.6495475769,0
2.5,19.22903723440116,1.934032792243697,394.1694683216448,0.16411654469321263,315.76503618173257,10.1635713577,28.2539215088,-48.6495475769,0
2.6,18.85948333139128,1.8201049644378067,394.4638912592269,0.16101423296769707,317.0,10.1635713577,27.790666788047247,-48.6495475769,0
2.7,18.391042767509155,2.186298278461792,394.7775314305182,0.16599261246929817,317.0,9.22424411774,19.3057746887,-42.6047782898,0
2.8000000000000003,17.922602203627033,2.5524915924857776,395.0911716018095,0.17097099197089927,317.0,9.22424411774,19.3057746887,-42.6047782898,0
2.9000000000000004,17.454161639744907,2.918684906509763,395.40481177310085,0.1759493714725004,317.0,9.22424411774,19.3057746887,-42.6047782898,0
3.0,16.999946255168926,3.1839580434931483,395.7094132165561,0.18222903165393747,317.0,9.257557947862566,18.30171332030811,-42.5972436139477,0
3.1,16.607839631167128,3.008602139673389,395.97455054001813,0.19419023218325898,317.0,9.59264755249,11.6292076111,-42.5186843872,0
3.2,16.215733007165326,2.8332462358536294,396.2396878634801,0.20615143271258052,317.0,9.59264755249,11.6292076111,-42.5186843872,0
3.3000000000000003,15.823626383163525,2.6578903320338703,396.5048251869421,0.21811263324190205,317.0,9.59264755249,11.6292076111,-42.5186843872,0
3.4000000000000004,15.431519759161725,2.4825344282141106,396.7699625104041,0.2300738337712236,317.0,9.59264755249,11.6292076111,-42.5186843872,0
3.5,15.055335391194465,2.26743112156027,397.0125999829215,0.24123328170188624,317.0,8.860023007638645,9.344368612436659,-42.509332666879644,0
3.6,14.756813821393997,1.8584548789819249,397.14549161421434,0.24848208090825524,317.0,5.34650659561,-0.741978645325,-42.4632453918,0
3.7,14.45829225159353,1.4494786364035792,397.2783832455072,0.2557308801146243,317.0,5.34650659561,-0.741978645325,-42.4632453918,0
3.8000000000000003,14.159770681793063,1.040502393825234,397.41127487680006,0.2629796793209933,317.0,5.34650659561,-0.741978645325,-42.4632453918,0
3.9000000000000004,13.8680672614707,0.6390652185216101,397.53877654704723,0.27006676226802556,316.9866496794627,5.34650659561,-0.741978645325,-42.4632453918,0
4.0,13.785871129565837,0.46928760817714976,397.50065613361994,0.27218464718038926,316.5630722930242,0.514464378357,-5.54726171494,-42.4840927124,0
4.1000000000000005,13.703674997660976,0.29950999783268784,397.46253572019265,0.27430253209275296,316.1394949065857,0.514464378357,-5.54726171494,-42.4840927124,0
4.2,13.621478865756115,0.12973238748822746,397.42441530676535,0.27642041700511666,315.71591752014723,0.514464378357,-5.54726171494,-42.4840927124,0
4.3,13.539282733851254,-0.04004522285623302,397.38629489333806,0.2785383019174803,315.2923401337087,0.514464378357,-5.54726171494,-42.4840927124,0
4.4,13.515286636407968,-0.24856458839086187,397.3123533546901,0.2792439443237352,314.7731827232049,-1.0979389581664392,-6.163498985705182,-43.13893762991859,0
4.5,13.620935174938465,-0.5433839156880642,397.15861776123853,0.276803718049585,314.04111414278606,-4.47372245789,-7.21897363663,-44.5029411316,0
4.6000000000000005,13.726583713468964,-0.8382032429852693,397.00488216778695,0.27436349177543473,313.3090455623672,-4.47372245789,-7.21897363663,-44.5029411316,0
4.7,13.832232251999459,-1.1330225702824717,396.85114657433536,0.2719232655012845,312.5769769819483,-4.47372245789,-7.21897363663,-44.5029411316,0
4.800000000000001,13.969159006461297,-1.4083883835121498,396.67988953322356,0.2675684084450095,311.9027359318301,-4.518364575636287,-7.181882355016259,-44.57201543530806,0
4.9,14.22244803203748,-1.6113825792869962,396.44344861310077,0.2560906775444416,311.44362680526814,-6.87413978577,-5.38484525681,-47.6449394226,0
5.0,14.475737057613664,-1.8143767750618427,396.2070076929779,0.2446129466438737,310.98451767870625,-6.87413978577,-5.38484525681,-47.6449394226,0
5.1000000000000005,14.729026083189849,-2.0173709708366907,395.97056677285514,0.2331352157433057,310.5254085521443,-6.87413978577,-5.38484525681,-47.6449394226,0
5.2,14.982315108766032,-2.2203651666115376,395.7341258527323,0.22165748484273778,310.06629942558243,-6.87413978577,-5.38484525681,-47.6449394226,0
5.300000000000001,15.185801270967877,-2.1891050940796974,395.54275225351967,0.21004849251695795,310.19903013768305,-6.618648662563181,-1.3218918634164032,-48.99520474388772,0
5.4,15.380881578564184,-2.1183069872522915,395.35898523194857,0.1984173455522501,310.4316530908415,-6.60114908218,-1.04749941826,-49.0869636536,0
5.5,15.57596188616049,-2.0475088804248855,395.1752182103775,0.18678619858754222,310.664276044,-6.60114908218,-1.04749941826,-49.0869636536,0
5.6000000000000005,15.771042193756799,-1.9767107735974787,394.9914511888065,0.17515505162283423,310.8968989971585,-6.60114908218,-1.04749941826,-49.0869636536,0
5.7,15.85975480044993,-1.9593892869899174,394.8413034637918,0.170000001788,311.1675599624479,-5.699171829810126,-2.200798549536607,-48.81376432533941,0
5.800000000000001,15.863797460418017,-1.9846358219396836,394.71791709607066,0.170000001788,311.4684996348383,-5.3225107193,-2.67993736267,-48.6999969482,0
5.9,15.867840120386102,-2.0098823568894493,394.59453072834947,0.170000001788,311.7694393072287,-5.3225107193,-2.67993736267,-48.6999969482,0
6.0,15.860643995238322,-2.0098694449105916,394.47507973026865,0.17113273480086053,311.88672667508513,-4.74415695282251,-3.744200784047666,-48.12790870256492,0
6.1000000000000005,15.816629744902494,-1.9271068878757172,394.3685209559098,0.17597628757245548,311.4023712968891,-4.18534803391,-4.6515879631,-47.5597496033,0
6.2,15.772615494566667,-1.8443443308408434,394.2619621815509,0.1808198403440504,310.9180159186931,-4.18534803391,-4.6515879631,-47.5597496033,0
6.300000000000001,15.72860124423084,-1.761581773805969,394.15540340719207,0.18566339311564534,310.43366054049704,-4.18534803391,-4.6515879631,-47.5597496033,0
6.4,15.697434801686104,-1.6829710882803341,394.055242587293,0.1902796798924838,309.9440635747075,-4.1243446200954725,-4.599308732170098,-47.61243322234238,0
6.5,15.776172789726031,-1.6398768956461935,394.00981200256285,0.19295185759241928,309.4096283213915,-2.23780846596,-3.07739233971,-49.2145233154,0
6.6000000000000005,15.854910777765959,-1.5967827030120525,393.96438141783267,0.1956240352923548,308.8751930680755,-2.23780846596,-3.07739233971,-49.2145233154,0
6.7,15.933648765805886,-1.553688510377912,393.91895083310254,0.1982962129922903,308.34075781475946,-2.23780846596,-3.07739233971,-49.2145233154,0
6.800000000000001,15.955955815696457,-1.4608708881565988,393.88202197489704,0.20088472214595818,308.08847200097154,-1.2794564992646622,-1.6198775272040573,-50.82714420501703,0
6.9,15.878977769130207,-1.2805694199347135,393.8600511302517,0.20332602411223882,308.33260243042685,-1.1367816925,-1.41682696342,-51.0716934204,0
7.0,15.80199972256396,-1.1002679517128282,393.83808028560634,0.2057673260785195,308.5767328598821,-1.1367816925,-1.41682696342,-51.0716934204,0
7.1000000000000005,15.725021675997711,-0.9199664834909412,393.81610944096104,0.20820862804480017,308.82086328933735,-1.1367816925,-1.41682696342,-51.0716934204,0
7.2,15.685681414910922,-0.766392945312641,393.7971361802218,0.209999993443,308.8574498133721,-0.8268870366255927,-0.046362908398321245,-50.85675925011659,0
7.300000000000001,15.750079010538158,-0.6864873485874033,393.78642490742305,0.209999993443,308.3220005587841,-0.46157771349,1.56724393368,-50.5885353088,0
7.4,15.814476606165393,-0.6065817518621663,393.77571363462437,0.209999993443,307.78655130419617,-0.46157771349,1.56724393368,-50.5885353088,0
7.5,15.878874201792627,-0.5266761551369292,393.7650023618257,0.209999993443,307.25110204960816,-0.46157771349,1.56724393368,-50.5885353088,0
7.6000000000000005,15.852745912738344,-0.5225316594945425,393.7828531746186,0.2083663140294195,306.8366319028378,0.4740008651916854,6.201231392535062,-52.205429473765356,0
7.7,15.746675796270146,-0.5852904687882068,393.82592666626164,0.20528996086357928,306.5289962928617,0.63087439537,6.92414665222,-52.4842338562,0
7.800000000000001,15.640605679801949,-0.6480492780818716,393.86900015790474,0.20221360769773905,306.2213606828856,0.63087439537,6.92414665222,-52.4842338562,0
7.9,15.566992511110003,-0.6657574382585328,393.90162022117295,0.20108426362905932,306.3794913063326,0.6678260789418038,6.735445556110142,-52.70431490976035,0
8.0,15.576656052888001,-0.5678764836218482,393.9074193050258,0.2049504759504733,307.7326659010998,0.787062227726,6.14697313309,-53.4120597839,0
8.1,15.586319594665998,-0.46999552898516345,393.91321838887865,0.2088166882718873,309.0858404958669,0.787062227726,6.14697313309,-53.4120597839,0
8.200000000000001,15.595983136443996,-0.372114574348477,393.9190174727315,0.21268290059330136,310.43901509063403,0.787062227726,6.14697313309,-53.4120597839,0
8.3,15.605646678221994,-0.27423361971179233,393.92481655658435,0.21654911291471535,311.7921896854011,0.787062227726,6.14697313309,-53.4120597839,0
8.4,15.612084003304965,-0.20055582238757763,393.9161233262485,0.2205661058798418,313.2830535949659,-0.10738078953001917,7.197200067673989,-51.74832181723297,0
8.5,15.591715170803187,-0.32797848120034667,393.78701559972905,0.2258359129235506,315.9179576664613,-3.04310202599,10.5442895889,-46.1290283203,0
8.6,15.571346338301408,-0.4554011400131156,393.6579078732096,0.23110571996725943,318.5528617379567,-3.04310202599,10.5442895889,-46.1290283203,0
8.700000000000001,15.550977505799631,-0.582823798825887,393.5288001466902,0.2363755270109683,321.1877658094521,-3.04310202599,10.5442895889,-46.1290283203,0
8.8,15.57031611942173,-0.7794990356554994,393.3779959636108,0.23859076462550846,323.4227690913371,-4.858832753314701,14.65459066323565,-37.65583692634254,0
8.9,15.677125045439553,-1.1287286476631162,393.17939732335935,0.23407718514689543,324.7768432173809,-5.10181951523,15.1806182861,-36.513507843,0
9.0,15.783933971457374,-1.477958259670733,392.980798683108,0.22956360566828238,326.13091734342464,-5.10181951523,15.1806182861,-36.513507843,0
9.1,15.890742897475196,-1.8271878716783498,392.7822000428566,0.22505002618966935,327.4849914694684,-5.10181951523,15.1806182861,-36.513507843,0
9.200000000000001,15.99755182349302,-2.176417483685973,392.58360140260515,0.22053644671105624,328.83906559551224,-5.10181951523,15.1806182861,-36.513507843,0
9.3,15.970194034175607,-2.0296074711938874,392.4200762888537,0.22964945523731017,328.75876353893926,-3.45496153831,14.9646110535,-30.1497383118,0
9.4,15.92473942011549,-1.8158900880653606,392.2612820016756,0.24060046042576877,328.4849883521115,-3.45496153831,14.9646110535,-30.1497383118,0
9.5,15.879284806055372,-1.6021727049368337,392.1024877144975,0.25155146561422737,328.21121316528365,-3.45496153831,14.9646110535,-30.1497383118,0
9.600000000000001,15.882384470542522,-1.464731268885604,391.9707517843512,0.2576926081974658,328.0,-2.4532494412872525,14.967542178123086,-30.395306133923736,0
9.700000000000001,16.049406313484134,-1.5848020394345883,391.9303665026494,0.24759536397104723,328.0,0.130722239614,14.9750957489,-31.028924942,0
9.8,16.21642815642575,-1.7048728099835724,391.8899812209476,0.23749811974462864,328.0,0.130722239614,14.9750957489,-31.028924942,0
9.9,16.38344999936736,-1.8249435805325567,391.84959593924583,0.22740087551821006,328.0,0.130722239614,14.9750957489,-31.028924942,0
10.0,16.550471842308973,-1.9450143510815407,391.809210657544,0.21730363129179148,328.0,0.130722239614,14.9750957489,-31.028924942,0
10.100000000000001,16.63458131329183,-1.8477662735261708,391.7819338844321,0.21322530013338684,328.3225306882615,1.263776776562541,9.011578500839455,-31.244314245375783,0
10.200000000000001,16.501923689661513,-1.1823572062973722,391.7889281525967,0.22488288712157167,329.48828945655924,1.91856348515,5.57499408722,-31.3853263855,0
10.3,16.369266066031198,-0.5169481390685735,391.79592242076137,0.23654047410975654,330.6540482248569,1.91856348515,5.57499408722,-31.3853263855,0
10.4,16.236608442400886,0.14846092816022516,391.802916688926,0.24819806109794135,331.81980699315466,1.91856348515,5.57499408722,-31.3853263855,0
10.5,16.10395081877057,0.813869995389024,391.80991095709066,0.2598556480861262,332.98556576145234,1.91856348515,5.57499408722,-31.3853263855,0
10.600000000000001,15.873087244716015,0.6492605472496391,391.7892975080029,0.27478419763874407,333.88705221905366,2.09143519402,5.84105873108,-26.2668113708,0
10.700000000000001,15.64099245558822,0.4742450972053045,391.76833793897566,0.2897537554846061,334.7852254756629,2.09143519402,5.84105873108,-26.2668113708,0
10.8,15.408897666460426,0.2992296471609699,391.7473783699484,0.30472331333046815,335.68339873227217,2.09143519402,5.84105873108,-26.2668113708,0
10.9,15.146906400078068,-0.04180339939664951,391.65320175747365,0.3312547476307332,337.0627372201017,2.32208108902,19.4476680756,-23.1219806671,0
11.0,14.868639826802754,-0.47321456341197193,391.519166607762,0.3640803377926263,338.7040166629692,2.32208108902,19.4476680756,-23.1219806671,0
11.100000000000001,14.590373253527435,-0.904625727427302,391.3851314580503,0.39690592795451995,340.34529610583667,2.32208108902,19.4476680756,-23.1219806671,0
11.200000000000001,14.312106680252123,-1.3360368914426244,391.2510963083386,0.4297315181164131,341.98657554870414,2.32208108902,19.4476680756,-23.1219806671,0
11.3,14.469514027333084,-2.0440356868291074,390.99301524960947,0.4469439891169782,344.8239968817896,-0.0680657178164,30.2336654663,-16.8337612152,0
11.4,14.630514251761827,-2.7543154207547103,390.73391121999373,0.4640277032203734,347.6712824525566,-0.0680657178164,30.2336654663,-16.8337612152,0
11.5,14.791514476190569,-3.464595154680312,390.47480719037793,0.4811114173237686,350.51856802332367,-0.0680657178164,30.2336654663,-16.8337612152,0
11.600000000000001,14.967856803779265,-4.0380678512617845,390.2063481205532,0.48844598602283257,352.9324122188739,-0.8482936326347383,37.593737834190414,-10.260434995123298,0
11.700000000000001,15.160839481628736,-4.463156913877792,389.92774238803435,0.48520643769374017,354.8761372771761,-1.1301432848,40.2507400513,-7.89893627167,0
11.8,15.35382215947821,-4.888245976493799,389.6491366555155,0.4819668893646477,356.8198623354784,-1.1301432848,40.2507400513,-7.89893627167,0
11.9,15.57453017083981,-4.918493954445899,389.35000299183986,0.479999989271,322.5607947150639,1.0696546075684457,39.46721517589598,-3.1414374207424007,0
12.0,15.838088169780544,-4.338508134266034,389.01914305173506,0.479999989271,232.34967818838493,1.76481807232,39.2620658875,-1.63565683365,0
12.100000000000001,16.101646168721285,-3.7585223140861572,388.6882831116302,0.479999989271,142.13856166170441,1.76481807232,39.2620658875,-1.63565683365,0
12.200000000000001,16.36520416766202,-3.1785364939062917,388.3574231715254,0.479999989271,51.92744513502549,1.76481807232,39.2620658875,-1.63565683365,0
12.3,16.544553997890223,-2.917123899342004,388.03989528326287,0.4832894553473182,10.644732972808365,3.45878648758,43.4752883911,9.17850208282,0
12.4,16.647453725240705,-2.9449345030108995,387.73447117009135,0.48956533026962124,13.782670309279183,3.45878648758,43.4752883911,9.17850208282,0
12.5,16.750353452591185,-2.972745106679795,387.42904705691984,0.4958412051919243,16.920607645750003,3.45878648758,43.4752883911,9.17850208282,0
12.600000000000001,16.85325317994167,-3.000555710348691,387.12362294374833,0.5021170801142275,20.05854498222088,3.45878648758,43.4752883911,9.17850208282,0
12.700000000000001,16.95615290729215,-3.0283663140175863,386.81819883057676,0.5083929550365306,23.1964823186917,3.45878648758,43.4752883911,9.17850208282,0
12.8,16.931807884881696,-3.067127860480612,386.52608817980285,0.5171299902312416,26.49549858017435,6.92094326019,49.3424072266,24.3725986481,0
12.9,16.863664650757052,-3.109658770409465,386.2385600823039,0.5267141677943097,29.849958927747906,6.92094326019,49.3424072266,24.3725986481,0
13.0,16.79552141663241,-3.1521896803383185,385.9510319848049,0.5362983453573777,33.20441927532147,6.92094326019,49.3424072266,24.3725986481,0
13.100000000000001,16.72737818250777,-3.1947205902671723,385.6635038873059,0.5458825229204459,36.558879622895084,6.92094326019,49.3424072266,24.3725986481,0
13.200000000000001,16.776599420500784,-2.9580722762698013,385.39833040761874,0.5512647271161103,40.27648952228655,7.01235437393,50.6699523926,38.4015731812,0
13.3,16.914219131806142,-2.511147234312854,385.1499943409101,0.5534820209783883,44.267622280730166,7.01235437393,50.6699523926,38.4015731812,0
13.4,17.0518388431115,-2.0642221923559063,384.90165827420145,0.5556993148406661,48.25875503917377,7.01235437393,50.6699523926,38.4015731812,0
13.5,17.18945855441686,-1.6172971503989586,384.6533222074928,0.5579166087029441,52.249887797617376,7.01235437393,50.6699523926,38.4015731812,0
13.600000000000001,17.325068251762215,-1.125271990116362,384.40924008389584,0.560000002384,56.208887931119534,7.064016291810477,50.47803798667821,40.17006436600848,0
13.700000000000001,17.429403530022494,0.06847964041401045,384.2313463561438,0.560000002384,59.667926771455996,7.53789901733,48.7149810791,56.2144775391,0
13.8,17.533738808282774,1.2622312709443828,384.05345262839177,0.560000002384,63.126965611792464,7.53789901733,48.7149810791,56.2144775391,0
13.9,17.638074086543053,2.455982901474755,383.8755589006397,0.560000002384,66.58600445212892,7.53789901733,48.7149810791,56.2144775391,0
14.0,17.740906531360135,3.611549411689917,383.69950832847275,0.5598907693285093,70.0436931770554,7.53789901733,48.7149810791,56.2144775391,0
14.100000000000001,17.72983374404525,1.8729262742183177,383.6631572457764,0.5515023642872631,73.39905172702115,10.1941051483,44.6480636597,70.9767379761,0
14.200000000000001,17.718760956730364,0.1343031367467491,383.62680616308006,0.5431139592460169,76.75441027698683,10.1941051483,44.6480636597,70.9767379761,0
14.3,17.70768816941548,-1.6043200007248193,383.5904550803837,0.5347255542047709,80.10976882695252,10.1941051483,44.6480636597,70.9767379761,0
14.4,17.6567515419454,-2.062309153260074,383.61312004816176,0.5310032534890511,82.90294936825906,13.5762434006,35.7483100891,82.306060791,0
14.5,17.554384660337817,-0.8680909156894718,383.71192445615117,0.5333009179939349,84.97083706915437,13.5762434006,35.7483100891,82.306060791,0
14.600000000000001,17.45201777873023,0.32612732188115157,383.8107288641406,0.5355985824988188,87.03872477004971,13.5762434006,35.7483100891,82.306060791,0
14.700000000000001,17.349650897122643,1.520345559451754,383.9095332721299,0.5378962470037025,89.10661247094502,13.5762434006,35.7483100891,82.306060791,0
14.8,17.23677386625598,2.595930686649142,384.0207605262822,0.5404885004556255,91.1221198658721,14.29899595402292,33.93933241651722,83.80065945204738,0
14.9,17.009858062098864,2.384305323766542,384.2667799800758,0.5462771463960989,92.56928273114967,18.0904865265,24.4592208862,91.5727157593,0
15.0,16.782942257941748,2.172679960883942,384.5127994338694,0.5520657923365724,94.01644559642725,18.0904865265,24.4592208862,91.5727157593,0
15.100000000000001,16.556026453784625,1.9610545980013385,384.75881888766304,0.557854438277046,95.46360846170485,18.0904865265,24.4592208862,91.5727157593,0
15.200000000000001,16.32358106660289,2.4191364530979644,385.04181927271856,0.5626097548832093,96.0,19.04067067995407,15.175463045128526,94.45412753218311,0
15.3,16.087879075423164,3.2716370543901077,385.34659928348196,0.5667565003862041,96.0,19.6259593964,9.54612636566,96.2335739136,0
15.4,15.85217708424344,4.124137655682251,385.6513792942454,0.5709032458891989,96.0,19.6259593964,9.54612636566,96.2335739136,0
15.5,15.616475093063714,4.976638256974394,385.95615930500884,0.5750499913921937,96.0,19.6259593964,9.54612636566,96.2335739136,0
15.600000000000001,15.380773101883985,5.829138858266552,386.26093931577225,0.5791967368951886,96.0,19.6259593964,9.54612636566,96.2335739136,0
15.700000000000001,15.307716512036102,5.625569770177039,386.61818968037045,0.574887767500004,95.31837057515328,20.0973396301,-6.03912639618,96.601890564,0
15.8,15.27373405747625,5.168289174854096,386.9880455886087,0.5685473865482495,94.47298564203724,20.0973396301,-6.03912639618,96.601890564,0
15.9,15.239751602916398,4.7110085795311525,387.357901496847,0.562207005596495,93.62760070892121,20.0973396301,-6.03912639618,96.601890564,0
16.0,15.205769148356547,4.253727984208209,387.72775740508524,0.5558666246447405,92.78221577580517,20.0973396301,-6.03912639618,96.601890564,0
16.1,15.15164636528885,3.752639277468112,388.0953845777622,0.5502674584479355,91.9465106436001,20.0973396301,-6.03912639618,96.601890564,0
16.2,14.848128412815935,2.709080205165403,388.43541359668274,0.5538466618742642,91.23066927563643,18.5733718872,-16.733789444,92.0659332275,0
16.3,14.544610460343009,1.6655211328626573,388.7754426156033,0.5574258653005932,90.51482790767274,18.5733718872,-16.733789444,92.0659332275,0
16.400000000000002,14.29046060975125,1.288348865574301,389.08816064426077,0.5609468280747332,89.81063468125568,16.608373390477745,-17.51172674223231,90.83180017827554,0
16.5,14.162750434196512,2.6179007352152093,389.33093081990756,0.5643186271408079,89.13627422490315,15.8460512161,-17.8129062653,90.3507843018,0
16.6,14.03504025864177,3.947452604856165,389.57370099555436,0.5676904262068828,88.4619137685506,15.8460512161,-17.8129062653,90.3507843018,0
16.7,13.924899350788506,4.530732633072587,389.79822471200663,0.5693738113299706,87.74952715431226,14.687858884352805,-20.41998138530917,88.61793417147342,0
16.8,13.85295855204793,3.4914256386238316,389.9830759307774,0.5673861500585591,86.95446188749395,14.3654432297,-21.1454410553,88.1366195679,0
16.900000000000002,13.781017753307353,2.4521186441750755,390.1679271495481,0.5653984887871477,86.15939662067564,14.3654432297,-21.1454410553,88.1366195679,0
17.0,13.709076954566779,1.4128116497263568,390.35277836831887,0.5634108275157363,85.36433135385734,14.3654432297,-21.1454410553,88.1366195679,0
17.1,13.637136155826202,0.3735046552776007,390.5376295870896,0.5614231662443249,84.56926608703901,14.3654432297,-21.1454410553,88.1366195679,0
17.2,13.6038601661188,-0.1256461037068638,390.7115239695698,0.5584324131140607,83.60810230876234,12.86937660619637,-14.69246598778864,85.40402135017128,0
17.3,13.668062672860946,0.7370000528380131,390.85779488890194,0.5529127483288112,82.22818479642264,12.2194423676,-12.1065711975,84.2230529785,0
17.400000000000002,13.732265179603093,1.59964620938289,391.0040658082341,0.5473930835435618,80.84826728408294,12.2194423676,-12.1065711975,84.2230529785,0
17.5,13.796467686345238,2.4622923659277367,391.15033672756624,0.5418734187583124,79.46834977174329,12.2194423676,-12.1065711975,84.2230529785,0
17.6,13.91626132744684,2.701331543187656,391.2841680754022,0.5339868941790746,78.19825052448412,10.5478811264,-2.82410097122,78.9316711426,0
17.7,14.064616855864859,2.6199708495454503,391.41160815881375,0.5248843126960052,76.98457424733806,10.5478811264,-2.82410097122,78.9316711426,0
17.8,14.212972384282885,2.5386101559032412,391.53904824222536,0.5157817312129355,75.77089797019197,10.5478811264,-2.82410097122,78.9316711426,0
17.900000000000002,14.26632310259348,2.3663466388285146,391.6597316012519,0.5091721667791385,75.08278244733577,10.183911883375446,-3.218050106380969,77.47759184553969,0
18.0,14.154265953987332,2.0358170076098956,391.76865118361695,0.506903062916138,75.30969305004047,9.56986808777,-3.87300872803,75.0350418091,0
18.1,14.04220880538118,1.705287376391265,391.877570765982,0.5046339590531375,75.53660365274516,9.56986808777,-3.87300872803,75.0350418091,0
18.2,13.930151656775033,1.3747577451726463,391.98649034834705,0.502364855190137,75.76351425544985,9.56986808777,-3.87300872803,75.0350418091,0
18.3,13.818094508168882,1.0442281139540157,392.0954099307121,0.5000957513271364,75.99042485815455,9.56986808777,-3.87300872803,75.0350418091,0
18.400000000000002,13.71855805619089,0.7297717678407234,392.0956504693063,0.5087027749305494,76.43513851309741,6.35924482346,1.71696829796,76.9545135498,0
18.5,13.619573228166693,0.4160235619646474,392.09110293854627,0.5177889677537864,76.88944791054499,6.35924482346,1.71696829796,76.9545135498,0
18.6,13.520588400142492,0.1022753560885602,392.0865554077862,0.5268751605770237,77.34375730799258,6.35924482346,1.71696829796,76.9545135498,0
18.7,13.421603572118295,-0.2114728497875158,392.0820078770262,0.5359613534002607,77.79806670544015,6.35924482346,1.71696829796,76.9545135498,0
18.8,13.4344580240004,-0.3485098562408266,392.0227425260765,0.5422448408814017,78.0,5.363684299674093,5.427318090394674,78.01329554365793,0
18.900000000000002,13.536798263143137,-0.3441552084259207,391.9196958916552,0.5462858041420077,78.0,4.6374502182,8.1307516098,78.7895812988,0
19.0,13.63913850228587,-0.33980056061101493,391.81664925723385,0.5503267674026135,78.0,4.6374502182,8.1307516098,78.7895812988,0
19.1,13.741478741428608,-0.3354459127961091,391.7136026228125,0.5543677306632195,78.0,4.6374502182,8.1307516098,78.7895812988,0
19.200000000000003,13.843818980571347,-0.33109126498120317,391.6105559883912,0.5584086939238256,78.0,4.6374502182,8.1307516098,78.7895812988,0
19.3,14.043121971653662,-1.1968610347102868,391.50017704969326,0.5550140974156522,78.3323933211499,4.151861606051632,9.305943205688585,78.71065703730744,0
19.400000000000002,14.305412469161823,-2.6278681377968667,391.3850350081182,0.5467893227272275,78.8807110672262,4.14430427551,9.32391738892,78.7093200684,0
19.5,14.567702966669973,-4.058875240883396,391.2698929665432,0.538564548038803,79.4290288133025,4.14430427551,9.32391738892,78.7093200684,0
19.6,14.829993464178132,-5.489882343969976,391.15475092496814,0.5303397733503783,79.9773465593788,4.14430427551,9.32391738892,78.7093200684,0
19.700000000000003,14.992138783710333,-3.1927275873592693,391.12665605476354,0.5170339809573187,80.51863980278321,4.45009708405,6.51174545288,80.4825515747,0
19.8,15.149968358727946,-0.7349081395409334,391.1023124720393,0.5035092227115799,81.0596303260818,4.45009708405,6.51174545288,80.4825515747,0
19.900000000000002,15.307797933745569,1.7229113082774905,391.077968889315,0.4899844644658407,81.6006208493804,4.45009708405,6.51174545288,80.4825515747,0
20.0,15.426008167622818,3.163458034724593,391.0801236430552,0.4781703571570593,82.09148169294313,5.3905043645142126,6.542152805244568,81.96503287172895,0
20.1,15.432482045066209,1.735043690292646,391.15701026973613,0.4711807092492706,82.44096442163425,5.80008983612,6.55429363251,82.606086731,0
20.200000000000003,15.438955922509598,0.30662934586069923,391.2338968964171,0.4641910613414818,82.79044715032535,5.80008983612,6.55429363251,82.606086731,0
20.3,15.458575410811703,-0.33364913968253307,391.33389764388994,0.45907069417411106,83.09293122875447,6.292584316202398,6.079818648292198,83.01820078868191,0
20.400000000000002,15.497881189386625,0.20635007044401865,391.4685130849059,0.45674967985939563,83.3250321898502,6.33354949951,6.04035758972,83.0514221191,0
20.5,15.537186967961548,0.746349280570551,391.6031285259218,0.4544286655446803,83.55713315094593,6.33354949951,6.04035758972,83.0514221191,0
20.6,15.57649274653647,1.2863484906971028,391.7377439669377,0.4521076512299649,83.78923411204165,6.33354949951,6.04035758972,83.0514221191,0
20.700000000000003,15.609814693745367,1.7377593428069884,391.87544457910326,0.4496968720718039,84.0,6.33354949951,6.04035758972,83.0514221191,0
20.8,15.584023296315985,1.3140195066620595,392.0436231199198,0.4463993199077848,84.0,7.297945677726751,2.7457489292595483,84.2259895929673,0
20.900000000000002,15.558231898886602,0.8902796705171153,392.21180166073634,0.4431017677437656,84.0,7.35913181305,2.53712153435,84.2999191284,0
21.0,15.528133234479428,0.5244668333233375,392.3824216592833,0.439999997616,83.96116609246579,7.35913181305,2.53712153435,84.2999191284,0
21.1,15.429794642141752,1.076390058007654,392.59172161438505,0.439999997616,83.30708751469005,7.99167823792,2.7357313633,84.1663742065,0
21.200000000000003,15.331456049804077,1.6283132826919702,392.8010215694868,0.439999997616,82.65300893691432,7.99167823792,2.7357313633,84.1663742065,0
21.3,15.233164352420866,2.179709495925346,393.0103319671946,0.4399941190194034,82.00029392967215,7.99167823792,2.7357313633,84.1663742065,0
21.400000000000002,15.163501726219257,2.409368573145533,393.2260175093925,0.4363993946216975,82.180030053138,8.14400863647,2.16897463799,82.6570739746,0
21.5,15.093839100017652,2.6390276503657115,393.4417030515903,0.43280467022399177,82.35976617660384,8.14400863647,2.16897463799,82.6570739746,0
21.6,15.024176473816045,2.8686867275858985,393.6573885937882,0.4292099458262859,82.5395023000697,8.14400863647,2.16897463799,82.6570739746,0
21.700000000000003,14.954513847614436,3.0983458048060855,393.8730741359861,0.42561522142858,82.71923842353554,8.14400863647,2.16897463799,82.6570739746,0
21.8,14.88485122141283,3.3280048820262644,394.088759678184,0.4220204970308743,82.89897454700139,8.14400863647,2.16897463799,82.6570739746,0
21.900000000000002,14.825305072205737,3.1771264788942215,394.2906698388372,0.4187958571856742,83.24082616994107,5.912527308165153,4.157867445740824,83.76838113105829,0
22.0,14.778743460737347,2.5378267333022504,394.4748992434694,0.41604622230921284,83.7907536696992,5.48279285431,4.53886461258,83.9810180664,0
22.1,14.732181849268956,1.8985269877102564,394.6591286481016,0.4132965874327514,84.34068116945735,5.48279285431,4.53886461258,83.9810180664,0
22.200000000000003,14.685620237800565,1.2592272421182624,394.84335805273383,0.4105469525562899,84.8906086692155,5.48279285431,4.53886461258,83.9810180664,0
22.3,14.568667427517015,1.3996157563971952,395.00591503049145,0.409999996424,85.40616496497806,4.1927771938950995,7.120406012321977,85.6319131395177,0
22.400000000000002,14.434235491894336,1.7336118387971604,395.16309043964225,0.409999996424,85.91318640705428,3.94412136078,7.61415481567,85.9495391846,0
22.5,14.299803556271662,2.0676079211971135,395.320265848793,0.409999996424,86.42020784913049,3.94412136078,7.61415481567,85.9495391846,0
22.6,14.165371620648985,2.401604003597079,395.4774412579438,0.409999996424,86.92722929120673,3.94412136078,7.61415481567,85.9495391846,0
22.700000000000003,13.802212171366856,1.9978558142992495,395.6156771303477,0.42051633509548697,87.0,3.17033433914,7.09811162949,87.2229537964,0
22.8,13.400723107385678,1.470478188261612,395.75073916006664,0.4327949768798519,87.0,3.17033433914,7.09811162949,87.2229537964,0
22.900000000000002,12.999234043404485,0.9431005622239557,395.8858011897855,0.44507361866421724,87.0,3.17033433914,7.09811162949,87.2229537964,0
23.0,12.597744979423306,0.41572293618631795,396.02086321950446,0.4573522604485822,87.0,3.0835352876412054,6.872859276858982,87.22658197705798,0
23.1,12.114639049699099,0.29530178726391687,396.0969445389398,0.4762536566887193,87.1805960855323,1.1843010178428763,1.9551774068135472,87.33904461122351,0
23.200000000000003,11.609094820155835,0.28676206583434255,396.1568107434128,0.49697579608964493,87.41084206972748,1.17894029617,1.94168579578,87.3393096924,0
23.3,11.103550590612592,0.2782223444047685,396.21667694788584,0.5176979354905699,87.64108805392266,1.17894029617,1.94168579578,87.3393096924,0
23.400000000000002,10.598006361069329,0.2696826229751942,396.27654315235884,0.5384200748914955,87.87133403811784,1.17894029617,1.94168579578,87.3393096924,0
23.5,10.074097753555012,-0.09180524153012842,396.2894302922477,0.5626563134303801,87.84179619812946,-2.608254978480685,0.505656063557,88.5149627711286,0
23.6,9.52692797418609,-0.9003535741207773,396.2428115726632,0.5913436727254877,87.48320413213382,-2.76444172859,0.505656063557,88.5634460449,0
23.700000000000003,8.97975819481717,-1.7089019067114262,396.1961928530787,0.6200310320205952,87.1246120661382,-2.76444172859,0.505656063557,88.5634460449,0
23.8,8.860412906557219,-2.456995013284433,396.0793412296277,0.639363084975814,87.0,-5.93617296219,1.19715499878,87.6614074707,0
23.900000000000002,8.96891655330921,-3.1728911345275357,395.92508526705785,0.6537127289512934,87.0,-5.93617296219,1.19715499878,87.6614074707,0
24.0,9.077420200061198,-3.8887872557706133,395.770829304488,0.6680623729267724,87.0,-5.93617296219,1.19715499878,87.6614074707,0
24.1,9.224796448273768,-3.9214470266040387,395.47051104751506,0.6782201762419562,87.61651255442433,-10.5347833633,1.20087766647,87.6534576416,0
24.200000000000003,9.378241118372216,-3.8474464179858883,395.1473909303436,0.6877235891472042,88.32926920205612,-10.5347833633,1.20087766647,87.6534576416,0
24.3,9.531685788470659,-3.7734458093677405,394.82427081317206,0.6972270020524518,89.04202584968789,-10.5347833633,1.20087766647,87.6534576416,0
24.400000000000002,9.685130458569109,-3.69944520074959,394.5011506960006,0.7067304149576998,89.75478249731968,-10.5347833633,1.20087766647,87.6534576416,0
24.5,10.346723624637509,-3.958102379218218,394.11454083808854,0.7008184728142314,89.84697491061739,-13.4848651886,2.45447182655,90.5481872559,0
24.6,11.274833309200774,-4.391233743810998,393.6946315316954,0.6868214004548334,89.61369038056326,-13.4848651886,2.45447182655,90.5481872559,0
24.700000000000003,12.202942993764042,-4.8243651084037795,393.27472222530224,0.6728243280954355,89.38040585050913,-13.4848651886,2.45447182655,90.5481872559,0
24.8,13.131052678327276,-5.257496472996545,392.85481291890903,0.658827255736038,89.14712132045501,-13.4848651886,2.45447182655,90.5481872559,0
24.900000000000002,14.102247710935734,-5.120557858788115,392.51682423074396,0.6293878681166102,89.20612109269975,-11.394690730512334,1.7686323128996366,90.23800025174413,0
25.0,15.14700979526106,-4.010240369498262,392.3187127544687,0.5735811501422867,89.76418830570658,-8.54516124725,0.836255848408,89.8160400391,0
25.1,16.191771879586423,-2.89992288020837,392.1206012781935,0.5177744321679614,90.32225551871343,-8.54516124725,0.836255848408,89.8160400391,0
25.200000000000003,17.236533963911782,-1.7896053909184775,391.9224898019182,0.4619677141936359,90.88032273172027,-8.54516124725,0.836255848408,89.8160400391,0
25.3,17.68071248697337,-0.6847728985420639,391.93576925814966,0.4211541647266144,91.19230551958222,-1.39613223076,2.25926041603,91.7634506226,0
25.400000000000002,17.960936063416618,0.41856222954714073,392.0067569023672,0.38443364127762314,91.43710904815288,-1.39613223076,2.25926041603,91.7634506226,0
25.5,18.24115963985986,1.521897357636306,392.07774454658477,0.3477131178286331,91.6819125767235,-1.39613223076,2.25926041603,91.7634506226,0
25.6,18.52138321630311,2.625232485725511,392.1487321908023,0.3109925943796419,91.92671610529416,-1.39613223076,2.25926041603,91.7634506226,0
25.700000000000003,18.582480183334088,3.1113060852642027,392.3915606477606,0.2915321099613206,92.0,5.3890414238,3.54351186752,92.0918655396,0
25.8,18.549952583838326,3.3336470272348366,392.70781022709025,0.2794461916754076,92.0,5.3890414238,3.54351186752,92.0918655396,0
25.900000000000002,18.51742498434256,3.5559879692054785,393.0240598064198,0.26736027338949414,92.0,5.3890414238,3.54351186752,92.0918655396,0
26.0,18.4848973848468,3.778328911176113,393.34030938574944,0.2552743551035811,92.0,5.3890414238,3.54351186752,92.0918655396,0
26.1,18.45236978535104,4.000669853146755,393.656558965079,0.2431884368176676,92.0,5.3890414238,3.54351186752,92.0918655396,0
26.200000000000003,18.115675094724317,4.015575202308664,394.04472791401474,0.24621912913329405,92.20730437203817,9.22549343109,-1.6198502779,92.3298721313,0
26.3,17.66998104604659,3.9561452696062065,394.45866942463476,0.25466691257915586,92.48889700251121,9.22549343109,-1.6198502779,92.3298721313,0
26.400000000000002,17.22428699736885,3.8967153369037466,394.8726109352547,0.2631146960250179,92.77048963298428,9.22549343109,-1.6198502779,92.3298721313,0
26.5,16.818634025979,3.84752493401697,395.2781949236914,0.27178543778487396,92.92858289222343,9.270099852611818,-0.9362895396814198,92.65251235908526,0
26.6,16.589429652134722,3.843456960342411,395.6469499063146,0.2814386876209387,92.54245276068525,9.44123363495,1.41730797291,93.8904495239,0
26.700000000000003,16.360225278290446,3.8393889866678523,396.0157048889378,0.29109193745700346,92.15632262914708,9.44123363495,1.41730797291,93.8904495239,0
26.8,16.131020904446174,3.835321012993293,396.384459871561,0.3007451872930679,91.77019249760893,9.44123363495,1.41730797291,93.8904495239,0
26.900000000000002,15.901816530601899,3.8312530393187343,396.7532148541842,0.31039843712913257,91.38406236607076,9.44123363495,1.41730797291,93.8904495239,0
27.0,15.672151234658918,3.8258761731697364,397.1216542393602,0.3200236947110416,91.00118509256633,9.44123363495,1.41730797291,93.8904495239,0
27.1,15.356875247079468,3.577388398848748,397.4314752250102,0.3244497304604452,91.22248676131923,7.40979385376,2.68130850792,91.5880126953,0
27.200000000000003,15.041599259500018,3.3289006245277593,397.74129621066015,0.32887576620984876,91.44378843007213,7.40979385376,2.68130850792,91.5880126953,0
27.3,14.726323271920581,3.0804128502067796,398.05111719631014,0.33330180195925224,91.66509009882503,7.40979385376,2.68130850792,91.5880126953,0
27.400000000000002,14.41104728434113,2.8319250758857906,398.36093818196014,0.33772783770865583,91.88639176757793,7.40979385376,2.68130850792,91.5880126953,0
27.5,14.125429217476308,2.6407830179281415,398.6049502813761,0.3437760847263636,92.28320614535407,3.2947268829332454,4.513475333988562,92.82480557490112,0
27.6,13.8710979593948,2.5101362482163045,398.77953910396633,0.35153563896098594,92.865172834349,3.03269839287,4.61817216873,92.9027709961,0
27.700000000000003,13.616766701313294,2.379489478504468,398.9541279265566,0.3592951931956082,93.44713952334392,3.03269839287,4.61817216873,92.9027709961,0
27.8,13.362435443231796,2.248842708792636,399.12871674914686,0.36705474743023025,94.02910621233882,3.03269839287,4.61817216873,92.9027709961,0
27.900000000000002,13.108104185150289,2.118195939080799,399.3033055717371,0.3748143016648525,94.61107290133374,3.03269839287,4.61817216873,92.9027709961,0
28.0,12.735062114595037,1.8933711430582754,399.4172395402019,0.3882304399324811,95.09144938192732,1.228526391603556,1.8100355817976097,93.53766067241902,0
28.1,12.122847075442357,1.478800883585616,399.40896895780276,0.4130431979949079,95.36714668277769,-3.71128582954,-5.85537004471,95.2699584961,0
28.200000000000003,11.510632036289676,1.0642306241129562,399.40069837540364,0.4378559560573347,95.64284398362805,-3.71128582954,-5.85537004471,95.2699584961,0
28.3,10.89841699713702,0.6496603646403114,399.3924277930046,0.4626687141197606,95.91854128447841,-3.71128582954,-5.85537004471,95.2699584961,0
28.400000000000002,10.51603441958915,0.012347252910072659,399.2616047406691,0.48369380268788476,94.97296487735254,-7.60067712083294,-1.56641342235649,96.18034833637985,0
28.5,10.230037722713782,-0.718378537901411,399.07938630379596,0.5031304391402561,93.51521738236772,-7.73905086517,-1.41523456573,96.2154006958,0
28.6,9.944041025838402,-1.4491043287129206,398.89716786692287,0.5225670755926283,92.05746988738285,-7.73905086517,-1.41523456573,96.2154006958,0
28.700000000000003,9.658044328963022,-2.1798301195244303,398.7149494300497,0.5420037120450003,90.59972239239798,-7.73905086517,-1.41523456573,96.2154006958,0
28.8,9.626732125249667,-3.199192521675591,398.3754296249598,0.5624497672286976,90.15562197381091,-13.62855720000907,-2.983133279255566,90.39697198285744,0
28.900000000000002,9.773433353876815,-4.420299416574617,397.92596297496976,0.5836013623956164,90.4200169685535,-13.9396295547,-3.06173372269,90.0926589966,0
29.0,9.920134582503959,-5.641406311473599,397.47649632497973,0.6047529575625346,90.68441196329607,-13.9396295547,-3.06173372269,90.0926589966,0
29.1,10.066835811131108,-6.862513206372624,397.02702967498965,0.6259045527294533,90.94880695803866,-13.9396295547,-3.06173372269,90.0926589966,0
29.200000000000003,10.811574546746936,-7.133832918513417,396.3183605142209,0.6318229883884197,90.81770051049901,-19.0651325442845,-5.765802522549848,91.52712139149432,0
29.3,11.699911212824189,-7.1770942359397125,395.5474528756254,0.6340837100174654,90.59162813198921,-19.4272727966,-5.94895553589,91.6276321411,0
29.400000000000002,12.588247878901473,-7.2203555533660095,394.77654523702995,0.6363444316465112,90.36555575347941,-19.4272727966,-5.94895553589,91.6276321411,0
29.5,13.476584544978724,-7.263616870792305,394.0056375984345,0.6386051532755569,90.13948337496961,-19.4272727966,-5.94895553589,91.6276321411,0
29.6,14.733464469110377,-7.481965785807924,393.33576120148854,0.6158713333414598,89.87935673104136,-17.16216968016124,-3.7333504896862766,90.9537749072877,0
29.700000000000003,16.584018593821735,-7.982357547242751,392.82863270539013,0.5528746293169254,89.56437319214409,-15.3274326324,-1.94360220432,90.3776245117,0
29.8,18.43457271853303,-8.48274930867756,392.3215042092918,0.4898779252923934,89.24938965324684,-15.3274326324,-1.94360220432,90.3776245117,0
29.900000000000002,19.887060611483008,-8.507896013161329,391.8993125477205,0.42883800215754647,89.12402217367696,-14.995598735395898,-1.8586306277839872,90.31335101494336,0
30.0,19.82609037455015,-6.7261486941391055,391.8000529323383,0.3752378106793971,89.71957986596999,-7.08186006546,-0.0728601887822,88.8199768066,0
30.1,19.765120137617288,-4.94440137511682,391.70079331695615,0.3216376192012458,90.31513755826302,-7.08186006546,-0.0728601887822,88.8199768066,0
30.200000000000003,19.704149900684428,-3.1626540560945333,391.601533701574,0.2680374277230945,90.91069525055606,-7.08186006546,-0.0728601887822,88.8199768066,0
30.3,19.643179663751567,-1.3809067370723112,391.5022740861918,0.21443723624494515,91.50625294284909,-7.08186006546,-0.0728601887822,88.8199768066,0
30.400000000000002,19.60051795277982,0.16361571278229806,391.4223668037242,0.17278132400217366,92.03973317854779,-4.444136082933913,0.6348548191543488,90.53893720376998,0
30.5,19.646646384423835,0.5576779885003867,391.4363117736486,0.18905111582779494,92.27215879980392,-0.930092394352,1.57738482952,92.8874511719,0
30.6,19.692774816067857,0.9517402642184895,391.45025674357305,0.20532090765341682,92.50458442106006,-0.930092394352,1.57738482952,92.8874511719,0
30.700000000000003,19.738903247711875,1.3458025399365923,391.46420171349746,0.22159069947903864,92.7370100423162,-0.930092394352,1.57738482952,92.8874511719,0
30.8,19.785031679355892,1.7398648156546808,391.47814668342187,0.23786049130465992,92.96943566357234,-0.930092394352,1.57738482952,92.8874511719,0
30.900000000000002,19.745446973809862,1.882271791164342,391.6580752859311,0.239999994636,93.5565335652476,3.576995250488789,9.55254190509491,93.09035370660207,0
31.0,19.69288422166331,1.986574990281661,391.86313589724574,0.239999994636,94.19733330930192,4.71280908585,11.5594339371,93.1413192749,0
31.1,19.640321469516753,2.0908781893989836,392.0681965085605,0.239999994636,94.83813305335626,4.71280908585,11.5594339371,93.1413192749,0
31.200000000000003,19.587758717370196,2.195181388516306,392.2732571198752,0.239999994636,95.4789327974106,4.71280908585,11.5594339371,93.1413192749,0
31.3,19.4936745369459,2.343060760747305,392.48938922772754,0.2419367525478671,96.29051363916487,5.320602189554007,14.173533006435946,94.21227635104313,0
31.400000000000002,19.218892158558937,2.680580429142505,392.75370367313633,0.25230213825700915,97.84532124070323,6.57330369949,19.4975738525,96.6473846436,0
31.5,18.944109780171985,3.0181000975376935,393.01801811854517,0.2626675239661509,99.40012884224151,6.57330369949,19.4975738525,96.6473846436,0
31.6,18.669327401785022,3.355619765932894,393.28233256395396,0.273032909675293,100.95493644377986,6.57330369949,19.4975738525,96.6473846436,0
31.700000000000003,18.406916937863645,3.4837917517592993,393.5309654392174,0.2848947863914054,102.40789875040994,6.388597775452042,24.285105510914573,99.23528728619262,0
31.8,18.1698710408213,3.1827647393017484,393.7474483803841,0.2998247287925606,103.65206056773818,6.1217751503,29.8252677917,103.033584595,0
31.900000000000002,17.932825143778945,2.8817377268441864,393.9639313215508,0.3147546711937163,104.89622238506645,6.1217751503,29.8252677917,103.033584595,0
32.0,17.6957792467366,2.580710714386635,394.1804142627175,0.3296846135948715,106.14038420239469,6.1217751503,29.8252677917,103.033584595,0
32.1,17.497763641249282,2.2626624553346355,394.36548261828983,0.34295793911053263,107.44369042273371,6.0430548575346945,31.001192879567068,103.75327873966101,0
32.2,17.386996514448654,1.90656482971253,394.4803266764645,0.35252805623938815,108.87920829151108,5.60807943344,37.4700584412,107.71169281,0
32.300000000000004,17.276229387648026,1.5504672040904248,394.5951707346391,0.3620981733682437,110.31472616028843,5.60807943344,37.4700584412,107.71169281,0
32.4,17.165462260847406,1.1943695784683448,394.7100147928138,0.3716682904970985,111.75024402906568,5.60807943344,37.4700584412,107.71169281,0
32.5,17.05859257794361,0.8665502594815265,394.81323910019364,0.38032412926031606,113.25930746995435,5.60807943344,37.4700584412,107.71169281,0
32.6,16.977943846903486,0.7289797642617047,394.83828885668214,0.3828289496509842,115.26316569356848,3.58339095116,40.1166725159,113.675300598,0
32.7,16.89729511586336,0.5914092690418828,394.86333861317064,0.38533377004165237,117.26702391718261,3.58339095116,40.1166725159,113.675300598,0
32.800000000000004,16.81664638482324,0.45383877382206106,394.8883883696592,0.38783859043232055,119.27088214079674,3.58339095116,40.1166725159,113.675300598,0
32.9,16.75508975419595,0.29913790761901327,394.90330468376175,0.39039401291347026,121.275818493983,3.58339095116,40.1166725159,113.675300598,0
33.0,16.813691993796308,0.03662459650847444,394.8544447258835,0.3932679069033574,123.28754021014996,1.64017951488,42.3183784485,121.120292664,0
33.1,16.872294233396666,-0.2258887146020644,394.8055847680053,0.3961418008932446,125.29926192631692,1.64017951488,42.3183784485,121.120292664,0
33.2,16.930896472997023,-0.48840202571260327,394.7567248101271,0.39901569488313177,127.31098364248388,1.64017951488,42.3183784485,121.120292664,0
33.300000000000004,17.011021723383468,-0.652462979775118,394.6825371371035,0.3957961582017366,129.40128253041019,1.4633661522590768,44.466672505454575,127.58443920520722,0
33.4,17.102358621471808,-0.7652386766951735,394.5951558908329,0.3894024653271693,131.53251340391836,1.41579282284,45.0453872681,129.316085815,0
33.5,17.193695519560155,-0.878014373615237,394.50777464456235,0.3830087724526016,133.6637442774267,1.41579282284,45.0453872681,129.316085815,0
33.6,17.285032417648505,-0.9907900705353005,394.42039339829176,0.3766150795780339,135.79497515093502,1.41579282284,45.0453872681,129.316085815,0
33.7,17.376369315736852,-1.1035657674553643,394.3330121520212,0.3702213867034662,137.92620602444336,1.41579282284,45.0453872681,129.316085815,0
33.800000000000004,17.61648428144399,-1.2460007580096177,394.21364882595367,0.347722620976963,140.72279124405227,0.358980327845,43.7961425781,139.162918091,0
33.9,17.86193546188322,-1.3894995368101244,394.09313840039687,0.3246462154921986,143.5432406912354,0.358980327845,43.7961425781,139.162918091,0
34.0,18.107386642322467,-1.5329983156106413,393.9726279748401,0.30156981000743255,146.36369013841875,0.358980327845,43.7961425781,139.162918091,0
34.1,18.33943447574608,-1.6257928013577931,393.85644010222785,0.27957457120243456,149.18435298815342,0.358980327845,43.7961425781,139.162918091,0
34.2,18.37958779718861,-0.992658490404148,393.8021378307886,0.2730582983708109,152.0080711029946,-0.139452189207,41.9174690247,149.516235352,0
34.300000000000004,18.419741118631134,-0.35952417945050286,393.7478355593493,0.26654202553918727,154.83178921783576,-0.139452189207,41.9174690247,149.516235352,0
34.4,18.459894440073658,0.2736101315030972,393.6935332879101,0.26002575270756406,157.65550733267676,-0.139452189207,41.9174690247,149.516235352,0
34.5,18.500047761516186,0.9067444424567423,393.63923101647083,0.2535094798759404,160.47922544751793,-0.139452189207,41.9174690247,149.516235352,0
34.6,18.538339424636607,1.185590446742098,393.6153608517172,0.2435517614280363,163.28964766315073,-1.0590066075021674,40.17749549666696,157.44210376781294,0
34.7,18.57445819041637,1.0509168968515534,393.62701054734964,0.22957724358207213,166.08455112129275,-1.69974982738,39.0108833313,162.939834595,0
34.800000000000004,18.610576956196134,0.9162433469610087,393.6386602429821,0.21560272573610795,168.87945457943474,-1.69974982738,39.0108833313,162.939834595,0
34.9,18.646695721975895,0.7815697970704736,393.65030993861455,0.2016282078901448,171.67435803757655,-1.69974982738,39.0108833313,162.939834595,0
35.0,18.638075920490675,0.6716987290302475,393.6725896633263,0.1906803308486261,174.27213334983105,-1.69974982738,39.0108833313,162.939834595,0
35.1,18.407733496716098,0.6847478091155823,393.74755140417227,0.19473236947081052,175.89294913688803,-0.943642497063,31.8362216949,174.107498169,0
35.2,18.17739107294152,0.6977968892009172,393.8225131450182,0.19878440809299497,177.51376492394505,-0.943642497063,31.8362216949,174.107498169,0
35.300000000000004,17.947048649166945,0.710845969286252,393.89747488586414,0.2028364467151794,179.13458071100203,-0.943642497063,31.8362216949,174.107498169,0
35.4,17.716706225392386,0.7238950493715859,393.9724366267101,0.20688848533736354,180.7553964980589,-0.943642497063,31.8362216949,174.107498169,0
35.5,17.45299397952147,0.7095867697081537,394.0573417011549,0.21533514999460782,182.20006837515683,0.20683168942248753,26.440197251284864,12.817415289378147,0
35.6,17.078886089798942,0.6047735621243301,394.17514178809057,0.2383203270007309,183.0620125321509,1.5708001852,20.121723175,-177.871536255,0
35.7,16.704778200076415,0.49996035454050636,394.29294187502626,0.261305504006854,183.92395668914494,1.5708001852,20.121723175,-177.871536255,0
35.800000000000004,16.330670310353884,0.39514714695668274,394.41074196196195,0.2842906810129771,184.78590084613901,1.5708001852,20.121723175,-177.871536255,0
35.9,15.93739987747551,0.4412429369840735,394.5262322814604,0.3041106429251824,185.0,2.41495728493,9.29782962799,-174.306106567,0
36.0,15.537796626939095,0.5372109781553651,394.6409592713792,0.32288456779130825,185.0,2.41495728493,9.29782962799,-174.306106567,0
36.1,15.138193376402677,0.6331790193266569,394.75568626129797,0.3416584926574342,185.0,2.41495728493,9.29782962799,-174.306106567,0
36.2,14.73859012586626,0.7291470604979484,394.87041325121675,0.36043241752356003,185.0,2.41495728493,9.29782962799,-174.306106567,0
36.300000000000004,14.338986875329843,0.8251151016692402,394.9851402411355,0.379206342389686,185.0,2.41495728493,9.29782962799,-174.306106567,0
36.4,13.972455927385063,0.3309992942133784,395.0603301714897,0.3994035473636875,185.0,2.53577423096,-1.4379196167,-174.742858887,0
36.5,13.607384797563084,-0.18916293362183234,395.13377492804125,0.4196635762094055,185.0,2.53577423096,-1.4379196167,-174.742858887,0
36.6,13.242313667741104,-0.709325161457043,395.20721968459276,0.4399236050551235,185.0,2.53577423096,-1.4379196167,-174.742858887,0
36.7,12.878256306201433,-1.2242591483068872,395.2798672618829,0.46009862511972777,185.0,2.53577423096,-1.4379196167,-174.742858887,0
36.800000000000004,12.625037660900496,-1.1675718592518969,395.26535653338584,0.470979347530611,185.0,0.2942012173231041,-7.6147454722430385,-174.7542819127444,0
36.9,12.371819015599577,-1.1108845701969103,395.2508458048888,0.48186006994149344,185.0,-0.192581027746,-8.95392513275,-174.756820679,0
37.0,12.175934899809413,-1.1386873291968047,395.2090117919202,0.4925815207342011,184.84510936509696,-0.38118454993371337,-9.076305511728133,-174.74312769994367,0
37.1,12.150330458985147,-1.4174198166413468,395.08602947201484,0.5028299455928747,184.23020402018227,-1.94381248951,-10.0858259201,-174.631393433,0
37.2,12.124726018160882,-1.6961523040858886,394.9630471521095,0.5130783704515485,183.61529867526758,-1.94381248951,-10.0858259201,-174.631393433,0
37.300000000000004,12.099121577336616,-1.9748847915304304,394.84006483220406,0.5233267953102221,183.0003933303529,-1.94381248951,-10.0858259201,-174.631393433,0
37.4,12.073517136512352,-2.2536172789749527,394.7170825122987,0.5335752201688951,182.38548798543826,-1.94381248951,-10.0858259201,-174.631393433,0
37.5,12.219214597958292,-2.5160957048639094,394.5664957493961,0.5355006407039059,181.8500207219866,-2.8416869159326197,-10.139279031792373,-175.54527165584824,0
37.6,12.652749149668798,-2.751262573081071,394.36952548201737,0.5234409897654911,181.4480325730193,-5.23297071457,-10.273651123,-177.976654053,0
37.7,13.086283701379307,-2.986429441298233,394.1725552146387,0.5113813388270764,181.046044424052,-5.23297071457,-10.273651123,-177.976654053,0
37.800000000000004,13.519818253089813,-3.221596309515394,393.97558494725996,0.49932168788866155,180.64405627508472,-5.23297071457,-10.273651123,-177.976654053,0
37.9,13.953352804800291,-3.4567631777325394,393.7786146798813,0.4872620369502476,180.2420681261175,-5.23297071457,-10.273651123,-177.976654053,0
38.0,14.310642335297874,-3.350322705921667,393.59278494073385,0.47398052269365515,179.79935112206095,-4.9998668491815055,-9.52821031764491,-179.22521523623973,0
38.1,14.55252111808607,-2.7267972112664576,393.42381842324465,0.4588494954209175,179.29498356634323,-4.85538816452,-9.08934211731,-179.992828369,0
38.2,14.794399900874263,-2.103271716611248,393.25485190575546,0.4437184681481799,178.7906160106255,-4.85538816452,-9.08934211731,-179.992828369,0
38.300000000000004,15.036278683662458,-1.4797462219560389,393.08588538826626,0.42858744087544226,178.2862484549078,-4.85538816452,-9.08934211731,-179.992828369,0
38.400000000000006,15.203731868925546,-0.9694329583900626,392.95230712392737,0.41855069231399655,177.8550704044803,-2.12057852745,-1.91638946533,178.978927612,0
38.5,15.273512671448906,-0.6076936899745863,392.86517060975416,0.4151994169851216,177.51994255198136,-2.12057852745,-1.91638946533,178.978927612,0
38.6,15.34329347397227,-0.2459544215590843,392.77803409558095,0.4118481416562464,177.18481469948242,-2.12057852745,-1.91638946533,178.978927612,0
38.7,15.429695917139489,-0.25937987824544206,392.71688912153877,0.4086905432363687,177.0,-1.1415288756006312,-2.225832258922976,178.21766271908297,0
38.800000000000004,15.536535184755204,-0.7340820398285497,392.6877015549623,0.40577107660346196,177.0,-0.0404749549925,-2.57408809662,177.363204956,0
38.900000000000006,15.643374452370919,-1.2087842014116574,392.65851398838583,0.40285160997055525,177.0,-0.0404749549925,-2.57408809662,177.363204956,0
39.0,15.742745920203928,-1.6516033285009817,392.63056477196545,0.40014000156613017,176.99300021301815,-0.0404749549925,-2.57408809662,177.363204956,0
39.1,15.528318612326245,-0.7546895381036199,392.65465133237245,0.4061626468263519,176.691867662832,1.47317588329,-5.87187004089,177.261535645,0
39.2,15.313891304448562,0.1422242522937418,392.67873789277945,0.4121852920865736,176.39073511264587,1.47317588329,-5.87187004089,177.261535645,0
39.300000000000004,15.09946399657088,1.0391380426911037,392.70282445318645,0.41820793734679534,176.08960256245973,1.47317588329,-5.87187004089,177.261535645,0
39.400000000000006,14.942773034934643,1.0738435372887225,392.7303723452725,0.42849237209449786,175.83015233634512,2.40300393105,-8.34234142303,176.774887085,0
39.5,14.810538769135723,0.7433238763041656,392.7593864322526,0.4405820698351519,175.58835843918055,2.40300393105,-8.34234142303,176.774887085,0
39.6,14.678304503336797,0.4128042153195851,392.78840051923277,0.45267176757580674,175.34656454201595,2.40300393105,-8.34234142303,176.774887085,0
39.7,14.546070237537869,0.08228455433500459,392.8174146062129,0.4647614653164616,175.10477064485136,2.40300393105,-8.34234142303,176.774887085,0
39.800000000000004,14.503375920151298,-0.04349507162472936,392.83721118522936,0.4736115358459081,174.81942324497498,2.5256174511314637,-1.5386781560261573,175.9694482203244,0
39.900000000000006,14.529145589546133,-0.012726483071186609,392.84995987830695,0.479984524374554,174.5007739894821,2.56790137291,0.801180005074,175.685058594,0
40.0,14.554915258940964,0.018042105482353958,392.86270857138453,0.48635751290319956,174.1821247339892,2.56790137291,0.801180005074,175.685058594,0
40.1,14.643822731501526,0.05754742250173095,392.85239917650136,0.4878005661345197,174.0,2.1668492666235766,4.767858317481571,175.06942019401254,0
40.2,14.816956506264583,0.10870760071564398,392.81133011961833,0.4826670487635751,174.0,2.02581071854,6.01248121262,174.840667725,0
40.300000000000004,14.990090281027642,0.15986777892955698,392.77026106273524,0.47753353139263044,174.0,2.02581071854,6.01248121262,174.840667725,0
40.400000000000006,15.1632240557907,0.21102795714347,392.72919200585216,0.47240001402168574,174.0,2.02581071854,6.01248121262,174.840667725,0
