t_sec,airspeed,climb,altitude,throttle,heading,pitch,roll,yaw,is_boundary
0.0,22.8210296631,-0.0123667707667,419.649993896,0.0,274.0,-7.14274072647,-13.5468463898,-84.1689682007,0
0.1,22.663273229546345,0.605028560702554,419.89480829503884,0.0,274.92966487737993,-7.14274072647,-13.5468463898,-84.1689682007,0
0.2,22.505516795992694,1.222423892171808,420.1396226940777,0.0,275.85932975475987,-2.222076650235441,9.176606782459425,-85.15744234778205,0
0.30000000000000004,22.34776036243904,1.8398192236410622,420.3844370931165,0.0,276.7889946321398,-0.723178267479,16.0395507812,-85.4593734741,0
0.4,22.18000033411539,1.9625923375233567,420.6763013134814,0.0,278.49019273487676,-0.723178267479,16.0395507812,-85.4593734741,0
0.5,22.009303153821428,1.9401395946664581,420.9819798154709,0.0,280.4179204387341,0.9802977154005089,22.24477620814425,-83.63869282001404,0
0.6000000000000001,21.838605973527468,1.9176868518095596,421.28765831746034,0.0,282.3456481425914,1.88362193108,25.5312290192,-82.6727523804,0
0.7000000000000001,21.670176379741736,1.965161730870129,421.59334913038157,0.0,284.21413070644354,1.88362193108,25.5312290192,-82.6727523804,0
0.8,21.5154692343744,2.435808198445681,421.8991144437133,0.0,285.72408742142034,1.88362193108,25.5312290192,-82.6727523804,0
0.9,21.36076208900706,2.9064546660212325,422.20487975704503,0.0,287.2340441363972,3.21731877327,32.331829071,-75.3615341187,0
1.0,21.21748552792533,3.0450423821041563,422.49454481386033,0.0,288.1964378707495,3.21731877327,32.331829071,-75.3615341187,0
1.1,21.085976860713345,2.8417724950718375,422.7676345053902,0.0,288.59511037423675,3.2845357043884853,32.44856081995942,-75.15489147806632,0
1.2000000000000002,20.954468193501356,2.638502608039518,423.04072419692005,0.0,288.993782877724,4.4009552002,34.386844635,-71.7169723511,0
1.3,20.82295952628937,2.4352327210072,423.31381388844994,0.0,289.3924553812113,4.4009552002,34.386844635,-71.7169723511,0
1.4000000000000001,20.69145085907738,2.2319628339748805,423.5869035799798,0.0,289.79112788469854,4.4009552002,34.386844635,-71.7169723511,0
1.5,20.55079432030735,2.1245803649123287,423.8381684369124,0.0,290.5576692362944,4.4009552002,34.386844635,-71.7169723511,0
1.6,20.40007070369255,2.1227203766706824,424.0654154327015,0.0,291.7290440299731,4.4009552002,34.386844635,-71.7169723511,0
1.7000000000000002,20.249347087077748,2.120860388429036,424.29266242849064,0.0,292.9004188236518,6.15081548691,29.4934234619,-69.029838562,0
1.8,20.098623470462947,2.11900040018739,424.5199094242798,0.0,294.07179361733057,6.15081548691,29.4934234619,-69.029838562,0
1.9000000000000001,19.954919393926154,2.0807171116669796,424.71854795460104,0.0,295.2395666038262,6.15081548691,29.4934234619,-69.029838562,0
2.0,19.838009841714165,1.903401209262593,424.80798414184056,0.0,296.39359101005755,6.15081548691,29.4934234619,-69.029838562,0
2.1,19.721100289502175,1.726085306858206,424.8974203290801,0.0,297.5476154162889,1.17646002769,20.1842155457,-64.8902130127,0
2.2,19.60419073729019,1.5487694044538194,424.9868565163196,0.0,298.7016398225203,1.17646002769,20.1842155457,-64.8902130127,0
2.3000000000000003,19.516492591960674,1.1408277059994019,424.9524290115254,0.0,299.31973654569487,1.17646002769,20.1842155457,-64.8902130127,0
2.4000000000000004,19.43898012490195,0.6524694713281122,424.8748116760748,0.0,299.75096151092947,-4.4235075186871775,13.368140174333767,-60.71360003431895,0
2.5,19.361467657843225,0.16411123665682448,424.79719434062423,0.0,300.18218647616413,-4.54840803146,13.2571210861,-60.6198959351,0
2.6,19.2839551907845,-0.3242469980144653,424.7195770051736,0.0,300.6134114413988,-4.54840803146,13.2571210861,-60.6198959351,0
2.7,19.214850485899596,-0.8034528946724502,424.6279663711021,0.0,301.10390365870035,-4.54840803146,13.2571210861,-60.6198959351,0
2.8000000000000003,19.218564023005683,-1.2033919007526843,424.4151620847642,0.0,302.1076997747,-4.54840803146,13.2571210861,-60.6198959351,0
2.9000000000000004,19.22227756011177,-1.6033309068329187,424.2023577984263,0.0,303.11149589069964,-9.941737622743666,8.749114385763914,-58.57104387716302,0
3.0,19.225991097217854,-2.0032699129131513,423.9895535120884,0.0,304.11529200669924,-10.3344898224,8.4305562973,-58.4214096069,0
3.1,19.22970463432394,-2.4032089189933856,423.77674922575045,0.0,305.1190881226989,-10.3344898224,8.4305562973,-58.4214096069,0
3.2,19.237832710359108,-2.755876429792776,423.5470577436203,0.0,306.03354580885866,-10.3344898224,8.4305562973,-58.4214096069,0
3.3000000000000003,19.277606991120116,-2.769671990114986,423.19630817051586,0.0,306.3075691742391,-10.3344898224,8.4305562973,-58.4214096069,0
3.4000000000000004,19.317381271881125,-2.7834675504371966,422.8455585974114,0.0,306.58159253961963,-16.4739627838,4.58817625046,-53.9340782166,0
3.5,19.35715555264213,-2.7972631107594066,422.4948090243069,0.0,306.8556159050001,-16.4739627838,4.58817625046,-53.9340782166,0
3.6,19.43158154649969,-3.1583372798968528,422.1130257306455,0.0,306.85190278393003,-16.4739627838,4.58817625046,-53.9340782166,0
3.7,19.54460044681958,-3.9061885999656636,421.69667902387687,0.0,306.5388641696904,-16.4739627838,4.58817625046,-53.9340782166,0
3.8000000000000003,19.657619347139473,-4.654039920034474,421.28033231710816,0.0,306.2258255554507,-18.9278755188,3.02029657364,-52.0210990906,0
3.9000000000000004,19.779366063838463,-5.2543231498691645,420.84003028719974,0.0,306.0,-18.9278755188,3.02029657364,-52.0210990906,0
4.0,19.923712194077712,-5.4725002317637506,420.3376994254952,0.0,306.0,-18.9278755188,3.02029657364,-52.0210990906,0
4.1000000000000005,20.06805832431696,-5.690677313658339,419.83536856379067,0.0,306.0,-20.1249809265,3.21324634552,-53.5625419617,0
4.2,20.21240445455621,-5.908854395552926,419.3330377020862,0.0,306.0,-20.1249809265,3.21324634552,-53.5625419617,0
4.3,20.35675058479546,-6.127031477447512,418.83070684038165,0.0,306.0,-20.1249809265,3.21324634552,-53.5625419617,0
4.4,20.536853778729267,-6.004421628173446,418.2979664115228,0.0,306.0,-20.1249809265,3.21324634552,-53.5625419617,0
4.5,20.74733357092317,-5.592304010900563,417.7393922281756,0.0,306.0,-20.19469835796916,3.1706377315007876,-53.53504157647582,0
4.6000000000000005,20.95781336311708,-5.180186393627676,417.18081804482836,0.0,306.0,-21.0245628357,2.71482014656,-53.1277160645,0
4.7,21.14520125046909,-5.221026662996331,416.6500810526675,0.0,305.2684970620507,-21.0245628357,2.71482014656,-53.1277160645,0
4.800000000000001,21.32241469056447,-5.46144319766933,416.1316093125694,0.0,304.2146890517744,-21.116574649336787,5.683674499418566,-53.33108944511378,0
4.9,21.499628130659854,-5.701859732342328,415.61313757247143,0.0,303.16088104149816,-21.1839828491,7.86098241806,-53.484375,0
5.0,21.676841570755233,-5.942276267015325,415.0946658323734,0.0,302.10707303122194,-21.1839828491,7.86098241806,-53.484375,0
5.1000000000000005,21.854055010850615,-6.182692801688324,414.57619409227533,0.0,301.0532650209457,-21.1839828491,7.86098241806,-53.484375,0
5.2,21.99029703762103,-6.1293746631344,414.0214917837696,0.0,301.38576488534335,-21.1839828491,7.86098241806,-53.484375,0
5.300000000000001,22.124357905548504,-6.060419231941642,413.46486070058273,0.0,301.7920663942171,-19.3597297668,8.55795860291,-58.0268630981,0
5.4,22.25841877347597,-5.991463800748884,412.90822961739593,0.0,302.1983679030909,-19.3597297668,8.55795860291,-58.0268630981,0
5.5,22.39247964140344,-5.922508369556126,412.35159853420913,0.0,302.6046694119647,-19.3597297668,8.55795860291,-58.0268630981,0
5.6000000000000005,22.526185720229723,-5.860634384000252,411.7963571791277,0.0,303.0162386182597,-19.3597297668,8.55795860291,-58.0268630981,0
5.7,22.64710718543373,-6.053936067741633,411.2911938473233,0.0,303.6176261588377,-19.3597297668,8.55795860291,-58.0268630981,0
5.800000000000001,22.768028650637735,-6.2472377514830155,410.786030515519,0.0,304.2190136994157,-17.7030391693,1.09027290344,-56.3050460815,0
5.9,22.88895011584174,-6.440539435224397,410.28086718371463,0.0,304.82040123999377,-17.7030391693,1.09027290344,-56.3050460815,0
6.0,22.981469821350288,-6.391084181281435,409.78448327976514,0.0,304.8237154440131,-17.7030391693,1.09027290344,-56.3050460815,0
6.1000000000000005,23.06189598369635,-6.2382623917660505,409.291837679035,0.0,304.57236846550137,-16.14919717303937,0.5415225215801286,-55.02013649915011,0
6.2,23.142322146042407,-6.085440602250666,408.7991920783048,0.0,304.32102148698965,-15.6151533127,0.359219431877,-54.5777587891,0
6.300000000000001,23.222748308388464,-5.932618812735281,408.30654647757467,0.0,304.06967450847793,-15.6151533127,0.359219431877,-54.5777587891,0
6.4,23.249769118167123,-5.736132990142499,407.9302190664612,0.0,303.6781672281232,-15.6151533127,0.359219431877,-54.5777587891,0
6.5,23.2563080591765,-5.5229012618972835,407.5985016762665,0.0,303.2329060678481,-12.928237483398746,0.984536527940748,-55.28340766571646,0
6.6000000000000005,23.262847000185882,-5.309669533652066,407.2667842860718,0.0,302.78764490757305,-11.6239624023,1.28858864307,-55.6344947815,0
6.7,23.26938594119526,-5.09643780540685,406.9350668958771,0.0,302.34238374729796,-11.6239624023,1.28858864307,-55.6344947815,0
6.800000000000001,23.25807569779009,-4.785131271102082,406.63686160688553,0.0,302.0,-11.6239624023,1.28858864307,-55.6344947815,0
6.9,23.187362029772885,-4.147424425567983,406.45018710446504,0.0,302.0,-11.6239624023,1.28858864307,-55.6344947815,0
7.0,23.116648361755676,-3.509717580033884,406.26351260204456,0.0,302.0,-7.0621342659,1.01568984985,-57.8956832886,0
7.1000000000000005,23.04593469373847,-2.872010734499779,406.07683809962407,0.0,302.0,-7.0621342659,1.01568984985,-57.8956832886,0
7.2,22.972006988751794,-2.2686381009701915,405.89941257918684,0.0,302.02521605764747,-7.0621342659,1.01568984985,-57.8956832886,0
7.300000000000001,22.87105255498147,-1.9539807014785828,405.7997614371909,0.0,302.26247309600086,-7.0621342659,1.01568984985,-57.8956832886,0
7.4,22.770098121211145,-1.6393233019869766,405.700110295195,0.0,302.4997301343543,-4.12699174881,3.26626873016,-57.7873153687,0
7.5,22.669143687440823,-1.3246659024953704,405.600459153199,0.0,302.7369871727077,-4.12699174881,3.26626873016,-57.7873153687,0
7.6000000000000005,22.568189253670496,-1.0100085030037615,405.50080801120305,0.0,302.97424421106115,-4.12699174881,3.26626873016,-57.7873153687,0
7.7,22.47417058946675,-1.018652545636118,405.4377627461341,0.0,303.60260222764197,-4.12699174881,3.26626873016,-57.7873153687,0
7.800000000000001,22.380996535957163,-1.0666669642356474,405.3791752005475,0.0,304.27858698059856,-3.10930641296635,7.0653178799395135,-57.05401130918915,0
7.9,22.28782248244758,-1.1146813828351767,405.3205876549609,0.0,304.95457173355516,-2.3190612793,10.0160331726,-56.4843215942,0
8.0,22.194648428938,-1.1626958014347057,405.2620001093743,0.0,305.63055648651175,-2.3190612793,10.0160331726,-56.4843215942,0
8.1,22.131681407583606,-1.000379232383004,405.19067070234263,0.0,306.6047902496428,-2.3190612793,10.0160331726,-56.4843215942,0
8.200000000000001,22.105119902533712,-0.5845717489991823,405.1039848034119,0.0,307.9384737312011,-2.305990601548387,15.0577349378261,-54.987054182498305,0
8.3,22.078558397483818,-0.16876426561536784,405.0172989044811,0.0,309.27215721275945,-2.29203891754,20.4379234314,-53.3875656128,0
8.4,22.051996892433923,0.24704321776844673,404.93061300555036,0.0,310.60584069431775,-2.29203891754,20.4379234314,-53.3875656128,0
8.5,22.02543538738403,0.6628507011522611,404.84392710661956,0.0,311.9395241758761,-2.29203891754,20.4379234314,-53.3875656128,0
8.6,22.034623720654707,0.20468175243480757,404.70085245050194,0.0,313.1842002214548,-2.29203891754,20.4379234314,-53.3875656128,0
8.700000000000001,22.045510128015746,-0.29500001996666625,404.55509939660504,0.0,314.4246485214551,-3.6060628891,33.5984039307,-47.9283103943,0
8.8,22.056396535376784,-0.7946817923681312,404.40934634270815,0.0,315.66509682145545,-3.6060628891,33.5984039307,-47.9283103943,0
8.9,22.093668902608957,-1.0001105585966472,404.21598566153796,0.0,317.5248313511307,-3.6060628891,33.5984039307,-47.9283103943,0
9.0,22.14069974749224,-1.0967139723069061,404.0050179662952,0.0,319.6136002180608,-4.01981832810265,35.94898514396407,-46.00595291773125,0
9.1,22.187730592375516,-1.193317386017165,403.7940502710525,0.0,321.7023690849909,-4.49245786667,38.6230773926,-43.8087501526,0
9.200000000000001,22.234761437258797,-1.2899207997274258,403.5830825758098,0.0,323.79113795192103,-4.49245786667,38.6230773926,-43.8087501526,0
9.3,22.281792282142074,-1.3865242134376847,403.37211488056704,0.0,325.87990681885117,-4.49245786667,38.6230773926,-43.8087501526,0
9.4,22.351170165521495,-1.6083341324880054,403.06826719369315,0.0,327.9740525792225,-4.49245786667,38.6230773926,-43.8087501526,0
9.5,22.421911263249342,-1.8377819004920266,402.7587536402976,0.0,330.0685263409212,-7.27454662323,41.6299514771,-33.9225730896,0
9.600000000000001,22.49265236097719,-2.0672296684960516,402.44924008690197,0.0,332.16300010261995,-7.27454662323,41.6299514771,-33.9225730896,0
9.700000000000001,22.563393458705036,-2.2966774365000733,402.1397265335064,0.0,334.2574738643186,-7.27454662323,41.6299514771,-33.9225730896,0
9.8,22.640583818153562,-2.5351627195922464,401.8004985645612,0.0,336.69303267577783,-7.27454662323,41.6299514771,-33.9225730896,0
9.9,22.7213162862543,-2.778611649962929,401.44495063637544,0.0,339.3159246050764,-7.533651242115806,42.800855398897276,-30.096747696305812,0
10.0,22.802048754355038,-3.022060580333612,401.0894027081896,0.0,341.938816534375,-7.92524766922,44.4460411072,-24.2283000946,0
10.100000000000001,22.87521565523609,-3.266931108669641,400.7292459532004,0.0,344.66921310527255,-7.92524766922,44.4460411072,-24.2283000946,0
10.200000000000001,22.92062078454028,-3.5170181762078103,400.352177155368,0.0,347.7940968595969,-7.92524766922,44.4460411072,-24.2283000946,0
10.3,22.96602591384447,-3.7671052437459793,399.97510835753565,0.0,350.9189806139212,-8.10558891296,43.9209480286,-15.213640213,0
10.4,23.01143104314866,-4.017192311284148,399.59803955970324,0.0,354.0438643682455,-8.10558891296,43.9209480286,-15.213640213,0
10.5,23.05683617245285,-4.267279378822318,399.22097076187083,0.0,357.1687481225698,-8.10558891296,43.9209480286,-15.213640213,0
10.600000000000001,23.093159599949924,-4.349515974730929,398.83081084105913,0.0,291.8957413899549,-8.10558891296,43.9209480286,-15.213640213,0
10.700000000000001,23.116627064493713,-4.19414518264201,398.4221192622374,0.0,129.79938977565533,-8.020954640102909,43.692108990404755,-9.314266849717846,0
10.8,23.12824170883394,-4.039091360914667,398.0309331764601,0.002342276039749907,6.644125925329049,-7.8899230957,43.3571128845,-0.169818073511,0
10.9,23.1015407313109,-3.88506218280019,397.69633563589855,0.012256232194202155,9.370463928743888,-7.8899230957,43.3571128845,-0.169818073511,0
11.0,23.07483975378786,-3.731033004685713,397.361738095337,0.0221701883486544,12.096801932158726,-7.00048685074,43.8113937378,6.83161783218,0
11.100000000000001,23.04813877626482,-3.577003826571233,397.0271405547754,0.03208414450310683,14.823139935573613,-7.00048685074,43.8113937378,6.83161783218,0
11.200000000000001,23.00802344493157,-3.4392071347185484,396.7083175375052,0.040527170009784126,17.63260498096435,-7.00048685074,43.8113937378,6.83161783218,0
11.3,22.914764631344426,-3.365718486160006,396.4519882572022,0.043142827468570774,20.771393416998123,-7.00048685074,43.8113937378,6.83161783218,0
11.4,22.82150581775728,-3.2922298376014636,396.1956589768992,0.04575848492735742,23.910181853031897,-5.46712207794,41.8935394287,17.6944732666,0
11.5,22.728247004170136,-3.218741189042921,395.9393296965962,0.04837414238614407,27.04897028906567,-5.46712207794,41.8935394287,17.6944732666,0
11.600000000000001,22.608926044198164,-3.1352216137235085,395.69540961735356,0.05422945889043027,30.099659101403148,-5.46712207794,41.8935394287,17.6944732666,0
11.700000000000001,22.44679502452888,-3.0352250926026496,395.47187307177506,0.06540628633586906,33.005634193924024,-5.352036734708416,42.04922819206125,19.341215758637922,0
11.8,22.284664004859597,-2.9352285714817903,395.2483365261965,0.07658311378130787,35.91160928644489,-4.61640977859,42.8588104248,29.8833713531,0
11.9,22.12253298519031,-2.8352320503609314,395.024799980618,0.08775994122674667,38.81758437896576,-4.61640977859,42.8588104248,29.8833713531,0
12.0,21.96040196552103,-2.7352355292400725,394.80126343503946,0.09893676867218547,41.72355947148663,-4.61640977859,42.8588104248,29.8833713531,0
12.100000000000001,21.75147004062972,-2.44519456439254,394.6479082252402,0.09718957205746116,44.810430018878854,-4.61640977859,42.8588104248,29.8833713531,0
12.200000000000001,21.53761798000353,-2.135174403536743,394.50193111414336,0.09408368478675025,47.91631793757117,-2.478779923842568,43.9671719235225,39.87780273316225,0
12.3,21.323765919377347,-1.8251542426809455,394.3559540030465,0.09097779751603932,51.02220585626348,-1.89005053043,44.272102356,42.6485443115,0
12.4,21.113493360183597,-1.6154481580085354,394.2372903999041,0.10156698623565755,54.1481541419413,-1.89005053043,44.272102356,42.6485443115,0
12.5,20.904865472657665,-1.4518333299248967,394.1311765201043,0.11844864442206351,57.28331955404017,-1.2137766621692472,45.69324028019478,47.3614746068688,0
12.600000000000001,20.696237585131733,-1.2882185018412553,394.0250626403045,0.1353303026084698,60.4184849661391,-0.489090591669,47.2144088745,52.4430923462,0
12.700000000000001,20.4876096976058,-1.1246036737576168,393.9189487605047,0.15221196079487573,63.553650378237975,-0.489090591669,47.2144088745,52.4430923462,0
12.8,20.273029289865235,-1.0175360039918333,393.81823320619105,0.17009979102575035,66.89371153015264,-0.489090591669,47.2144088745,52.4430923462,0
12.9,20.05335097540788,-0.9588969204062125,393.7221409305498,0.1888493354614966,70.40925119042738,-0.489090591669,47.2144088745,52.4430923462,0
13.0,19.833672660950526,-0.9002578368205918,393.6260486549085,0.20759887989724285,73.92479085070211,0.0343278907239,49.2475166321,65.564994812,0
13.100000000000001,19.61399434649317,-0.8416187532349699,393.5299563792673,0.22634842433298946,77.4403305109769,0.0343278907239,49.2475166321,65.564994812,0
13.200000000000001,19.387098020787075,-0.8445844644586757,393.42115377822336,0.2421184615240735,81.05923287582894,0.0343278907239,49.2475166321,65.564994812,0
13.3,19.140872999908247,-1.0125180953785056,393.2783149313509,0.24990984845923564,84.95492425363129,0.0343278907239,49.2475166321,65.564994812,0
13.4,18.89464797902942,-1.1804517262983354,393.13547608447846,0.25770123539439777,88.85061563143364,-1.87659847736,50.7755126953,81.3354873657,0
13.5,18.64842295815059,-1.3483853572181652,392.992637237606,0.2654926223295599,92.74630700923599,-1.87659847736,50.7755126953,81.3354873657,0
13.600000000000001,18.40579766512452,-1.5005922753760168,392.8542943586426,0.26876205728259733,96.23795093757126,-1.87659847736,50.7755126953,81.3354873657,0
13.700000000000001,18.168113108639044,-1.6312137994194644,392.72212233309983,0.26582497488023893,99.17502738765053,-1.87659847736,50.7755126953,81.3354873657,0
13.8,17.93042855215357,-1.761835323462912,392.58995030755705,0.2628878924778805,102.1121038377298,-0.430405437946,49.8353614807,95.1136322021,0
13.9,17.691708684026782,-1.8874788531815898,392.4579729356715,0.259999990463,105.06179263958228,-0.430405437946,49.8353614807,95.1136322021,0
14.0,17.39219469189441,-1.7208115537706048,392.3374257439397,0.259999990463,108.752086344449,-0.430405437946,49.8353614807,95.1136322021,0
14.100000000000001,17.09268069976203,-1.5541442543596165,392.21687855220796,0.259999990463,112.44238004931577,1.77936851978,47.3935317993,106.451576233,0
14.200000000000001,16.79316670762966,-1.3874769549486312,392.0963313604762,0.259999990463,116.13267375418248,1.77936851978,47.3935317993,106.451576233,0
14.3,16.493652715497287,-1.220809655537646,391.97578416874444,0.259999990463,119.82296745904918,1.77936851978,47.3935317993,106.451576233,0
14.4,16.24382679620801,-1.0530015613689028,391.9023879279246,0.24591510645146764,122.8169769701983,1.77936851978,47.3935317993,106.451576233,0
14.5,15.996504649163365,-0.885135982776074,391.831367614273,0.23112048789723483,125.77590085739672,3.26388573647,45.7418479919,120.25075531,0
14.600000000000001,15.749182502118716,-0.7172704041832423,391.7603473006214,0.2163258693430018,128.7348247445952,3.26388573647,45.7418479919,120.25075531,0
14.700000000000001,15.49221983290208,-0.5893876129822921,391.72553253499854,0.2085172898932241,131.77924595659792,3.26388573647,45.7418479919,120.25075531,0
14.8,15.228056006517118,-0.4913706662760756,391.7177621386607,0.20592705491460167,134.88753089531622,3.380997091821023,43.029769877604714,123.88055201074121,0
14.9,14.963892180132158,-0.3933537195698591,391.70999174232287,0.2033368199359792,137.99581583403452,3.60144424438,38.3868103027,130.730224609,0
15.0,14.699728353747195,-0.29533677286364257,391.70222134598504,0.20074658495735676,141.1041007727528,3.60144424438,38.3868103027,130.730224609,0
15.100000000000001,14.433662230038365,-0.007751487917634692,391.7652290264263,0.20362469451460866,143.08740768721583,3.60144424438,38.3868103027,130.730224609,0
15.200000000000001,14.166825776502508,0.35659895007513465,391.8568980853802,0.20871719445533193,144.61515798812152,3.974311650599706,35.58543186974862,134.0670202327738,0
15.3,13.89998932296665,0.7209493880679039,391.94856714433405,0.2138096943960552,146.14290828902722,4.72237682343,29.9686393738,142.024703979,0
15.4,13.633152869430793,1.0852998260606732,392.040236203288,0.21890219433677846,147.6706585899329,4.72237682343,29.9686393738,142.024703979,0
15.5,13.377941359608322,1.0317617990163752,392.1853453229765,0.2239792612362859,148.59688948875402,4.72237682343,29.9686393738,142.024703979,0
15.600000000000001,13.125924565198744,0.863381519567082,392.34514060286546,0.229052086895934,149.35781349643,6.354842390183038,24.786600157669174,146.1467343398192,0
15.700000000000001,12.87390777078917,0.6950012401177916,392.5049358827544,0.23412491255558204,150.11873750410595,7.52282905579,21.1561813354,149.095550537,0
15.8,12.621890976379596,0.5266209606685014,392.66473116264336,0.2391977382152301,150.8796615117819,7.52282905579,21.1561813354,149.095550537,0
15.9,12.431014375412024,0.8239122913565391,392.8082469047029,0.25182492556915537,150.60583574911365,7.52282905579,21.1561813354,149.095550537,0
16.0,12.251623389127715,1.2086833040977056,392.94870442126125,0.26587125281639473,150.13762497575604,8.086477147279348,17.631887808885367,149.69124891514315,0
16.1,12.072232402843404,1.5934543168388788,393.08916193781965,0.2799175800636344,149.66941420239846,9.38536930084,9.65256977081,151.065444946,0
16.2,11.8928414165591,1.9782253295800385,393.229619454378,0.2939639073108735,149.20120342904087,9.38536930084,9.65256977081,151.065444946,0
16.3,11.75080540864528,1.8594675136921381,393.34567092998725,0.30506274111482395,148.83124236691117,9.38536930084,9.65256977081,151.065444946,0
16.400000000000002,11.636918250940512,1.3612754646360459,393.44333122935063,0.31394049074079855,148.53531739113677,9.289796471930673,3.206877750343348,150.3191307091892,0
16.5,11.523031093235751,0.8630834155799714,393.540991528714,0.3228182403667728,148.23939241536237,9.18453025818,-3.89709806442,149.496643066,0
16.6,11.42891908891948,0.42464844401910623,393.6329322325749,0.3319167004158244,147.76041403716332,9.18453025818,-3.89709806442,149.496643066,0
16.7,11.418546821479277,0.23926040704459742,393.7006527742449,0.3419497793975929,146.50627890279833,9.18453025818,-3.89709806442,149.496643066,0
16.8,11.408174554039071,0.053872370070082,393.76837331591486,0.3519828583793618,145.25214376843329,8.12658500671,-12.0655250549,148.384994507,0
16.900000000000002,11.397802286598868,-0.13151566690443334,393.8360938575849,0.3620159373611306,143.9980086340682,8.12658500671,-12.0655250549,148.384994507,0
17.0,11.414394636449094,-0.2987912032110597,393.8904131559617,0.36871418543428497,142.5713935724583,8.12658500671,-12.0655250549,148.384994507,0
17.1,11.536055852031739,-0.3954905514615234,393.89251389632784,0.36241811220098313,140.472702578079,8.12658500671,-12.0655250549,148.384994507,0
17.2,11.65771706761438,-0.4921898997119837,393.894614636694,0.3561220389676815,138.37401158369977,6.07602405548,-27.4152927399,143.334075928,0
17.3,11.779378283197024,-0.5888892479624475,393.89671537706016,0.34982596573437963,136.27532058932047,6.07602405548,-27.4152927399,143.334075928,0
17.400000000000002,11.901039498779669,-0.6855885962129111,393.8988161174263,0.3435298925010778,134.17662959494118,6.07602405548,-27.4152927399,143.334075928,0
17.5,12.029071886615878,-0.5997855140121556,393.92208160979027,0.3344778502264188,132.07964114497204,6.07602405548,-27.4152927399,143.334075928,0
17.6,12.165234437836641,-0.2810936448515764,393.9723551447699,0.3219089545851841,129.98482528800028,5.526557859118476,-27.206917103572273,141.08925104495174,0
17.7,12.3013969890574,0.03759822430899151,394.0226286797495,0.30934005894394984,127.8900094310286,3.70951509476,-26.5202903748,133.678619385,0
17.8,12.437559540278164,0.35629009346957063,394.07290221472914,0.29677116330271514,125.79519357405682,3.70951509476,-26.5202903748,133.678619385,0
17.900000000000002,12.573722091498926,0.67498196263015,394.1231757497088,0.28420226766148043,123.70037771708506,3.70951509476,-26.5202903748,133.678619385,0
18.0,12.686922040468303,0.929899416278436,394.1599416373313,0.280000001192,122.16840339714236,3.70951509476,-26.5202903748,133.678619385,0
18.1,12.788588673987444,1.1527852019256253,394.18992310408316,0.280000001192,120.91912478058669,2.5972203577440904,-24.092619359125866,126.24038174657338,0
18.2,12.890255307506584,1.3756709875728066,394.219904570835,0.280000001192,119.66984616403106,2.13733577728,-23.0895500183,123.11882019,0
18.3,12.991921941025726,1.598556773219996,394.24988603758686,0.280000001192,118.42056754747539,2.13733577728,-23.0895500183,123.11882019,0
18.400000000000002,13.061763210312327,1.3582224128023301,394.2756337861219,0.29304598349127614,117.47816083244585,2.13733577728,-23.0895500183,123.11882019,0
18.5,13.115453234753547,0.8828056840655403,394.2992329396236,0.3127127495410364,116.69149037801341,2.1564626124812647,-18.93016043946122,119.79814010988642,0
18.6,13.163596474931458,0.43877540209883725,394.32079508607427,0.33081749389528925,115.94550128334613,2.16274237633,-17.5679798126,118.704101562,0
18.7,13.171441912341182,0.22277000473089442,394.32755822385917,0.3375740337373237,115.4950653117745,2.16274237633,-17.5679798126,118.704101562,0
18.8,13.179287349750904,0.006764607362943931,394.3343213616441,0.3443305735793584,115.04462934020283,2.16126227379,-10.8778219223,116.360549927,0
18.900000000000002,13.187132787160628,-0.20924079000500656,394.341084499429,0.35108711342139315,114.59419336863117,2.16126227379,-10.8778219223,116.360549927,0
19.0,13.19497822457035,-0.42524618737294945,394.3478476372139,0.35784365326342765,114.14375739705953,2.16126227379,-10.8778219223,116.360549927,0
19.1,13.179831848899319,-0.4556148836097723,394.3322092761654,0.3622241405337599,113.77758716500888,2.16126227379,-10.8778219223,116.360549927,0
19.200000000000003,13.153907924756158,-0.3989652773917117,394.30607007994223,0.36549083909704627,113.45091699713491,2.076854941203121,-6.60587821910533,115.62550820841003,0
19.3,13.127984000612996,-0.3423156711736532,394.27993088371915,0.36875753766033254,113.12424682926094,1.91342544556,1.59509313107,114.200386047,0
19.400000000000002,13.124665305405548,-0.349397440055638,394.22457950099704,0.370000004768,113.13355882969225,1.91342544556,1.59509313107,114.200386047,0
19.5,13.135221630930516,-0.39559733303771966,394.1512977670953,0.370000004768,113.34909566262644,1.404700465183497,5.158337441925056,113.92186167425842,0
19.6,13.145777956455486,-0.441797226019803,394.0780160331936,0.370000004768,113.56463249556063,0.894613564014,8.72875595093,113.638771057,0
19.700000000000003,13.156334281980454,-0.4879971190018863,394.00473429929184,0.370000004768,113.78016932849484,0.894613564014,8.72875595093,113.638771057,0
19.8,13.166890607505422,-0.534197011983968,393.9314525653901,0.370000004768,113.99570616142901,0.894613564014,8.72875595093,113.638771057,0
19.900000000000002,13.188927525130095,-0.4589129182913103,393.8700879731258,0.3603378775322379,114.96621249321183,0.894613564014,8.72875595093,113.638771057,0
20.0,13.2111978034365,-0.38115947583131193,393.8089656150836,0.35047935270834446,115.95206474055428,-0.04559717304627853,8.58508935895064,114.36648179675278,0
20.1,13.233468081742906,-0.3034060333713108,393.74784325704144,0.3406208278844507,116.93791698789676,-0.560209453106,8.50662708282,114.76739502,0
20.200000000000003,13.25573836004931,-0.22565259091130968,393.6867208989993,0.3307623030605569,117.92376923523925,-0.560209453106,8.50662708282,114.76739502,0
20.3,13.278008638355715,-0.1478991484513113,393.6255985409571,0.32090377823666344,118.9096214825817,-0.560209453106,8.50662708282,114.76739502,0
20.400000000000002,13.267515095886981,-0.33461998973720575,393.6054145018236,0.31791726772085804,119.62481813373164,-0.560209453106,8.50662708282,114.76739502,0
20.5,13.25371476121691,-0.5480337343003828,393.58936229196087,0.3156243369763934,120.31269801310206,-0.7381364520106021,11.139976663809797,118.20842077770573,0
20.6,13.239914426546841,-0.7614474788635675,393.57331008209815,0.3133314062319287,121.00057789247253,-0.798128724098,12.0233278275,119.364456177,0
20.700000000000003,13.22611409187677,-0.9748612234267522,393.5572578722354,0.31103847548746394,121.68845777184299,-0.798128724098,12.0233278275,119.364456177,0
20.8,13.195269123661571,-0.7562679837217741,393.5732850772484,0.29924781309550524,122.17920314768791,-0.798128724098,12.0233278275,119.364456177,0
20.900000000000002,13.150314158491119,-0.18004797448060006,393.6158684675278,0.2795946780799402,122.50675538493259,-0.798128724098,12.0233278275,119.364456177,0
21.0,13.105359193320666,0.3961720347605535,393.65845185780717,0.25994154306437584,122.83430762217725,0.868828117847,17.6558494568,122.526924133,0
21.1,13.0597257308118,0.740090813049102,393.7134071148586,0.25115218698094827,123.460875231916,0.868828117847,17.6558494568,122.526924133,0
21.200000000000003,13.013397705501825,0.8462079309064522,393.7810271797932,0.25348384243080263,124.39353830133854,1.0130680279932738,17.706698210865287,122.68582952135712,0
21.3,12.96706968019185,0.9523250487637986,393.84864724472783,0.25581549788065694,125.32620137076103,1.94883012772,18.033159256,123.771156311,0
21.400000000000002,12.920741654881873,1.0584421666211488,393.9162673096625,0.2581471533305113,126.25886444018354,1.94883012772,18.033159256,123.771156311,0
21.5,12.8762988268925,1.1161572186928057,393.9880900717569,0.2593300064031097,127.13399693977094,1.94883012772,18.033159256,123.771156311,0
21.6,12.839150965430086,0.9865754579142454,394.07617560633076,0.25606744954615085,127.78650893346341,1.94883012772,18.033159256,123.771156311,0
21.700000000000003,12.802003103967674,0.8569936971356851,394.1642611409046,0.252804892689192,128.43902092715587,2.16008234024,16.7642688751,127.161743164,0
21.8,12.769096038127984,0.7664172158697972,394.2482185190331,0.2535997919438856,129.15427681335998,2.16008234024,16.7642688751,127.161743164,0
21.900000000000002,12.762179594837063,0.9148929284403362,394.3068756078909,0.27926167836042054,130.25407205788056,2.16008234024,16.7642688751,127.161743164,0
22.0,12.755263151546142,1.0633686410108698,394.36553269674874,0.3049235647769546,131.35386730240108,1.45566499233,9.78692531586,129.690490723,0
22.1,12.759507696122805,1.0609440815669857,394.402686689722,0.3208976290772639,132.2692903233354,1.45566499233,9.78692531586,129.690490723,0
22.200000000000003,12.779648371529934,0.8435985406872619,394.40921471754785,0.3230737312572926,132.92211965432008,1.3183419228559097,9.234375216195215,130.00292341584907,0
22.3,12.799789046937061,0.6262529998075459,394.4157427453738,0.3252498334373212,133.57494898530476,0.281349778175,5.06836080551,132.365142822,0
22.400000000000002,12.81992972234419,0.4089074589278221,394.4222707731997,0.32742593561734995,134.22777831628946,0.281349778175,5.06836080551,132.365142822,0
22.5,12.840070397751319,0.19156191804810618,394.4287988010256,0.32960203779737857,134.88060764727413,0.281349778175,5.06836080551,132.365142822,0
22.6,12.866159805867385,-0.1014163684572105,394.4132797012314,0.32257171809312374,135.0,0.281349778175,5.06836080551,132.365142822,0
22.700000000000003,12.893580642479796,-0.4113225617470029,394.3928260758142,0.3134808431335144,135.0,-0.8111833819670728,5.601666312417773,134.72553606308242,0
22.8,12.921001479092205,-0.7212287550367842,394.372372450397,0.30438996817390535,135.0,-1.28634190559,5.83245801926,135.751464844,0
22.900000000000002,12.948422315704615,-1.0311349483265766,394.35191882497986,0.295299093214296,135.0,-1.28634190559,5.83245801926,135.751464844,0
23.0,12.96562852439959,-1.0991696014907668,394.3507327944487,0.2891052513957504,135.26842233376928,-1.28634190559,5.83245801926,135.751464844,0
23.1,12.968559525952585,-0.8291825112345672,394.3764737269306,0.2869600884444265,135.9119718329196,-1.28634190559,5.83245801926,135.751464844,0
23.200000000000003,12.971490527505582,-0.5591954209783678,394.4022146594126,0.28481492549310267,136.5555213320699,0.400431901217,8.29240131378,135.895690918,0
23.3,12.97442152905858,-0.2892083307221779,394.42795559189454,0.28266976254177884,137.1990708312202,0.400431901217,8.29240131378,135.895690918,0
23.400000000000002,12.977352530611576,-0.019221240465978395,394.4536965243765,0.280524599590455,137.84262033037052,0.400431901217,8.29240131378,135.895690918,0
23.5,12.948178586649426,0.29630708203091666,394.5031593902543,0.281962167305844,138.0,0.400431901217,8.29240131378,135.895690918,0
23.6,12.908611842863342,0.6265777098897704,394.560301362926,0.28455951280763836,138.0,1.155541555986222,10.874202078884254,138.16618677828038,0
23.700000000000003,12.869045099077258,0.956848337748624,394.6174433355976,0.2871568583094327,138.0,1.37747812271,11.6309165955,138.834381104,0
23.8,12.829478355291174,1.287118965607466,394.6745853082693,0.289754203811227,138.0,1.37747812271,11.6309165955,138.834381104,0
23.900000000000002,12.797408933039762,1.188138047783935,394.7302051289395,0.291859791583231,138.74391846366726,1.37747812271,11.6309165955,138.834381104,0
24.0,12.766123140518967,1.0442912039689225,394.78566585231647,0.29391398020214526,139.56559224602884,2.2617828846,16.7632522583,138.777770996,0
24.1,12.73483734799817,0.9004443601539049,394.8411265756934,0.2959681688210596,140.38726602839048,2.2617828846,16.7632522583,138.777770996,0
24.200000000000003,12.703551555477372,0.7565975163388875,394.89658729907035,0.29802235743997385,141.20893981075213,2.2617828846,16.7632522583,138.777770996,0
24.3,12.67290809718065,0.6089346757328863,394.94891335415093,0.3001780748050476,142.0534189161599,2.2617828846,16.7632522583,138.777770996,0
24.400000000000002,12.658862658951959,0.3626658618772047,394.92023907429655,0.30495731136477017,143.48719125146536,2.2617828846,16.7632522583,138.777770996,0
24.5,12.644817220723269,0.11639704802153183,394.8915647944421,0.3097365479244926,144.92096358677074,1.01706945896,18.087146759,142.855178833,0
24.6,12.630771782494579,-0.12987176583414983,394.8628905145877,0.3145157844842152,146.3547359220762,1.01706945896,18.087146759,142.855178833,0
24.700000000000003,12.616726344265887,-0.3761405796898314,394.83421623473333,0.31929502104393775,147.78850825738166,1.01706945896,18.087146759,142.855178833,0
24.8,12.626017238629629,-0.24638806908205838,394.7651379298593,0.31797352109366783,148.81058947439203,1.01706945896,18.087146759,142.855178833,0
24.900000000000002,12.639346028772641,-0.051572425141200084,394.68906849896126,0.31559640805138506,149.7614355981271,-0.12006627724342311,21.80059936584891,146.87899293609777,0
25.0,12.652674818915653,0.14324321879965135,394.6129990680632,0.31321929500910234,150.71228172186213,-0.576438069344,23.2865943909,148.494628906,0
25.1,12.666003609058665,0.3380588627405096,394.53692963716514,0.31084218196681956,151.66312784559722,-0.576438069344,23.2865943909,148.494628906,0
25.200000000000003,12.687521003428849,0.20588249215809135,394.4607326950221,0.30523416921807195,152.95316659531312,-0.576438069344,23.2865943909,148.494628906,0
25.3,12.713531280047054,-0.10570621495181154,394.3844657906495,0.2978534426424504,154.42931185178526,-0.2262332916809489,24.96923901586646,150.91821882596972,0
25.400000000000002,12.73954155666526,-0.41729492206172547,394.30819888627684,0.2904727160668287,155.90545710825745,0.0789110958576,26.4163074493,153.083450317,0
25.5,12.765551833283464,-0.7288836291716284,394.2319319819042,0.2830919894912071,157.3816023647296,0.0789110958576,26.4163074493,153.083450317,0
25.6,12.794509226745697,-0.7980060401252022,394.14045308757545,0.2783463632179337,159.15754768579964,0.0789110958576,26.4163074493,153.083450317,0
25.700000000000003,12.825591359516046,-0.6923211062728726,394.0380070294982,0.2755005262945736,161.14963543200577,0.07746936260214578,26.411277697029323,153.1010443786254,0
25.8,12.856673492286395,-0.5866361724205469,393.93556097142095,0.2726546893712136,163.14172317821183,-0.308751016855,24.8957824707,158.600036621,0
25.900000000000002,12.88687294568207,-0.48633897930779446,393.83437360001835,0.2698438301308426,165.09370816898542,-0.308751016855,24.8957824707,158.600036621,0
26.0,12.904814336963899,-0.46086313416575053,393.7506660291902,0.2675187176100404,166.48877285422867,-0.308751016855,24.8957824707,158.600036621,0
26.1,12.922755728245725,-0.43538728902370577,393.66695845836205,0.2651936050892381,167.88383753947198,-0.980873942375,24.0715007782,165.776184082,0
26.200000000000003,12.940697119527554,-0.40991144388166095,393.58325088753384,0.2628684925684358,169.27890222471527,-0.980873942375,24.0715007782,165.776184082,0
26.3,12.958638510809381,-0.3844355987396171,393.4995433167057,0.26054338004763355,170.67396690995852,-0.980873942375,24.0715007782,165.776184082,0
26.400000000000002,12.95397426668478,-0.36883678801123615,393.4393423629448,0.259999990463,172.0602145364415,-0.980873942375,24.0715007782,165.776184082,0
26.5,12.94241575938125,-0.3562502737058861,393.3863104536099,0.259999990463,173.44377313771167,0.5919920355946021,21.806223458512832,170.33322145654398,0
26.6,12.930857252077722,-0.34366375940053556,393.33327854427506,0.259999990463,174.82733173898194,1.13557088375,21.0327777863,171.908187866,0
26.700000000000003,12.919298744774192,-0.33107724509518505,393.2802466349402,0.259999990463,176.21089034025218,1.13557088375,21.0327777863,171.908187866,0
26.8,12.890208478739357,-0.24485439544152016,393.2708812367974,0.2582598169490629,177.34803477540487,1.13557088375,21.0327777863,171.908187866,0
26.900000000000002,12.83784543147656,-0.06088195036763433,393.31948156688156,0.2542096254780437,178.15807323862325,1.4647718894727126,20.049764809961648,172.7416403693505,0
27.0,12.785482384213767,0.123090494706245,393.36808189696575,0.2501594340070247,178.96811170184156,3.18470335007,14.9467334747,177.095932007,0
27.1,12.733119336950969,0.30706293978013083,393.41668222705,0.2461092425360055,179.77815016505994,3.18470335007,14.9467334747,177.095932007,0
27.200000000000003,12.680756289688173,0.4910353848540166,393.4652825571342,0.2420590510649863,180.5881886282783,3.18470335007,14.9467334747,177.095932007,0
27.3,12.609260652789152,0.6625576606329399,393.55175936159964,0.24128682269630414,181.128682737005,3.18470335007,14.9467334747,177.095932007,0
27.400000000000002,12.51797977738947,0.8212050682650173,393.6774046787153,0.2439043749589528,181.39043782286444,3.18470335007,14.9467334747,177.095932007,0
27.5,12.426698901989793,0.979852475897089,393.803049995831,0.24652192722160143,181.65219290872386,4.99953794479,6.04478693008,-178.657562256,0
27.6,12.335418026590112,1.1384998835291662,393.9286953129466,0.24913947948425014,181.9139479945833,4.99953794479,6.04478693008,-178.657562256,0
27.700000000000003,12.234066849720849,1.2628777579694157,394.09496967823026,0.25,182.0,4.99953794479,6.04478693008,-178.657562256,0
27.8,12.127783661219098,1.370471851223699,394.28114244861985,0.25,182.0,5.619244167999788,4.4562532482770685,-178.12802541500534,0
27.900000000000002,12.021500472717344,1.4780659444779862,394.4673152190095,0.25,182.0,6.05711650848,3.36998677254,-177.753356934,0
28.0,11.915217284215592,1.5856600377322696,394.65348798939914,0.25,182.0,6.05711650848,3.36998677254,-177.753356934,0
28.1,11.836786838857806,1.6608072750888812,394.80614041442,0.255573831838714,182.27869165007775,6.05711650848,3.36998677254,-177.753356934,0
28.200000000000003,11.770493240510113,1.7218157784632406,394.9441863318749,0.2635764637398412,182.67882332861157,5.833443325301183,3.3960004092325424,-177.8498558066007,0
28.3,11.70419964216242,1.782824281837598,395.08223224932976,0.27157909564096816,183.0789550071454,5.55477380753,3.42821335793,-177.970230103,0
28.400000000000002,11.637906043814727,1.8438327852119571,395.2202781667846,0.27958172754209537,183.47908668567922,5.55477380753,3.42821335793,-177.970230103,0
28.5,11.571612445467036,1.9048412885863144,395.35832408423954,0.28758435944322225,183.87921836421305,5.55477380753,3.42821335793,-177.970230103,0
28.6,11.54488439783256,1.6469883932667746,395.42645215092847,0.2970558171655478,184.0,5.55477380753,3.42821335793,-177.970230103,0
28.700000000000003,11.535263173912746,1.2512704704538873,395.46435007230156,0.30716234615410964,184.0,4.498169866774285,0.7209222743680859,-176.99395663165458,0
28.8,11.525641949992934,0.855552547641014,395.50224799367464,0.3172688751426712,184.0,2.56644058228,-4.18342542648,-175.208175659,0
28.900000000000002,11.51602072607312,0.45983462482812665,395.5401459150478,0.3273754041312331,184.0,2.56644058228,-4.18342542648,-175.208175659,0
29.0,11.555689386614747,0.25567326691628345,395.51188479081566,0.33439634840660964,183.7069109920714,2.56644058228,-4.18342542648,-175.208175659,0
29.1,11.612648618740973,0.11870870879634329,395.4604155027482,0.3403348895896152,183.31100826226825,1.880472708397303,-4.400582586801648,-175.39823465885533,0
29.200000000000003,11.669607850867202,-0.018255849323596862,395.4089462146808,0.3462734307726208,182.91510553246508,0.513399064541,-4.83223819733,-175.782546997,0
29.3,11.726567082993427,-0.1552204074435321,395.35747692661334,0.3522119719556262,182.51920280266194,0.513399064541,-4.83223819733,-175.782546997,0
29.400000000000002,11.783526315119655,-0.29218496556347223,395.3060076385459,0.3581505131386318,182.12330007285877,0.513399064541,-4.83223819733,-175.782546997,0
29.5,11.867966543225414,-0.5866029063264939,395.2307185466706,0.35772061697330293,181.77206072874924,0.513399064541,-4.83223819733,-175.782546997,0
29.6,11.964836616456271,-0.9522381043582657,395.1446555922881,0.3544102324156462,181.44102294383163,-0.5076091001642884,-6.548182884307199,-176.46560314893426,0
29.700000000000003,12.061706689687126,-1.3178733023900373,395.05859263790563,0.3510998478579894,181.10998515891401,-1.98823523521,-9.03449249268,-177.470001221,0
29.8,12.163511976244079,-1.4442977294356285,394.9836468945718,0.3422753495043946,180.4206515389775,-1.98823523521,-9.03449249268,-177.470001221,0
29.900000000000002,12.267772787676535,-1.4517023776325708,394.91423254096156,0.33070729323393283,179.5530471377106,-2.0942186586884435,-8.937977317931578,-177.80121350607956,0
30.0,12.372033599108986,-1.459107025829513,394.8448181873514,0.3191392369634714,178.68544273644372,-2.32991218567,-8.72373962402,-178.541366577,0
30.1,12.460746727612541,-1.414115059234802,394.7862765044973,0.30876611129508524,177.9588702986704,-2.32991218567,-8.72373962402,-178.541366577,0
30.200000000000003,12.490956623053924,-1.1719637229228903,394.7686467950969,0.3028893021406154,177.76297666797157,-2.32991218567,-8.72373962402,-178.541366577,0
30.3,12.521166518495306,-0.9298123866109871,394.7510170856965,0.29701249298614574,177.56708303727277,-1.39691591263,-5.11120176315,178.754882812,0
30.400000000000002,12.551376413936689,-0.6876610502990753,394.7333873762961,0.2911356838316759,177.37118940657393,-1.39691591263,-5.11120176315,178.754882812,0
30.5,12.58158630937807,-0.4455097139871722,394.7157576668956,0.28525887467720623,177.17529577587513,-1.39691591263,-5.11120176315,178.754882812,0
30.6,12.605132715172251,-0.23109748156381574,394.6974475611335,0.28069121905261024,177.02304059443819,-1.39691591263,-5.11120176315,178.754882812,0
30.700000000000003,12.571970225902366,-0.2527558390074042,394.673347017039,0.2872649704203012,177.2421656313213,-1.39691591263,-5.11120176315,178.754882812,0
30.8,12.538807736632481,-0.27441419645099197,394.6492464729445,0.2938387217879919,177.46129066820444,-0.260303527117,0.302283942699,177.733154297,0
30.900000000000002,12.505645247362596,-0.2960725538945804,394.62514592885003,0.30041247315568287,177.68041570508757,-0.260303527117,0.302283942699,177.733154297,0
31.0,12.472482758092712,-0.31773091133816816,394.60104538475554,0.30698622452337354,177.8995407419707,-0.260303527117,0.302283942699,177.733154297,0
31.1,12.427415251070958,-0.31879782110784716,394.56149672210137,0.3112390557533274,178.12390545510138,-0.260303527117,0.302283942699,177.733154297,0
31.200000000000003,12.37226927608877,-0.3024325648811426,394.50887009759964,0.31352705839298023,178.35270593727367,0.1180661385704877,2.3998888479865896,178.0502113678962,0
31.3,12.317123301106585,-0.2860673086544386,394.4562434730979,0.315815061032633,178.581506419446,0.720541536808,5.73571538925,178.555267334,0
31.400000000000002,12.261977326124399,-0.269702052427734,394.4036168485962,0.3181030636722859,178.81030690161828,0.720541536808,5.73571538925,178.555267334,0
31.5,12.209179560974555,-0.269610203490954,394.3477077584102,0.319999992847,179.12700584656733,0.720541536808,5.73571538925,178.555267334,0
31.6,12.167771951738303,-0.3484536540000185,394.2758768390035,0.319999992847,179.8700624286418,0.720541536808,5.73571538925,178.555267334,0
31.700000000000003,12.126364342502049,-0.42729710450908304,394.2040459195968,0.319999992847,180.61311901071628,1.62883806229,10.5299282074,179.026855469,0
31.8,12.084956733265797,-0.5061405550181448,394.13221500019006,0.319999992847,181.35617559279072,1.62883806229,10.5299282074,179.026855469,0
31.900000000000002,12.04543324519439,-0.5456117200992755,394.05835485585885,0.319999992847,182.12023619052744,1.62883806229,10.5299282074,179.026855469,0
32.0,12.01813405023877,-0.32963309421749126,393.9713289763627,0.319999992847,183.02057212387086,1.62883806229,10.5299282074,179.026855469,0
32.1,11.990834855283147,-0.11365446833569937,393.8843030968665,0.319999992847,183.92090805721432,1.632570279470773,9.78680657530087,-109.59856416031681,0
32.2,11.963535660327524,0.10232415754609248,393.7972772173704,0.319999992847,184.82124399055778,1.633451581,9.61131668091,-177.740615845,0
32.300000000000004,11.941021034319391,0.06425269640524678,393.71920367484523,0.3245030105763587,185.45030153137162,1.633451581,9.61131668091,-177.740615845,0
32.4,11.919691683044693,-0.03675424596279686,393.6433478825361,0.33012155474026056,186.01215564635515,1.5503629312698426,8.069362675301695,-175.95026655001794,0
32.5,11.898362331769995,-0.13776118833084763,393.56749209022695,0.3357400989041628,186.57400976133874,1.47318053246,6.65363836288,-174.280990601,0
32.6,11.876029038601061,-0.23988575559616676,393.4991659101983,0.3415448290401598,186.89701163981476,1.47318053246,6.65363836288,-174.280990601,0
32.7,11.850547966502926,-0.3455145456881008,393.4544482228701,0.3479333302920335,186.47111157327893,1.47318053246,6.65363836288,-174.280990601,0
32.800000000000004,11.825066894404792,-0.4511433357800348,393.4097305355419,0.35432183154390723,186.0452115067431,2.20804572105,5.74571657181,-172.296432495,0
32.9,11.799585822306659,-0.5567721258719613,393.36501284821367,0.36071033279578046,185.61931144020733,2.20804572105,5.74571657181,-172.296432495,0
33.0,11.774104750208522,-0.6624009159638953,393.32029516088545,0.3670988340476542,185.1934113736715,2.20804572105,5.74571657181,-172.296432495,0
33.1,11.754860980521796,-0.7015552419830721,393.289146990003,0.370000004768,184.84514758774395,2.20804572105,5.74571657181,-172.296432495,0
33.2,11.740806130831702,-0.6854083090378266,393.2692875350728,0.370000004768,184.56147076944137,2.9934109869539967,5.4359347395396505,-173.42287171859732,0
33.300000000000004,11.726751281141608,-0.669261376092581,393.2494280801426,0.370000004768,184.27779395113876,3.97979807854,5.05811071396,-174.842498779,0
33.4,11.713280628209107,-0.6499185063511622,393.22926360936566,0.37012652213309605,184.00421724533564,3.97979807854,5.05811071396,-174.842498779,0
33.5,11.727396239085612,-0.4796608045256019,393.19469603294834,0.3762272962269393,184.20757637371693,3.97979807854,5.05811071396,-174.842498779,0
33.6,11.741511849962118,-0.30940310270004157,393.160128456531,0.38232807032078253,184.41093550209825,3.7175096803400374,0.529330767710138,-175.6079074181645,0
33.7,11.755627460838623,-0.13914540087448124,393.1255608801137,0.3884288444146258,184.61429463047955,3.65765500069,-0.501793861389,-175.782684326,0
33.800000000000004,11.76974307171513,0.031112300951078975,393.0909933036964,0.394529618508469,184.81765375886087,3.65765500069,-0.501793861389,-175.782684326,0
33.9,11.785892508447713,0.17324162558894757,393.0569000509792,0.40025814188408276,184.94837276595172,3.65765500069,-0.501793861389,-175.782684326,0
34.0,11.819691138064362,0.07127770447669364,393.0269228981963,0.40275633720205256,184.4487332259015,3.65765500069,-0.501793861389,-175.782684326,0
34.1,11.853489767681014,-0.030686216635560287,392.99694574541337,0.40525453252002236,183.94909368585127,2.9886747923027936,-3.9150216631376002,-174.33329423000202,0
34.2,11.887288397297663,-0.13265013774781423,392.9669685926305,0.4077527278379922,183.44945414580104,2.85838723183,-4.552339077,-174.051086426,0
34.300000000000004,11.920749747850754,-0.22326297406645465,392.9353461623368,0.4102738732762364,182.9726122886567,2.85838723183,-4.552339077,-174.051086426,0
34.4,11.951190469081789,-0.21221690750799518,392.888988831396,0.4130005571357335,182.6999436426629,2.85838723183,-4.552339077,-174.051086426,0
34.5,11.981631190312827,-0.20117084094953494,392.8426315004551,0.4157272409952309,182.42727499666907,2.64483237267,-4.54395389557,-176.218017578,0
34.6,12.012071911543863,-0.19012477439107467,392.7962741695142,0.4184539248547282,182.15460635067527,2.64483237267,-4.54395389557,-176.218017578,0
34.7,12.040714050655131,-0.2544436193048052,392.75148207551905,0.4180519149951882,181.80519262504077,2.64483237267,-4.54395389557,-176.218017578,0
34.800000000000004,12.067000888972215,-0.4174552255293271,392.7087397093515,0.4135527806728739,181.35527876374897,2.64483237267,-4.54395389557,-176.218017578,0
34.9,12.093287727289297,-0.5804668317538375,392.66599734318396,0.40905364635055996,180.90536490245722,2.79495620728,-0.987466037273,-177.970733643,0
35.0,12.119574565606381,-0.7434784379783594,392.6232549770164,0.40455451202824566,180.45545104116545,2.79495620728,-0.987466037273,-177.970733643,0
35.1,12.145861403923465,-0.9064900442028814,392.58051261084887,0.40005537770593136,180.00553717987367,2.79495620728,-0.987466037273,-177.970733643,0
35.2,12.16401421708355,-0.7304637798781213,392.6019311793072,0.39024645233029354,180.0,2.79495620728,-0.987466037273,-177.970733643,0
35.300000000000004,12.182065675779562,-0.5502129156773595,392.6241492285905,0.38037136401365695,180.0,3.4485391010800073,-2.208215470792035,-179.38845442801062,0
35.4,12.200117134475574,-0.36996205147661054,392.6463672778739,0.37049627569702115,180.0,3.62166929245,-2.53091096878,-179.764862061,0
35.5,12.218168593171587,-0.1897111872758488,392.6685853271572,0.36062118738038457,180.0,3.62166929245,-2.53091096878,-179.764862061,0
35.6,12.19411669509733,0.493424275566696,392.7255262076155,0.360000014305,180.0,3.62166929245,-2.53091096878,-179.764862061,0
35.7,12.167238590933309,1.2103160852697934,392.7847978731808,0.360000014305,180.0,4.17015457153,-1.10859429836,-179.753341675,0
35.800000000000004,12.140360486769287,1.927207894972891,392.8440695387462,0.360000014305,180.0,4.17015457153,-1.10859429836,-179.753341675,0
35.9,12.103227747234147,2.1070359189759613,392.9119577821651,0.3616785193108117,180.0,4.17015457153,-1.10859429836,-179.753341675,0
36.0,12.058122337643495,1.8693130299346672,392.9865451552699,0.3646620113896446,180.0,4.2735620975190995,0.285233797750023,-179.80282187637962,0
36.1,12.013016928052842,1.631590140893373,393.0611325283747,0.3676455034684775,180.0,4.41564416885,2.14351153374,-179.871246338,0
36.2,11.970953170932852,1.347182661212908,393.12692211586443,0.37173182502357527,180.0577273395588,4.41564416885,2.14351153374,-179.871246338,0
36.300000000000004,11.940275232063989,0.8880207448329036,393.15977895084836,0.37994636835938617,180.3315454398728,4.41564416885,2.14351153374,-179.871246338,0
36.4,11.90959729319513,0.42885882845293155,393.19263578583224,0.38816091169519645,180.60536354018677,4.25318479538,6.08620119095,-179.411239624,0
36.5,11.87891935432627,-0.030303087927072925,393.22549262081617,0.39637545503100735,180.87918164050075,4.25318479538,6.08620119095,-179.411239624,0
36.6,11.861565491548513,-0.2543867149983467,393.2427582596275,0.40000000596,181.27695469396747,4.25318479538,6.08620119095,-179.411239624,0
36.7,11.854733169569437,-0.29283752258297335,393.2477120949407,0.40000000596,181.77261048901244,4.25318479538,6.08620119095,-179.411239624,0
36.800000000000004,11.847900847590362,-0.3312883301676,393.25266593025384,0.40000000596,182.26826628405743,3.98928809166,7.89584827423,-178.611831665,0
36.9,11.841068525611288,-0.3697391377522239,393.25761976556703,0.40000000596,182.7639220791024,3.98928809166,7.89584827423,-178.611831665,0
37.0,11.842545596310973,-0.28683178802704634,393.2582730771689,0.40000000596,183.1709718839605,3.98928809166,7.89584827423,-178.611831665,0
37.1,11.851579798580394,-0.0935530071628734,393.2550151975729,0.40000000596,183.49743732464236,3.98928809166,7.89584827423,-178.611831665,0
37.2,11.860614000849814,0.09972577370129948,393.25175731797697,0.40000000596,183.82390276532422,3.35026335716,8.71557712555,-176.658218384,0
37.300000000000004,11.876526658336836,0.2373042739966189,393.23476438839896,0.40117193094625897,184.23438522076154,3.35026335716,8.71557712555,-176.658218384,0
37.4,11.90049472178256,0.30965179468947224,393.2016862478299,0.4037163053006996,184.7432605769132,3.35026335716,8.71557712555,-176.658218384,0
37.5,11.924462785228284,0.3819993153823307,393.16860810726087,0.40626067965514034,185.2521359330649,3.00660061836,8.50410175323,-175.70161438,0
37.6,11.94843084867401,0.4543468360751891,393.1355299666918,0.4088050540095811,185.76101128921658,3.00660061836,8.50410175323,-175.70161438,0
37.7,11.975794554301784,0.31263716806373965,393.0954543424822,0.409999996424,186.10225738818102,3.00660061836,8.50410175323,-175.70161438,0
37.800000000000004,12.006165152494628,-0.018623381550435192,393.049182340561,0.409999996424,186.2950652418588,2.937118614968645,8.401212092264542,-175.5681770828968,0
37.9,12.03653575068747,-0.3498839311645866,393.0029103386399,0.409999996424,186.48787309553657,2.07121729851,7.12861204147,-173.847351074,0
38.0,12.066906348880314,-0.6811444807787616,392.9566383367187,0.409999996424,186.68068094921435,2.07121729851,7.12861204147,-173.847351074,0
38.1,12.09727694707316,-1.0124050303929364,392.9103663347976,0.409999996424,186.87348880289213,2.07121729851,7.12861204147,-173.847351074,0
38.2,12.12218522744837,-1.1187300940992768,392.8738298031745,0.409999996424,186.89713013914428,2.07121729851,7.12861204147,-173.847351074,0
38.300000000000004,12.136669990230898,-0.7958199736114909,392.8558710711802,0.409999996424,186.5979579318881,2.07121729851,7.12861204147,-173.847351074,0
38.400000000000006,12.151154753013426,-0.47290985312370504,392.83791233918595,0.409999996424,186.29878572463193,2.76690673828,5.67055082321,-172.43661499,0
38.5,12.165604025541734,-0.15037764959650773,392.820024404329,0.4099857180961436,186.0,2.76690673828,5.67055082321,-172.43661499,0
38.6,12.152616149129317,-0.12000914460238685,392.856869005041,0.39893301199000414,186.0,2.76690673828,5.67055082321,-172.43661499,0
38.7,12.1396282727169,-0.08964063960826597,392.893713605753,0.3878803058838647,186.0,3.86469443974225,2.994846018317449,-172.99557390149795,0
38.800000000000004,12.11520459120583,0.009505996107617085,392.95113612416924,0.3784803412704718,186.0759827705374,3.93626070023,2.82415413857,-173.032196045,0
38.900000000000006,12.062374080208818,0.2794992503973943,393.0596747113148,0.37318582838205844,186.3407086674139,3.93626070023,2.82415413857,-173.032196045,0
39.0,12.009543569211809,0.5494925046871524,393.16821329846044,0.36789131549364545,186.6054345642904,5.06027317047,2.16588544846,-173.035003662,0
39.1,11.956713058214799,0.8194857589769297,393.276751885606,0.36259680260523214,186.8701604611669,5.06027317047,2.16588544846,-173.035003662,0
39.2,11.897469637765578,1.0356235295364842,393.3940487948016,0.3622089892753304,186.88955114615393,5.06027317047,2.16588544846,-173.035003662,0
39.300000000000004,11.832053249064185,1.1999208377053736,393.5197763304328,0.36654428966212116,186.67278592009623,5.101220484900702,2.3330544589224607,-173.01892619116407,0
39.400000000000006,11.766636860362793,1.3642181458742628,393.64550386606396,0.37087959004891186,186.45602069403856,5.75543832779,5.00081825256,-172.763168335,0
39.5,11.701220471661404,1.5285154540431403,393.77123140169516,0.3752148904357022,186.23925546798085,5.75543832779,5.00081825256,-172.763168335,0
39.6,11.635804082960012,1.6928127622120295,393.89695893732636,0.37955019082249297,186.02249024192318,5.75543832779,5.00081825256,-172.763168335,0
39.7,11.597463182208024,1.6001888773284676,393.940627301855,0.39361105281352476,186.3402765105283,5.75543832779,5.00081825256,-172.763168335,0
39.800000000000004,11.5622566750934,1.4778225126671765,393.97479608712314,0.4087977943628153,186.71994512846894,5.679828505975177,8.041047189048042,-173.28975878929475,0
39.900000000000006,11.541098409189836,1.280005581116392,393.9889777049066,0.42122452921653697,187.18368125089472,5.6403927803,9.62427425385,-173.566635132,0
40.0,11.559435479315754,0.8700663313234795,393.9469672425407,0.4258917594997303,187.88376541781358,5.6403927803,9.62427425385,-173.566635132,0
40.1,11.577772549441672,0.46012708153053816,393.9049567801749,0.43055898978292395,188.5838495847325,4.46908807755,11.2299966812,-172.511154175,0
40.2,11.596109619567592,0.050187831737596555,393.8629463178091,0.4352262200661176,189.28393375165138,4.46908807755,11.2299966812,-172.511154175,0
40.300000000000004,11.61444668969351,-0.3597514180553447,393.8209358554432,0.43989345034931127,189.98401791857026,4.46908807755,11.2299966812,-172.511154175,0
40.400000000000006,11.688275047153406,-0.6897918589760345,393.72816809475086,0.4370384057574277,190.88847840491354,4.46908807755,11.2299966812,-172.511154175,0
40.5,11.763399799247406,-1.0179656935865893,393.634214535488,0.4340076248066875,191.79771355727317,2.58388614655,13.4019794464,-169.758499146,0
40.6,11.838524551341411,-1.3461395281971673,393.54026097622517,0.43097684385594703,192.70694870963288,2.58388614655,13.4019794464,-169.758499146,0
40.7,11.929797557873663,-1.310367072266214,393.44178804920455,0.4267526733328393,193.48709981171942,2.58388614655,13.4019794464,-169.758499146,0
40.800000000000004,12.028750523411981,-1.10150515936274,393.34116575308354,0.4219609378738989,194.2058597449817,1.7592822685668776,13.368767573083003,-168.48998917330798,0
40.900000000000006,12.1277034889503,-0.8926432464592662,393.2405434569626,0.4171692024149585,194.924619678244,0.939272165298,13.3358297348,-166.961959839,0
41.0,12.226656454488612,-0.6837813335558072,393.13992116084165,0.41237746695601846,195.64337961150625,0.939272165298,13.3358297348,-166.961959839,0
41.1,12.30330537321004,-0.4954522590094108,393.0465314114153,0.4085012514426567,196.44962392316435,0.939272165298,13.3358297348,-166.961959839,0
