t_sec,airspeed,climb,altitude,throttle,heading,pitch,roll,yaw,is_boundary
0.0,15.8971424103,-1.0218269825,422.119995117,0.439999997616,291.0,-1.39109289646,-1.79533481598,-67.6934051514,0
0.1,15.892466812089285,-0.9285626306168769,422.0973550373915,0.4249060001591051,291.0,-2.494583144878926,-1.7402689487564518,-68.43626613972474,0
0.2,15.887791213878572,-0.835298278733754,422.07471495778304,0.4098120027022103,291.0,-2.648686409,-1.7327709198,-68.5422286987,0
0.30000000000000004,15.883115615667856,-0.7420339268506309,422.05207487817455,0.3947180052453154,291.0,-2.648686409,-1.7327709198,-68.5422286987,0
0.4,15.878440017457141,-0.648769574967508,422.0294347985661,0.3796240077884206,291.0,-2.648686409,-1.7327709198,-68.5422286987,0
0.5,15.873764419246426,-0.555505223084385,422.0067947189576,0.3645300103315257,291.0,-2.648686409,-1.7327709198,-68.5422286987,0
0.6000000000000001,15.838046535984446,-0.5977001200146084,421.96117696827775,0.34235327543601235,291.1764673466165,-2.68338119435262,0.3925230901377841,-68.47911755403501,0
0.7000000000000001,15.789017273614522,-0.6979818946232623,421.9057060611648,0.31713936067401105,291.42860643412155,-2.8312895298,9.45710659027,-68.2098617554,0
0.8,15.739988011244598,-0.7982636692319163,421.85023515405186,0.2919254459120098,291.68074552162653,-2.8312895298,9.45710659027,-68.2098617554,0
0.9,15.690958748874674,-0.8985454438405702,421.79476424693894,0.2667115311500085,291.9328846091316,-2.8312895298,9.45710659027,-68.2098617554,0
1.0,15.621628284989903,-0.6063088302040569,421.6767256664201,0.24653023067047913,292.0,-4.119880111938579,18.97541409812007,-67.96253068348945,0
1.1,15.544933774771952,-0.17169031884842656,421.53599132350604,0.22817445784388385,292.0,-4.16769075394,19.3264331818,-67.9533233643,0
1.2000000000000002,15.468239264554,0.2629281925072038,421.3952569805919,0.20981868501728856,292.0,-4.16769075394,19.3264331818,-67.9533233643,0
1.3,15.391714235121587,0.1785770391703035,421.20558739708287,0.19110298755892094,292.12710020623297,-4.16769075394,19.3264331818,-67.9533233643,0
1.4000000000000001,15.315384128993339,-0.5026516981553732,420.9596363964403,0.17197333344904528,292.4003809489829,-6.30243635178,28.0122623444,-67.3791809082,0
1.5,15.23905402286509,-1.1838804354810484,420.7136853957977,0.15284367933916965,292.67366169173283,-6.30243635178,28.0122623444,-67.3791809082,0
1.6,15.16272391673684,-1.8651091728067253,420.46773439515516,0.133714025229294,292.9469424344828,-6.30243635178,28.0122623444,-67.3791809082,0
1.7000000000000002,15.095790199517719,-2.146184902394255,420.1381426005472,0.11800682273528718,293.5996586754668,-8.092996148473793,30.295878543292282,-66.56351684231316,0
1.8,15.031120319949274,-2.3308532297648403,419.7883995350264,0.1031241790053495,294.34379092479327,-9.16505622864,31.6179676056,-66.073059082,0
1.9000000000000001,14.966450440380827,-2.5155215571354255,419.4386564695055,0.08824153527541179,295.08792317411974,-9.16505622864,31.6179676056,-66.073059082,0
2.0,14.90178056081238,-2.70018988450601,419.08891340398463,0.07335889154547409,295.83205542344615,-9.16505622864,31.6179676056,-66.073059082,0
2.1,14.908316481948729,-3.389763537414302,418.5954850652915,0.06371972320938163,297.46539792911426,-13.89968910916864,29.057013931502862,-63.16098710511993,0
2.2,14.935607147784832,-4.226504710740309,418.0601759931148,0.055608899362945115,299.35792341808013,-13.9143190384,29.0490684509,-63.137676239,0
2.3000000000000003,14.962897813620936,-5.0632458840663155,417.52486692093805,0.0474980755165086,301.250448907046,-13.9143190384,29.0490684509,-63.137676239,0
2.4000000000000004,14.992298533723272,-5.839595248732782,416.9877009892623,0.0399999991059,303.12285646400977,-13.9143190384,29.0490684509,-63.137676239,0
2.5,15.047519595443779,-5.876941282781854,416.4278130132439,0.0399999991059,304.74908462869064,-19.112079944986995,22.234558998021342,-56.352022676852194,0
2.6,15.102740657164286,-5.914287316830928,415.8679250372256,0.0399999991059,306.37531279337156,-19.4266777039,21.8409938812,-55.9307594299,0
2.7,15.157961718884794,-5.951633350880001,415.3080370612072,0.0399999991059,308.0015409580525,-19.4266777039,21.8409938812,-55.9307594299,0
2.8000000000000003,15.213182780605301,-5.988979384929074,414.74814908518886,0.0399999991059,309.62776912273335,-19.4266777039,21.8409938812,-55.9307594299,0
2.9000000000000004,15.261756867301107,-6.262890223009913,414.0832719555631,0.04438139074066525,310.6572087599034,-21.303067053479314,19.60535872780135,-52.28099476596884,0
3.0,15.308357896025063,-6.607021886461697,413.38723032092366,0.05006333483134552,311.5095003925542,-23.0546226501,17.522441864,-48.8576011658,0
3.1,15.354958924749019,-6.951153549913482,412.6911886862842,0.05574527892202581,312.3617920252049,-23.0546226501,17.522441864,-48.8576011658,0
3.2,15.418152032197481,-7.248774570238234,411.9919687310856,0.06190389872682508,312.9524025016707,-23.0546226501,17.522441864,-48.8576011658,0
3.3000000000000003,15.530808032173438,-7.407742020954553,411.2832738372221,0.06948354358878658,312.7629113935334,-23.9250831604,18.0686531067,-46.0658836365,0
3.4000000000000004,15.643464032149396,-7.566709471670872,410.5745789433587,0.07706318845074807,312.573420285396,-23.9250831604,18.0686531067,-46.0658836365,0
3.5,15.756120032125352,-7.72567692238719,409.8658840494952,0.08464283331270953,312.3839291772587,-23.9250831604,18.0686531067,-46.0658836365,0
3.6,15.86877603210131,-7.884644373103509,409.1571891556318,0.09222247817467102,312.19443806912136,-23.9250831604,18.0686531067,-46.0658836365,0
3.7,15.981432032077269,-8.043611823819827,408.4484942617683,0.09980212303663252,312.00494696098406,-23.9250831604,18.0686531067,-46.0658836365,0
3.8000000000000003,16.107177059551734,-8.20439494132897,407.7189270304278,0.1050609702795741,313.0121939690585,-21.7454357147,14.8661222458,-47.2281837463,0
3.9000000000000004,16.23327295650298,-8.365226730296527,406.9888002872266,0.11025760533399452,314.05152119674625,-21.7454357147,14.8661222458,-47.2281837463,0
4.0,16.359368853454228,-8.526058519264085,406.2586735440254,0.11545424038841492,315.09084842443394,-21.7454357147,14.8661222458,-47.2281837463,0
4.1000000000000005,16.482399524188107,-8.633423131584278,405.53278592588816,0.12064598851151619,316.0322995543819,-21.7454357147,14.8661222458,-47.2281837463,0
4.2,16.58402254149707,-8.367371002004315,404.83650451419686,0.1258036061252932,316.2901803928041,-21.1584873199,6.22440719604,-43.6625099182,0
4.3,16.68564555880603,-8.101318872424352,404.1402231025056,0.1309612237390702,316.54806123122626,-21.1584873199,6.22440719604,-43.6625099182,0
4.4,16.787268576114993,-7.835266742844388,403.4439416908143,0.13611884135284727,316.80594206964844,-21.1584873199,6.22440719604,-43.6625099182,0
4.5,16.88666663285663,-7.628110130461569,402.77945764804326,0.14081229495337902,317.08122939216645,-21.1584873199,6.22440719604,-43.6625099182,0
4.6000000000000005,16.979299544357136,-7.60002937845183,402.2116556868292,0.14409442602917805,317.40944232369293,-19.2285766602,3.47424221039,-42.1564979553,0
4.7,17.071932455857645,-7.57194862644209,401.64385372561514,0.14737655710497705,317.7376552552194,-19.2285766602,3.47424221039,-42.1564979553,0
4.800000000000001,17.144903729486998,-7.479459972288417,401.0698492952511,0.15096897844732513,317.85465409658207,-19.2285766602,3.47424221039,-42.1564979553,0
4.9,17.139565160017547,-7.130442704177559,400.4711412064665,0.1557972470902785,317.1304136490625,-17.8734970093,4.8001999855,-41.5819549561,0
5.0,17.134226590548096,-6.781425436066702,399.8724331176818,0.1606255157332319,316.40617320154297,-17.8734970093,4.8001999855,-41.5819549561,0
5.1000000000000005,17.12888802107864,-6.432408167955842,399.2737250288971,0.16545378437618533,315.68193275402336,-17.8734970093,4.8001999855,-41.5819549561,0
5.2,17.12350613654365,-6.126713800885474,398.6738517908837,0.17051875387710883,314.9827082643834,-17.753120576835162,4.785924434410633,-41.90705707239693,0
5.300000000000001,17.11742608201892,-6.51931571937092,398.0551981997786,0.1793989648770708,314.6867012428127,-16.813791275,4.69063806534,-44.7938842773,0
5.4,17.11134602749419,-6.911917637856363,397.4365446086735,0.1882791758770327,314.390694221242,-16.813791275,4.69063806534,-44.7938842773,0
5.5,17.10526597296946,-7.304519556341806,396.8178910175684,0.19715938687699458,314.0946871996713,-16.813791275,4.69063806534,-44.7938842773,0
5.6000000000000005,17.129818727692165,-7.211872306887928,396.22014712615135,0.22972845160235122,314.29728448179395,-16.479666021536783,2.87560655795644,-44.95062852370715,0
5.7,17.168779079731113,-6.8909967368370815,395.6322377403024,0.27343914759638827,314.7343914352214,-16.0732250214,0.669749975204,-45.1414756775,0
5.800000000000001,17.207739431770058,-6.570121166786231,395.0443283544534,0.3171498435904257,315.17149838864896,-16.0732250214,0.669749975204,-45.1414756775,0
5.9,17.246699783809007,-6.249245596735385,394.4564189686044,0.36086053958446274,315.60860534207643,-16.0732250214,0.669749975204,-45.1414756775,0
6.0,17.295583640332453,-5.981275776145288,393.886056609646,0.40251064874394293,316.0,-16.0732250214,0.669749975204,-45.1414756775,0
6.1000000000000005,17.429433841256277,-6.166291907893156,393.4659341918617,0.4265177436915312,316.0,-12.9288272858,-1.9849344492,-43.4949836731,0
6.2,17.563284042180097,-6.351308039641023,393.0458117740774,0.4505248386391193,316.0,-12.9288272858,-1.9849344492,-43.4949836731,0
6.300000000000001,17.69713424310392,-6.536324171388891,392.62568935629304,0.4745319335867076,316.0,-12.9288272858,-1.9849344492,-43.4949836731,0
6.4,17.752527269191322,-6.502059028060819,392.4336096922259,0.4876095565357417,315.49269553584077,-9.94709465548455,0.6805080843594948,-43.56164116452408,0
6.5,17.784779495221887,-6.403117274170094,392.30879082080367,0.49746355173151185,314.8357625488916,-7.85627126694,2.44036984444,-43.6103820801,0
6.6000000000000005,17.81703172125245,-6.304175520279369,392.18397194938143,0.5073175469272821,314.1788295619424,-7.85627126694,2.44036984444,-43.6103820801,0
6.7,17.759251090764895,-5.296904940154223,392.17169398218056,0.5146505408743938,313.8449818131132,-5.184064192369757,2.5331949592852885,-44.602036663138776,0
6.800000000000001,17.667794616412955,-3.9498835078095897,392.20151075756013,0.5210405807965529,313.63198070244016,-2.53601074219,2.62516212463,-45.5913391113,0
6.9,17.576338142061015,-2.6028620754649676,392.23132753293976,0.527430620718712,313.4189795917672,-2.53601074219,2.62516212463,-45.5913391113,0
7.0,17.484881667709075,-1.2558406431203455,392.26114430831933,0.5338206606408712,313.2059784810942,-2.53601074219,2.62516212463,-45.5913391113,0
7.1000000000000005,17.391900569628955,0.044678436480525476,392.2904308250562,0.5401508834036003,313.01508620894776,-2.53601074219,2.62516212463,-45.5913391113,0
7.2,17.254201225164532,-0.018747980116009998,392.3041644967235,0.5447266283735706,313.472661142334,1.98956024647,5.79171133041,-46.2039489746,0
7.300000000000001,17.11650188070011,-0.08217439671254606,392.31789816839074,0.5493023733435409,313.93023607572025,1.98956024647,5.79171133041,-46.2039489746,0
7.4,16.978802536235687,-0.14560081330908153,392.33163184005804,0.5538781183135112,314.3878110091065,1.98956024647,5.79171133041,-46.2039489746,0
7.5,16.841103191771264,-0.209027229905617,392.34536551172533,0.5584538632834815,314.8453859424927,1.98956024647,5.79171133041,-46.2039489746,0
7.6000000000000005,16.679887896928644,-0.17979652093670948,392.4088165812256,0.5621003837266654,314.7899616654199,3.7248928770275747,4.332821706560515,-45.41513113597544,0
7.7,16.50667139403048,-0.10327886741077955,392.4976405923157,0.5652726806450957,314.47273167103464,5.34613037109,2.96879196167,-44.6540107727,0
7.800000000000001,16.333454891132316,-0.02676121388484895,392.5864646034058,0.5684449775635261,314.15550167664935,5.34613037109,2.96879196167,-44.6540107727,0
7.9,16.15368148192621,0.5451892709206936,392.6993960679128,0.569999992847,313.64413328955277,5.34613037109,2.96879196167,-44.6540107727,0
8.0,15.967603611393896,1.5934981140497217,392.8355068338469,0.569999992847,312.94610095892887,7.53904008865,3.54237723351,-45.7166099548,0
8.1,15.781525740861582,2.64180695717875,392.97161759978104,0.569999992847,312.248068628305,7.53904008865,3.54237723351,-45.7166099548,0
8.200000000000001,15.609271184189678,3.0302775052133253,393.14955512688124,0.5665904053579748,311.8295204629624,8.372298753792643,2.1473119245156376,-46.79212639663334,0
8.3,15.444637532249228,3.054973864521789,393.3505520856988,0.5613010847101864,311.5650541783515,9.01172542572,1.10897767544,-47.6650848389,0
8.4,15.280003880308778,3.0796702238302536,393.5515490445164,0.556011764062398,311.30058789374056,9.01172542572,1.10897767544,-47.6650848389,0
8.5,15.115370228368327,3.104366583138718,393.7525460033339,0.5507224434146097,311.0361216091297,9.01172542572,1.10897767544,-47.6650848389,0
8.6,15.018654294319138,2.9440229513708824,393.9396087252479,0.5471498246038812,310.1449429893965,8.913424703214396,3.669857218444145,-48.18274654833873,0
8.700000000000001,14.932682194140721,2.754408033916493,394.12446720457166,0.5438487690893834,309.15462539058126,8.88577747345,4.38898944855,-48.3283958435,0
8.8,14.846710093962306,2.5647931164621065,394.30932568389545,0.5405477135748856,308.164307791766,8.88577747345,4.38898944855,-48.3283958435,0
8.9,14.762842419572657,2.6908275075506447,394.44051897838085,0.540000021458,308.54337279473265,8.891772009892785,4.25752182436545,-49.694829788633626,0
9.0,14.679393352264107,2.8796500646107774,394.56103732937254,0.540000021458,309.1948319381337,8.89866161346,4.11125946045,-51.2895698547,0
9.1,14.595944284955557,3.06847262167091,394.6815556803643,0.540000021458,309.84629108153473,8.89866161346,4.11125946045,-51.2895698547,0
9.200000000000001,14.55114072240186,3.0748076629730003,394.74841327607146,0.5414777268926708,310.443312053188,8.313840817571897,3.326132365416328,-50.55394857170379,0
9.3,14.518271175026516,3.024789221593697,394.79870003716,0.5434117585986212,311.0235221183194,6.89344024658,1.45274877548,-48.7599143982,0
9.4,14.485401627651173,2.974770780214393,394.8489867982486,0.5453457903045715,311.60373218345086,6.89344024658,1.45274877548,-48.7599143982,0
9.5,14.45253208027583,2.924752338835089,394.89927355933713,0.5472798220105219,312.1839422485823,6.89344024658,1.45274877548,-48.7599143982,0
9.600000000000001,14.419662532900487,2.8747338974557843,394.9495603204257,0.5492138537164722,312.76415231371374,6.89344024658,1.45274877548,-48.7599143982,0
9.700000000000001,14.393723999282745,2.535726120579761,395.00236680097936,0.550000011921,312.8296570306728,6.37469642511566,2.6395145063251646,-47.761417489740964,0
9.8,14.372532394071728,1.9987946728112655,395.05689899270953,0.550000011921,312.54264918254654,5.87431287766,3.78446102142,-46.5878410339,0
9.9,14.351340788860712,1.4618632250427703,395.11143118443965,0.550000011921,312.25564133442026,5.87431287766,3.78446102142,-46.5878410339,0
10.0,14.3315081927781,0.9870145791571864,395.1660466479667,0.550000011921,312.0,5.87431287766,3.78446102142,-46.5878410339,0
10.100000000000001,14.322751705131706,1.0181491759947745,395.22134078791515,0.550000011921,312.0,5.39398431778,3.89379358292,-47.4223175049,0
10.200000000000001,14.313995217485312,1.049283772832362,395.2766349278636,0.550000011921,312.0,5.39398431778,3.89379358292,-47.4223175049,0
10.3,14.305738274883364,1.1453138010658626,395.3312567951886,0.550000011921,312.0,5.389155000366826,3.8785589615869327,-47.42209367192473,0
10.4,14.297846559033358,1.2887900964340888,395.3853871513888,0.550000011921,312.0,4.97011756897,2.57084584236,-47.3996009827,0
10.5,14.28995484318335,1.432266391802315,395.43951750758896,0.550000011921,312.0,4.97011756897,2.57084584236,-47.3996009827,0
10.600000000000001,14.282063127333345,1.575742687170544,395.49364786378914,0.550000011921,312.0,4.97011756897,2.57084584236,-47.3996009827,0
10.700000000000001,14.273122312442812,1.6477851487020825,395.55186948955924,0.5496602620971425,311.93204997042454,4.97011756897,2.57084584236,-47.3996009827,0
10.8,14.257950250474341,1.2955379567634107,395.6343916918884,0.5473025282552266,311.4605027523268,4.60214710236,2.50858783722,-47.3905944824,0
10.9,14.24277818850587,0.9432907648247386,395.7169138942176,0.5449447944133108,310.98895553422904,4.60214710236,2.50858783722,-47.3905944824,0
11.0,14.227606126537397,0.5910435728860668,395.79943609654686,0.5425870605713949,310.5174083161313,4.60214710236,2.50858783722,-47.3905944824,0
11.100000000000001,14.212434064568926,0.23879638094738853,395.88195829887604,0.540229326729479,310.0458610980335,4.60214710236,2.50858783722,-47.3905944824,0
11.200000000000001,14.191479695725425,0.46286779666928074,396.0202298494688,0.5357297724681892,309.7864879832022,4.61489009857,1.44850301743,-49.0555305481,0
11.3,14.169902372714626,0.749028632080221,396.1645075304133,0.5309994701707447,309.54997334763874,4.61489009857,1.44850301743,-49.0555305481,0
11.4,14.148325049703825,1.0351894674911613,396.3087852113578,0.5262691678733001,309.31345871207526,4.61489009857,1.44850301743,-49.0555305481,0
11.5,14.126747726693024,1.3213503029021014,396.4530628923023,0.5215388655758556,309.0769440765118,4.61489009857,1.44850301743,-49.0555305481,0
11.600000000000001,14.086793805092412,1.5781654609630575,396.64548618494786,0.5149831925556746,309.0,4.752101562368361,2.0275169155538073,-49.67581316282292,0
11.700000000000001,14.037978785201972,1.8208302891841843,396.8611250359799,0.5075473354627723,309.0,4.99587917328,2.83186554909,-50.7796440125,0
11.8,13.989163765311531,2.0634951174053113,397.07676388701196,0.50011147836987,309.0,4.99587917328,2.83186554909,-50.7796440125,0
11.9,13.94034874542109,2.306159945626438,397.2924027380441,0.4926756212769678,309.0,4.99587917328,2.83186554909,-50.7796440125,0
12.0,13.913900636029444,2.2682250925164005,397.4426297183518,0.4887476572919706,309.62617485350876,4.203108581497478,4.474028368090624,-50.6182899374053,0
12.100000000000001,13.900024392976682,2.072572360192834,397.55609036493786,0.48679138999195143,310.6043065212367,3.6113255024,5.69918727875,-50.4973144531,0
12.200000000000001,13.886148149923923,1.8769196278692704,397.6695510115239,0.48483512269193224,311.58243818896466,3.6113255024,5.69918727875,-50.4973144531,0
12.3,13.87227190687116,1.681266895545707,397.78301165810996,0.48287885539191305,312.5605698566926,3.6113255024,5.69918727875,-50.4973144531,0
12.4,13.8583956638184,1.4856141632221438,397.896472304696,0.4809225880918939,313.53870152442056,3.6113255024,5.69918727875,-50.4973144531,0
12.5,13.857698492581997,1.255762820351332,397.9706589539822,0.479999989271,314.0,3.6113255024,5.69918727875,-50.4973144531,0
12.600000000000001,13.868764276648767,0.9953875731492161,398.00979167221374,0.479999989271,314.0,0.919219970703,11.8595209122,-45.4103546143,0
12.700000000000001,13.879830060715536,0.7350123259471049,398.0489243904453,0.479999989271,314.0,0.919219970703,11.8595209122,-45.4103546143,0
12.8,13.890895844782305,0.4746370787449935,398.0880571086768,0.479999989271,314.0,0.919219970703,11.8595209122,-45.4103546143,0
12.9,13.906891200317533,0.2182188151536324,398.1265614959222,0.48050507739370374,314.15152612972827,0.919219970703,11.8595209122,-45.4103546143,0
13.0,13.944769397078419,-0.020634018127884457,398.1622766615702,0.48325230020596716,314.9756913031541,0.263297826052,17.7642478943,-45.5634613037,0
13.100000000000001,13.982647593839305,-0.25948685140940553,398.1979918272182,0.48599952301823063,315.79985647658003,0.263297826052,17.7642478943,-45.5634613037,0
13.200000000000001,14.02052579060019,-0.4983396846909225,398.23370699286613,0.4887467458304941,316.62402165000594,0.263297826052,17.7642478943,-45.5634613037,0
13.3,14.105214121324954,-0.30967380813122675,398.26371575982625,0.49685903419721666,318.37180624030066,0.263297826052,17.7642478943,-45.5634613037,0
13.4,14.22917089103678,0.2376321950767568,398.28893749992403,0.5094720093073153,320.8944036680585,-0.721556127071,28.7007751465,-42.2923431396,0
13.5,14.353127660748608,0.7849381982847403,398.3141592400218,0.522084984417414,323.4170010958163,-0.721556127071,28.7007751465,-42.2923431396,0
13.600000000000001,14.520060742761489,1.029822090772482,398.34536044639833,0.5307686220440198,325.9223761666708,-0.721556127071,28.7007751465,-42.2923431396,0
13.700000000000001,14.759398637650857,0.7651970197403801,398.3866356240821,0.5328322653065687,328.3987356830926,-2.2598567009,40.4541091919,-34.9426689148,0
13.8,14.998736532540224,0.5005719487082783,398.42791080176585,0.5348959085691175,330.87509519951436,-2.2598567009,40.4541091919,-34.9426689148,0
13.9,15.238074427429591,0.2359468776761764,398.46918597944955,0.5369595518316663,333.35145471593614,-2.2598567009,40.4541091919,-34.9426689148,0
14.0,15.47741232231896,-0.028678193355925474,398.5104611571333,0.5390231950942151,335.8278142323579,-2.2598567009,40.4541091919,-34.9426689148,0
14.100000000000001,15.710952719891463,-0.04122467639498391,398.5631831379207,0.5378590738790878,338.39161310611934,-2.2598567009,40.4541091919,-34.9426689148,0
14.200000000000001,15.93928235175952,0.17279599348497593,398.62619345620584,0.5337938518056028,341.03400209895125,0.589996099472,43.6025428772,-22.8029975891,0
14.3,16.167611983627577,0.3868166633649357,398.6892037744909,0.5297286297321177,343.6763910917831,0.589996099472,43.6025428772,-22.8029975891,0
14.4,16.39594161549563,0.6008373332448955,398.752214092776,0.5256634076586326,346.318780084615,0.589996099472,43.6025428772,-22.8029975891,0
14.5,16.624271247363687,0.8148580031248553,398.81522441106114,0.5215981855851476,348.96116907744687,0.589996099472,43.6025428772,-22.8029975891,0
14.600000000000001,16.832757600596405,0.8963874141281476,398.86842224863295,0.5175279550503517,307.11031013839977,0.36141462077445224,43.50235127366742,-21.778084319225073,0
14.700000000000001,17.028388908643482,0.8920851865770906,398.9152632796875,0.5134544798906306,236.43544871815698,-2.34745407104,42.3083648682,-9.57588100433,0
14.8,17.22402021669056,0.8877829590260335,398.9621043107421,0.5093810047309095,165.76058729791419,-2.34745407104,42.3083648682,-9.57588100433,0
14.9,17.419651524737635,0.8834807314749766,399.0089453417967,0.5053075295711884,95.0857258776714,-2.34745407104,42.3083648682,-9.57588100433,0
15.0,17.615282832784708,0.8791785039239196,399.05578637285123,0.5012340544114673,24.410864457428602,-2.34745407104,42.3083648682,-9.57588100433,0
15.100000000000001,17.75657941225026,0.7979401135521628,399.1318883161439,0.4938092266831444,4.650872818900139,-2.8237814904375322,42.28554203610274,-1.278024228417804,0
15.200000000000001,17.87426131201639,0.6832641246178709,399.2207074863052,0.4849278513740489,7.0192394738891695,-3.11136937141,42.2721061707,3.73849081993,0
15.3,17.99194321178252,0.568588135683579,399.30952665646646,0.4760464760649534,9.3876061288782,-3.11136937141,42.2721061707,3.73849081993,0
15.4,18.087916392764324,0.5209527090290408,399.3719998372103,0.4706682654392597,11.668267268586257,-3.11136937141,42.2721061707,3.73849081993,0
15.5,18.137587635548453,0.6163062815068026,399.3782803708486,0.4727618598647377,13.761863690727104,-1.05514621735,40.5529899597,11.6102085114,0
15.600000000000001,18.187258878332578,0.7116598539845661,399.38456090448693,0.4748554542902157,15.855460112867988,-1.05514621735,40.5529899597,11.6102085114,0
15.700000000000001,18.236930121116703,0.8070134264623279,399.3908414381252,0.4769490487156936,17.949056535008832,-1.05514621735,40.5529899597,11.6102085114,0
15.8,18.286601363900832,0.9023669989400898,399.3971219717635,0.47904264314117156,20.042652957149677,-1.05514621735,40.5529899597,11.6102085114,0
15.9,18.37164259110038,0.7841746408801713,399.3942597822165,0.48382288943605084,22.33801433999,-1.05514621735,40.5529899597,11.6102085114,0
16.0,18.486484802663863,0.4860591349276495,399.3836943902172,0.49086677456692723,24.803372813255187,-2.96744322777,42.9420890808,21.6732521057,0
16.1,18.601327014227348,0.1879436289751224,399.37312899821785,0.4979106596978038,27.26873128652042,-2.96744322777,42.9420890808,21.6732521057,0
16.2,18.716404955881963,-0.05935031126297913,399.32406697008565,0.5035327983250915,29.589760762366502,-3.50545875212212,44.72959887476152,25.92091108548363,0
16.3,18.83158230533223,-0.28521270750673733,399.25877084252494,0.5085553839415237,31.84992644516802,-3.86879086494,45.9321632385,28.7959098816,0
16.400000000000002,18.946759654782493,-0.5110751037504956,399.1934747149643,0.5135779695579559,34.11009212796954,-3.86879086494,45.9321632385,28.7959098816,0
16.5,19.061937004232757,-0.7369374999942457,399.12817858740357,0.518600555174388,36.37025781077097,-3.86879086494,45.9321632385,28.7959098816,0
16.6,19.180289339404975,-0.93791785366902,399.0415889559936,0.5183714305981117,38.79140707006276,-3.2795360813547987,45.95262293237107,31.013428600040754,0
16.7,19.299867995509878,-1.1292876539988106,398.94677482476294,0.516113861579646,41.274735358476995,-1.55074393749,46.012386322,37.5221366882,0
16.8,19.419446651614784,-1.320657454328608,398.8519606935323,0.5138562925611802,43.758063646891316,-1.55074393749,46.012386322,37.5221366882,0
16.900000000000002,19.53902530771969,-1.5120272546584055,398.75714656230167,0.5115987235427143,46.241391935305636,-1.55074393749,46.012386322,37.5221366882,0
17.0,19.66767227697317,-1.5468304950038787,398.66394624754446,0.5107895304437112,48.868494806979,-1.55074393749,46.012386322,37.5221366882,0
17.1,19.818324439561,-1.2017088953378317,398.5746620242281,0.5134949702876146,51.84448147317359,-2.13477754593,43.8376960754,48.8523521423,0
17.2,19.968976602148825,-0.8565872956717967,398.4853778009117,0.5162004101315179,54.820468139368074,-2.13477754593,43.8376960754,48.8523521423,0
17.3,20.119628764736653,-0.5114656960057495,398.3960935775953,0.5189058499754212,57.79645480556266,-2.13477754593,43.8376960754,48.8523521423,0
17.400000000000002,20.26747240577588,-0.6424055632148098,398.339184571251,0.5214859179944881,60.337344636164886,-2.17405199859508,43.86628243503855,50.40482945187688,0
17.5,20.413408969674816,-1.096606592975119,398.30425938633414,0.5239808544818771,62.58278961629594,-2.40285921097,44.0322608948,59.5092658997,0
17.6,20.559345533573754,-1.5508076227354444,398.2693342014172,0.5264757909692663,64.82823459642708,-2.40285921097,44.0322608948,59.5092658997,0
17.7,20.70528209747269,-2.0050086524957536,398.23440901650036,0.5289707274566554,67.07367957655813,-2.40285921097,44.0322608948,59.5092658997,0
17.8,20.83799949825614,-1.7339947977267864,398.2102094860778,0.5251051542531701,69.46844654143304,-1.673147632571978,44.879621762901806,65.57894093731495,0
17.900000000000002,20.96143409044309,-0.9537179203592918,398.1935417635976,0.5167730808998091,71.96807093120812,-1.27872884274,45.3380699158,68.8817214966,0
18.0,21.079737886737078,-0.3041127178196152,398.173900641044,0.5096416641109183,74.42999203258155,-1.27872884274,45.3380699158,68.8817214966,0
18.1,21.17575064685175,-0.2222180794826759,398.1413414118275,0.5077265684300806,76.72810904130101,-1.31792795658,42.7086639404,74.5056762695,0
18.2,21.27176340696642,-0.1403234411457395,398.1087821826111,0.5058114727492429,79.02622605002038,-1.31792795658,42.7086639404,74.5056762695,0
18.3,21.367776167081093,-0.058428802808800195,398.0762229533946,0.5038963770684052,81.32434305873983,-1.31792795658,42.7086639404,74.5056762695,0
18.400000000000002,21.46378892719577,0.023465835528139134,398.04366372417815,0.5019812813875674,83.62246006745929,-1.31792795658,42.7086639404,74.5056762695,0
18.5,21.559801687310436,0.10536047386507552,398.0111044949617,0.5000661857067298,85.92057707617866,-1.31792795658,42.7086639404,74.5056762695,0
18.6,21.66499437416816,-0.09838886048409104,397.93010425316584,0.5091292125369097,88.0540717188979,-2.60690402985,42.6440963745,86.7833786011,0
18.7,21.770515676235767,-0.31236343482333884,397.8473699612014,0.5185852248596945,90.18167335017259,-2.60690402985,42.6440963745,86.7833786011,0
18.8,21.876036978303382,-0.5263380091625942,397.76463566923695,0.5280412371824795,92.30927498144734,-2.60690402985,42.6440963745,86.7833786011,0
18.900000000000002,21.981558280370997,-0.7403125835018497,397.68190137727254,0.5374972495052647,94.4368766127221,-2.60690402985,42.6440963745,86.7833786011,0
19.0,22.103478683339937,-1.148192450765782,397.55395220001975,0.5379606366534564,96.83543713442263,-2.0451137830051715,45.12010754270759,93.50094466194366,0
19.1,22.2313018320219,-1.6258672198008846,397.4097282299044,0.5351871890496986,99.33152748037945,-1.89075517654,45.7590179443,95.3513259888,0
19.200000000000003,22.359124980703864,-2.103541988835987,397.26550425978905,0.5324137414459409,101.82761782633628,-1.89075517654,45.7590179443,95.3513259888,0
19.3,22.485555313008465,-2.457020472827548,397.1185296489646,0.5310551362786511,104.28137701294034,-1.89075517654,45.7590179443,95.3513259888,0
19.400000000000002,22.60263855516109,-1.9770266544281774,396.95309568692807,0.5391914365558362,106.45105484528987,-4.04464769363,41.6316261292,105.021743774,0
19.5,22.71972179731371,-1.4970328360288234,396.7876617248915,0.5473277368330212,108.62073267763934,-4.04464769363,41.6316261292,105.021743774,0
19.6,22.836805039466334,-1.0170390176294526,396.622227762855,0.5554640371102063,110.79041050998889,-4.04464769363,41.6316261292,105.021743774,0
19.700000000000003,22.96592836511407,-1.0113450265354902,396.45957821944,0.5637062964667534,113.11188928519778,-4.04464769363,41.6316261292,105.021743774,0
19.8,23.110220668253053,-1.6032086360528903,396.30043669018573,0.5720820508186206,115.62461798706354,-3.27218484879,44.0605392456,112.804161072,0
19.900000000000002,23.25451297139204,-2.1950722455703113,396.14129516093146,0.5804578051704882,118.13734668892941,-3.27218484879,44.0605392456,112.804161072,0
20.0,23.39880527453102,-2.786935855087712,395.9821536316772,0.5888335595223554,120.65007539079518,-3.27218484879,44.0605392456,112.804161072,0
20.1,23.511016173721462,-2.9136676888834434,395.8627021478193,0.5946326592005429,123.3163380190966,-0.956218242645,43.8082237244,121.93221283,0
20.200000000000003,23.618036555297508,-2.9651448773784526,395.7496721996297,0.6000148765162442,126.00744122329206,-0.956218242645,43.8082237244,121.93221283,0
20.3,23.72505693687355,-3.0166220658734604,395.6366422514401,0.6053970938319452,128.6985444274874,-0.956218242645,43.8082237244,121.93221283,0
20.400000000000002,23.82946352206674,-3.086583518467429,395.5272837021424,0.610769397899895,131.42316138074017,-0.956218242645,43.8082237244,121.93221283,0
20.5,23.918431706608654,-3.26572236405776,395.4396102876994,0.616083149323291,134.345727450713,-0.3656981880052429,45.071174488017114,131.49122368209044,0
20.6,24.007399891150573,-3.4448612096480975,395.3519368732563,0.621396900746687,137.26829352068597,-0.351928055286,45.1006278992,131.71736145,0
20.700000000000003,24.096368075692492,-3.624000055238435,395.2642634588132,0.626710652170083,140.19085959065893,-0.351928055286,45.1006278992,131.71736145,0
20.8,24.18080813508292,-3.26214960493625,395.1793260930262,0.6283423878031007,142.91168495532298,-0.351928055286,45.1006278992,131.71736145,0
20.900000000000002,24.25789070804227,-2.0212772038871925,395.0988343731055,0.6239914307519695,145.30471361555692,-1.16820001602,46.3343544006,142.058425903,0
21.0,24.334973281001623,-0.7804048028381789,395.01834265318485,0.6196404737008384,147.6977422757908,-1.16820001602,46.3343544006,142.058425903,0
21.1,24.41205585396098,0.46046759821087857,394.93785093326414,0.6152895166497072,150.09077093602474,-1.16820001602,46.3343544006,142.058425903,0
21.200000000000003,24.489138426920334,1.701339999259936,394.85735921334344,0.6109385595985759,152.48379959625868,-1.16820001602,46.3343544006,142.058425903,0
21.3,24.49577776129988,1.3646266877949915,394.85533502116965,0.610000014305,155.04524097453782,0.609168052673,42.7403373718,153.632339478,0
21.400000000000002,24.48304247891844,0.5940162528616657,394.8748924358176,0.610000014305,157.6530023678474,0.609168052673,42.7403373718,153.632339478,0
21.5,24.470307196536996,-0.1765941820716328,394.8944498504656,0.610000014305,160.26076376115688,0.609168052673,42.7403373718,153.632339478,0
21.6,24.457571914155555,-0.9472046170049586,394.9140072651136,0.610000014305,162.86852515446645,0.609168052673,42.7403373718,153.632339478,0
21.700000000000003,24.435906727605964,-1.1229955186246998,394.93850960105453,0.610000014305,165.4258635818277,0.609168052673,42.7403373718,153.632339478,0
21.8,24.37427848479054,1.3631465669665908,394.9851414205984,0.610000014305,167.75754943920163,2.5267291069,43.6337509155,165.438858032,0
21.900000000000002,24.312650241975117,3.84928865255797,395.0317732401422,0.610000014305,170.0892352965756,2.5267291069,43.6337509155,165.438858032,0
22.0,24.227413328169426,3.7979862064155308,395.1077676950963,0.6072486727840738,172.5132347698635,2.677864947161281,43.60976007271392,168.3669923745624,0
22.1,24.12704401650131,2.1202635257816396,395.2025826538179,0.6027338099464575,174.99640429828523,2.82937932014,43.5855903625,171.316207886,0
22.200000000000003,24.026674704833194,0.4425408451477475,395.2973976125395,0.5982189471088413,177.47957382670697,2.82937932014,43.5855903625,171.316207886,0
22.3,23.92630539316508,-1.2351818354860846,395.3922125712611,0.5937040842712251,179.96274335512865,2.82937932014,43.5855903625,171.316207886,0
22.400000000000002,23.820998165264506,-2.321425139101933,395.48641005302454,0.5883169497664602,182.37868076283482,2.82937932014,43.5855903625,171.316207886,0
22.5,23.693130919415378,-0.7053574407567922,395.5777864477943,0.5789446394222297,184.48745260136968,3.56619119644,44.1985282898,-177.682647705,0
22.6,23.565263673566246,0.9107102575884061,395.66916284256416,0.5695723290779989,186.59622443990457,3.56619119644,44.1985282898,-177.682647705,0
22.700000000000003,23.437396427717115,2.5267779559336048,395.76053923733394,0.5602000187337681,188.7049962784395,3.56619119644,44.1985282898,-177.682647705,0
22.8,23.309529181867983,4.142845654278746,395.8519156321038,0.5508277083895377,190.81376811697433,3.56619119644,44.1985282898,-177.682647705,0
22.900000000000002,23.140817648004173,4.146372021250118,396.0010143083033,0.5371795187541366,192.46519874497363,3.563884886648544,38.28950142423265,-169.2580364569095,0
23.0,22.968149624889772,3.993695336244396,396.15570440492166,0.5231171348390785,194.07232781524496,3.56368589401,37.7969551086,-168.531814575,0
23.1,22.79548160177536,3.8410186512386693,396.31039450154003,0.50905475092402,195.67945688551632,3.56368589401,37.7969551086,-168.531814575,0
23.200000000000003,22.622813578660953,3.688341966232943,396.4650845981584,0.4949923670089613,197.28658595578767,3.56368589401,37.7969551086,-168.531814575,0
23.3,22.450145555546552,3.535665281227222,396.6197746947767,0.4809299830939032,198.893715026059,3.56368589401,37.7969551086,-168.531814575,0
23.400000000000002,22.25340680813906,3.196625897009852,396.81608583713137,0.4644926176442668,199.62029508691165,4.756717264237315,28.468680236799443,-162.33678495001405,0
23.5,22.054963449099706,2.844388903075591,397.0153444486951,0.44788706360586933,200.28451748600006,5.11778354645,25.6713600159,-160.461593628,0
23.6,21.856520090060343,2.4921519091413176,397.21460306025875,0.43128150956747124,200.9487398850885,5.11778354645,25.6713600159,-160.461593628,0
23.700000000000003,21.699772363609753,2.72228700256319,397.41013385791734,0.42181125779304407,201.81887449671038,5.436954675261476,18.60004604447114,-159.08622826539712,0
23.8,21.546511512245914,3.0011240486006567,397.6053529101813,0.41293770898619164,202.70622890137435,5.55195474625,16.066778183,-158.588256836,0
23.900000000000002,21.39325066088207,3.2799610946381335,397.80057196244525,0.4040641601793389,203.59358330603834,5.55195474625,16.066778183,-158.588256836,0
24.0,21.23998980951823,3.5587981406756004,397.99579101470925,0.39519061137248646,204.4809377107023,5.55195474625,16.066778183,-158.588256836,0
24.1,21.09775209622427,3.5868299413338116,398.1634230882259,0.3876250418853098,205.11874730372787,5.41829616363998,15.296734210289321,-158.35781129190156,0
24.200000000000003,20.971050135782658,3.261382698040889,398.2921747194362,0.3819029078443408,205.40485427862225,3.12884259224,2.62997674942,-154.408187866,0
24.3,20.844348175341047,2.9359354547479777,398.4209263506465,0.37618077380337195,205.6909612535166,3.12884259224,2.62997674942,-154.408187866,0
24.400000000000002,20.717646214899432,2.6104882114550545,398.5496779818568,0.37045863976240295,205.97706822841096,3.12884259224,2.62997674942,-154.408187866,0
24.5,20.617013896583288,2.3542571955851517,398.62435782053075,0.36540282071716707,205.77014092075476,2.25765323639,-1.96323692799,-153.674697876,0
24.6,20.518653156558408,2.104057335757238,398.69432611351084,0.3604050610297147,205.520253070422,2.25765323639,-1.96323692799,-153.674697876,0
24.700000000000003,20.42029241653353,1.853857475929324,398.76429440649093,0.35540730134226234,205.27036522008922,2.25765323639,-1.96323692799,-153.674697876,0
24.8,20.321931676508655,1.6036576161014189,398.8342626994711,0.3504095416548102,205.02047736975643,2.25765323639,-1.96323692799,-153.674697876,0
24.900000000000002,20.26992589030274,1.2719791721095834,398.8641915982916,0.34999999404,204.6277792074688,1.4629101528903559,-6.296559575657733,-154.2216869068109,0
25.0,20.22205778571891,0.9330278821215134,398.890546547583,0.34999999404,204.2223336782972,1.06722080708,-8.43393325806,-154.494064331,0
25.1,20.17418968113508,0.5940765921334314,398.9169014968744,0.34999999404,203.8168881491256,1.06722080708,-8.43393325806,-154.494064331,0
25.200000000000003,20.12632157655125,0.25512530214534945,398.94325644616583,0.34999999404,203.41144261995396,1.06722080708,-8.43393325806,-154.494064331,0
25.3,20.078453471967418,-0.08382598784272055,398.96961139545726,0.34999999404,203.00599709078236,1.0193477733935294,-8.484884383928756,-154.54186930439243,0
25.400000000000002,20.06101073956295,-0.013519301745634954,398.9564585116191,0.34999999404,202.6615045765609,-0.536128282547,-10.1497650146,-156.116409302,0
25.5,20.04402479632452,0.06293174993186824,398.9427124797319,0.34999999404,202.3179271761038,-0.536128282547,-10.1497650146,-156.116409302,0
25.6,20.029233340158235,0.12257874071400268,398.9227582584126,0.3503709760780566,201.96290181609382,-0.536128282547,-10.1497650146,-156.116409302,0
25.700000000000003,20.041641922020244,-0.02605578503001918,398.82585530917333,0.35534017410518276,201.46598227992882,-2.14730381966,-11.2233781815,-157.792419434,0
25.8,20.05405050388225,-0.1746903107740358,398.728952359934,0.36030937213230874,200.96906274376386,-2.14730381966,-11.2233781815,-157.792419434,0
25.900000000000002,20.06645908574426,-0.32332483651805766,398.6320494106947,0.3652785701594349,200.4721432075989,-2.14730381966,-11.2233781815,-157.792419434,0
26.0,20.079772360680973,-0.4807066711267071,398.5317874730305,0.370227519553562,199.97724849974682,-2.14730381966,-11.2233781815,-157.792419434,0
26.1,20.110325667329654,-0.804779161866829,398.3675159075871,0.37479060651015716,199.5209393689281,-3.7027015686,-10.3093976974,-159.271362305,0
26.200000000000003,20.14087897397833,-1.1288516526069508,398.2032443421438,0.37935369346675235,199.0646302381094,-3.7027015686,-10.3093976974,-159.271362305,0
26.3,20.171432280627013,-1.4529241433470612,398.0389727767005,0.38391678042334737,198.6083211072907,-3.7027015686,-10.3093976974,-159.271362305,0
26.400000000000002,20.20198558727569,-1.7769966340871832,397.8747012112572,0.38847986737994256,198.15201197647195,-3.7027015686,-10.3093976974,-159.271362305,0
26.5,20.25029973223892,-1.998307309636198,397.68581962900936,0.3955900957965134,197.44098901206004,-4.374486122510338,-9.55602699044415,-160.91583064909875,0
26.6,20.307486323419365,-2.1682832079455823,397.484644085934,0.4039727515169672,196.60272347332173,-4.80143070221,-9.09195137024,-161.961227417,0
26.700000000000003,20.36467291459981,-2.3382591062549665,397.28346854285866,0.41235540723742103,195.76445793458345,-4.80143070221,-9.09195137024,-161.961227417,0
26.8,20.42136372364916,-2.4961966197979226,397.0870485979199,0.4204392046242744,194.95607824983438,-4.80143070221,-9.09195137024,-161.961227417,0
26.900000000000002,20.472919498330704,-2.5294472686249536,396.9398844819818,0.42542759433527727,194.45723954633613,-4.45113945007,-5.5222568512,-164.331848145,0
27.0,20.524475273012243,-2.5626979174519837,396.7927203660437,0.43041598404627995,193.95840084283788,-4.45113945007,-5.5222568512,-164.331848145,0
27.1,20.576031047693785,-2.595948566279015,396.6455562501056,0.4354043737572828,193.4595621393396,-4.45113945007,-5.5222568512,-164.331848145,0
27.200000000000003,20.628324987052125,-2.6113421994148123,396.4978841719698,0.44033597156064896,192.96640262355842,-4.45113945007,-5.5222568512,-164.331848145,0
27.3,20.689255948138836,-2.417796774130559,396.3442685954843,0.4446030659602731,192.53969341250416,-3.92044830322,-5.627576828,-166.74041748,0
27.400000000000002,20.750186909225555,-2.2242513488462983,396.19065301899883,0.44887016035989735,192.11298420144988,-3.92044830322,-5.627576828,-166.74041748,0
27.5,20.811117870312266,-2.030705923562045,396.03703744251334,0.4531372547595215,191.68627499039565,-3.92044830322,-5.627576828,-166.74041748,0
27.6,20.87204883139898,-1.8371604982777847,395.8834218660278,0.45740434915914574,191.25956577934136,-3.92044830322,-5.627576828,-166.74041748,0
27.700000000000003,20.93205752302546,-1.7950548249129619,395.73496908058456,0.4629735013142839,190.85132520974466,-3.890778780347064,-5.6482449572617694,-166.78115115738166,0
27.8,20.990633974157912,-1.9881278649883836,395.59453386344603,0.47056468707609034,190.47176555966828,-2.86313676834,-6.32534885406,-168.234573364,0
27.900000000000002,21.049210425290365,-2.1812009050638124,395.45409864630756,0.478155872837897,190.09220590959194,-2.86313676834,-6.32534885406,-168.234573364,0
28.0,21.088189588155632,-2.248956703042939,395.32800584934324,0.48334468568675715,189.66553053785043,-2.031987026118621,-5.85356248869274,-169.14576673371874,0
28.1,21.12088038398185,-2.2765007735687877,395.20651524024555,0.48776262644171753,189.2237366993547,-1.8289154768,-5.73910331726,-169.372741699,0
28.200000000000003,21.153571179808065,-2.3040448440946357,395.0850246311479,0.4921805671966779,188.78194286085898,-1.8289154768,-5.73910331726,-169.372741699,0
28.3,21.186261975634277,-2.3315889146204833,394.9635340220503,0.4965985079516381,188.34014902236325,-1.8289154768,-5.73910331726,-169.372741699,0
28.400000000000002,21.214637543649904,-2.2733840404770493,394.8411737378359,0.5007205447874413,188.0,-1.8289154768,-5.73910331726,-169.372741699,0
28.5,21.228572429131027,-1.928224840400087,394.7159031316593,0.5038523547465138,188.0,-0.40841293335,-0.440161138773,-171.464553833,0
28.6,21.242507314612155,-1.5830656403231123,394.5906325254826,0.5069841647055863,188.0,-0.40841293335,-0.440161138773,-171.464553833,0
28.700000000000003,21.255773007321817,-1.2623732360024258,394.4664841256822,0.5101065634881696,187.98934268732023,-0.40841293335,-0.440161138773,-171.464553833,0
28.8,21.251638323359597,-1.5778674138881341,394.3715153800621,0.5129842524908196,187.70157351263853,0.7950143420048248,0.6219007371090337,-171.73112905459075,0
28.900000000000002,21.247503639397372,-1.8933615917738538,394.2765466344419,0.5158619414934696,187.41380433795686,0.886914670467,0.702830195427,-171.751495361,0
29.0,21.243368955435148,-2.208855769659562,394.1815778888218,0.5187396304961196,187.12603516327516,0.886914670467,0.702830195427,-171.751495361,0
29.1,21.22546119236579,-2.0705059080315267,394.1223099686684,0.5211783052341388,187.11783254309077,1.0543863035058112,1.2456432070335093,-171.84242366258295,0
29.200000000000003,21.19682042231185,-1.5784870368727941,394.09086278533863,0.5232748674255036,187.32748896217657,2.38651800156,5.43379116058,-172.585983276,0
29.3,21.16817965225791,-1.086468165714079,394.0594156020089,0.5253714296168683,187.53714538126238,2.38651800156,5.43379116058,-172.585983276,0
29.400000000000002,21.139538882203972,-0.5944492945553463,394.02796841867917,0.5274679918082331,187.74680180034818,2.38651800156,5.43379116058,-172.585983276,0
29.5,21.110898112150032,-0.10243042339663111,393.9965212353494,0.5295645539995979,187.95645821943398,2.38651800156,5.43379116058,-172.585983276,0
29.6,21.07314681243397,0.012754948717763316,393.996007214609,0.5330078252385863,188.90235432590973,3.7085006237,11.6674947739,-171.048156738,0
29.700000000000003,21.033007471020177,0.029165151638658713,394.00360135934807,0.5368040943250877,190.0412327438661,3.7085006237,11.6674947739,-171.048156738,0
29.8,20.992868129606386,0.04557535455955352,394.01119550408714,0.540600363411589,191.18011116182242,3.7085006237,11.6674947739,-171.048156738,0
29.900000000000002,20.95272878819259,0.06198555748044891,394.01878964882616,0.5443966324980904,192.31898957977882,3.7085006237,11.6674947739,-171.048156738,0
30.0,20.912589446778803,0.07839576040134373,394.02638379356523,0.5481929015845918,193.45786799773512,3.7085006237,11.6674947739,-171.048156738,0
30.1,20.850700530149442,0.07584378670445266,394.02561588645614,0.5554774587874606,194.5477445560528,3.7085006237,11.6674947739,-171.048156738,0
30.200000000000003,20.769052566041996,0.05606506055997749,394.01725122502677,0.5659310549175454,195.5931039198267,2.60130190849,28.9773273468,-165.928131104,0
30.3,20.687404601934556,0.03628633441550302,394.00888656359746,0.5763846510476298,196.63846328360057,2.60130190849,28.9773273468,-165.928131104,0
30.400000000000002,20.60575663782711,0.016507608271027846,394.0005219021681,0.5868382471777146,197.68382264737446,2.60130190849,28.9773273468,-165.928131104,0
30.5,20.524108673719667,-0.0032711178734466245,393.9921572407388,0.5972918433077989,198.7291820111483,2.60130190849,28.9773273468,-165.928131104,0
30.6,20.453376414911695,-0.06299560136395072,394.031332080442,0.5927049725672854,200.2158406229531,4.569346437169761,37.19413529196993,-161.4918025658416,0
30.700000000000003,20.386460826783708,-0.13668709813207985,394.0871290819878,0.5828592104090025,201.8567992872831,4.82400655746,38.2575035095,-160.919845581,0
30.8,20.319545238655724,-0.21037859490020636,394.1429260835336,0.57301344825072,203.4977579516131,4.82400655746,38.2575035095,-160.919845581,0
30.900000000000002,20.29378257447015,0.21080233273157853,394.26249996344205,0.5720098041109593,205.00490659025854,5.162521972047179,36.622429120146286,-157.7284900156307,0
31.0,20.286170807995706,0.8502515605189173,394.41020325639334,0.5749060621975511,206.45303701449168,5.38424301147,35.5647773743,-155.602172852,0
31.1,20.278559041521266,1.4897007883062785,394.5579065493446,0.5778023202841432,207.90116743872488,5.38424301147,35.5647773743,-155.602172852,0
31.200000000000003,20.275414487657333,1.8641393341961083,394.70515279103375,0.57847093254568,209.3058104447001,5.38424301147,35.5647773743,-155.602172852,0
31.3,20.28632303630309,1.404898670346048,394.850961226019,0.572131744224558,210.57364931799907,5.3583073616,41.4482421875,-150.689651489,0
31.400000000000002,20.297231584948854,0.9456580064959714,394.9967696610043,0.5657925559034358,211.84148819129805,5.3583073616,41.4482421875,-150.689651489,0
31.5,20.31118528479278,0.557006633472807,395.1506191536915,0.5589374121954508,213.2125179870413,5.3583073616,41.4482421875,-150.689651489,0
31.6,20.357407697195317,0.9163724810005858,395.38967774200785,0.5466148171235471,215.6770364138316,5.64419984818,39.8234329224,-146.858596802,0
31.700000000000003,20.403630109597856,1.2757383285283646,395.62873633032416,0.5342922220516434,218.14155484062184,5.64419984818,39.8234329224,-146.858596802,0
31.8,20.44985252200039,1.6351041760561307,395.8677949186405,0.5219696269797401,220.606073267412,5.64419984818,39.8234329224,-146.858596802,0
31.900000000000002,20.496574750928648,2.0119486556881463,396.10534787759286,0.5097774077183035,223.06677488709218,5.64419984818,39.8234329224,-146.858596802,0
32.0,20.560246907972846,2.9815337561008484,396.29184148141013,0.5020065320934934,225.39803979786254,-1.63283777237,38.415435791,-136.650726318,0
32.1,20.62391906501705,3.9511188565135846,396.47833508522734,0.49423565646868306,227.72930470863298,-1.63283777237,38.415435791,-136.650726318,0
32.2,20.673587546784912,4.381035476952308,396.58708178928185,0.490000009537,229.8107971425234,-2.2484348373928666,37.425737198457576,-135.2822210948797,0
32.300000000000004,20.70647787093829,4.164361638965565,396.6026779658844,0.490000009537,231.59303085310336,-4.56479263306,34.0614395142,-130.12612915,0
32.4,20.739368195091668,3.947687800978838,396.61827414248694,0.490000009537,233.37526456368317,-4.56479263306,34.0614395142,-130.12612915,0
32.5,20.77225851924505,3.7310139629920958,396.63387031908945,0.490000009537,235.15749827426313,-4.56479263306,34.0614395142,-130.12612915,0
32.6,20.80514884339843,3.514340125005354,396.649466495692,0.490000009537,236.93973198484306,-4.56479263306,34.0614395142,-130.12612915,0
32.7,20.775821703605438,2.404679685391452,396.516758581947,0.507378852282707,239.02753157310522,-6.85678434372,35.3446731567,-122.23625946,0
32.800000000000004,20.744316980908142,1.2637651213865455,396.37886009257744,0.5253659466101916,241.1260258279316,-6.85678434372,35.3446731567,-122.23625946,0
32.9,20.71281225821085,0.12285055738172002,396.24096160320795,0.5433530409376751,243.22452008275783,-6.85678434372,35.3446731567,-122.23625946,0
33.0,20.681743727255174,-1.0634012178857015,396.0914832409051,0.5583491505008047,245.33586185427257,-5.691963450426315,42.54994618692973,-116.36500752472446,0
33.1,20.65093086846123,-2.276227230362105,395.935217379292,0.5715921055049521,247.45473414975461,-5.54735136032,43.431678772,-115.630157471,0
33.2,20.620118009667284,-3.4890532428385086,395.7789515176788,0.5848350605090995,249.57360644523666,-5.54735136032,43.431678772,-115.630157471,0
33.300000000000004,20.58930515087334,-4.701879255314911,395.6226856560657,0.5980780155132468,251.6924787407187,-5.54735136032,43.431678772,-115.630157471,0
33.4,20.525584537043954,-4.417624496598018,395.51096212442343,0.6016189498463616,254.5902840773324,-4.132177385420916,44.37158638840138,-111.25240607833774,0
33.5,20.456277024779986,-3.8792035631296575,395.406800745633,0.6035127282418913,257.6203323999371,-2.64919400215,45.3284873962,-106.592468262,0
33.6,20.386969512516014,-3.3407826296612972,395.3026393668425,0.605406506637421,260.6503807225418,-2.64919400215,45.3284873962,-106.592468262,0
33.7,20.317662000252046,-2.802361696192937,395.1984779880521,0.6073002850329507,263.6804290451465,-2.64919400215,45.3284873962,-106.592468262,0
33.800000000000004,20.248354487988074,-2.2639407627245767,395.0943166092616,0.6091940634284805,266.7104773677512,-2.64919400215,45.3284873962,-106.592468262,0
33.9,20.15561101319424,-2.192224061339792,395.0300304596188,0.610000014305,269.84214619518866,-2.587751094381624,44.913589508055175,-96.24725340200592,0
34.0,20.04550427610656,-2.4662797166474673,394.9952871146223,0.610000014305,273.04910373661016,-2.55997419357,44.725730896,-91.5645446777,0
34.1,19.935397539018883,-2.7403353719551427,394.9605437696257,0.610000014305,276.2560612780317,-2.55997419357,44.725730896,-91.5645446777,0
34.2,19.825290801931203,-3.0143910272628185,394.9258004246292,0.610000014305,279.4630188194532,-2.55997419357,44.725730896,-91.5645446777,0
34.300000000000004,19.681587232680272,-2.284205157097072,394.9661237926975,0.6056060953692619,281.9772595140669,-0.594581365585,44.6002731323,-79.9905929565,0
34.4,19.531126724730562,-1.3520479107780323,395.02154445255906,0.6003284788053674,284.3521821549199,-0.594581365585,44.6002731323,-79.9905929565,0
34.5,19.380666216780842,-0.41989066445892664,395.0769651124207,0.5950508622414726,286.7271047957731,-0.594581365585,44.6002731323,-79.9905929565,0
34.6,19.229703034429527,0.49341263496555443,395.1393720718745,0.5889377167286269,289.0869119523203,-0.594581365585,44.6002731323,-79.9905929565,0
34.7,19.067541626635602,0.9867010159077545,395.35741488148267,0.5642112471545337,291.1099870206697,3.01894116402,42.8073539734,-70.014465332,0
34.800000000000004,18.905380218841678,1.4799893968499545,395.57545769109083,0.5394847775804406,293.13306208901906,3.01894116402,42.8073539734,-70.014465332,0
34.9,18.743218811047768,1.9732777777921195,395.793500500699,0.5147583080063491,295.15613715736833,3.01894116402,42.8073539734,-70.014465332,0
35.0,18.581057403253844,2.4665661587343197,396.01154331030716,0.49003183843225595,297.1792122257177,3.01894116402,42.8073539734,-70.014465332,0
35.1,18.423336891169193,3.100642508867457,396.30329358497096,0.4663168903550543,298.9773643081545,3.081199029552509,41.52292981703934,-69.3495354000138,0
35.2,18.26864812775478,3.830833194108508,396.64536310237276,0.44329249642590807,300.6219640425767,3.83781886101,25.9345016479,-61.2441635132,0
35.300000000000004,18.11395936434037,4.561023879349559,396.9874326197746,0.42026810249676183,302.2665637769989,3.83781886101,25.9345016479,-61.2441635132,0
35.4,17.97380456433963,4.783868917887766,397.28437458955085,0.40246654090966033,303.12555758691684,3.781943742235458,25.273027784350553,-61.047603903799505,0
35.5,17.845348800897895,4.5983287761486435,397.54499137985175,0.38886907044155183,303.3521820857141,2.58083105087,10.9813623428,-56.8187675476,0
35.6,17.71689303745616,4.412788634409522,397.8056081701527,0.3752715999734434,303.57880658451137,2.58083105087,10.9813623428,-56.8187675476,0
35.7,17.588437274014424,4.2272484926704,398.0662249604536,0.36167412950533495,303.80543108330863,2.58083105087,10.9813623428,-56.8187675476,0
35.800000000000004,17.46301760406087,4.033196671267312,398.3247005286845,0.3484217078313712,303.96843426453887,2.58083105087,10.9813623428,-56.8187675476,0
35.9,17.356026219671378,3.787481202454205,398.5701794445014,0.3372636412017387,303.74527285213924,1.92662990093,7.46999692917,-55.4530181885,0
36.0,17.249034835281876,3.5417657336410806,398.8156583603182,0.3261055745721053,303.5221114397396,1.92662990093,7.46999692917,-55.4530181885,0
36.1,17.142043450892377,3.296050264827956,399.06113727613507,0.314947507942472,303.29895002733997,1.92662990093,7.46999692917,-55.4530181885,0
36.2,17.035052066502878,3.050334796014832,399.30661619195195,0.3037894413128387,303.0757886149403,1.92662990093,7.46999692917,-55.4530181885,0
36.300000000000004,16.96515153334169,2.9276898631088217,399.50857615258127,0.2952563285130007,303.47436808632517,1.4446034828616168,4.461488622236047,-55.64471383254042,0
36.4,16.91432551250579,2.8683357519634125,399.6881558544778,0.28807313658371797,304.19268689391134,-0.594298362732,-6.26711797714,-56.4942321777,0
36.5,16.86349949166989,2.8089816408179997,399.8677355563744,0.28088994465443473,304.9110057014975,-0.594298362732,-6.26711797714,-56.4942321777,0
36.6,16.80766066974516,2.6895626308994527,399.9513808222584,0.2778072547477604,304.56145029290724,-2.170304929900389,-11.804465365423399,-55.028934916407394,0
36.7,16.75111297551371,2.5616496986025754,400.0214597678864,0.27530442673386607,304.0608842127385,-2.52426719666,-13.049454689,-54.6671257019,0
36.800000000000004,16.694565281282255,2.4337367663056986,400.09153871351447,0.27280159871997167,303.56031813256976,-2.52426719666,-13.049454689,-54.6671257019,0
36.9,16.638017587050808,2.3058238340088306,400.16161765914245,0.27029877070607744,303.05975205240105,-2.52426719666,-13.049454689,-54.6671257019,0
37.0,16.62227131990417,1.5931318517261213,400.0960547873485,0.2759142549006952,302.4085750187885,-5.42966794968,-18.1219882965,-56.6626777649,0
37.1,16.612055659443428,0.8011734526854846,400.01210575614994,0.28263017099161036,301.7369827691994,-5.42966794968,-18.1219882965,-56.6626777649,0
37.2,16.601839998982687,0.00921505364484787,399.9281567249513,0.28934608708252557,301.0653905196104,-5.42966794968,-18.1219882965,-56.6626777649,0
37.300000000000004,16.72141400572331,-0.2602671980478125,399.8003815160654,0.29531582832206715,300.46841661846116,-6.85163831711,-19.6256599426,-58.8023910522,0
37.4,16.854988325162896,-0.4733903450570732,399.6678788107212,0.30120508024783943,299.8794917418127,-6.85163831711,-19.6256599426,-58.8023910522,0
37.5,16.98856264460249,-0.6865134920663492,399.535376105377,0.30709433217361215,299.2905668651642,-6.85163831711,-19.6256599426,-58.8023910522,0
37.6,17.1236284307923,-1.0442520991485222,399.43975848645937,0.310000002384,298.4960193650275,-6.85163831711,-19.6256599426,-58.8023910522,0
37.7,17.260146736443385,-1.5428297629015966,399.3800627584303,0.310000002384,297.5012187501293,-7.29035615921,-14.5259256363,-60.749042511,0
37.800000000000004,17.39666504209447,-2.041407426654671,399.3203670304013,0.310000002384,296.50641813523106,-7.29035615921,-14.5259256363,-60.749042511,0
37.9,17.493785618792533,-2.261567935796226,399.255154517925,0.310000002384,295.8876652148499,-7.29035615921,-14.5259256363,-60.749042511,0
38.0,17.550053533367407,-2.193029521195028,399.184221489647,0.310000002384,295.65884719210266,-8.37804794312,-13.3838891983,-63.7500267029,0
38.1,17.606321447942282,-2.12449110659383,399.11328846136894,0.310000002384,295.4300291693554,-8.37804794312,-13.3838891983,-63.7500267029,0
38.2,17.662589362517156,-2.0559526919926325,399.0423554330909,0.310000002384,295.2012111466082,-8.37804794312,-13.3838891983,-63.7500267029,0
38.300000000000004,17.71436473461243,-2.026023319862575,398.9438075053699,0.31160771879498617,294.97320472754825,-8.37804794312,-13.3838891983,-63.7500267029,0
38.400000000000006,17.73339646635688,-2.2774937579081174,398.6439899536459,0.32493318482915645,294.75111363580316,-10.1224851608,-16.3913192749,-64.4834365845,0
38.5,17.75242819810133,-2.5289641959536415,398.34417240192204,0.33825865086332585,294.5290225440581,-10.1224851608,-16.3913192749,-64.4834365845,0
38.6,17.77145992984578,-2.780434633999184,398.0443548501981,0.35158411689749614,294.306931452313,-10.1224851608,-16.3913192749,-64.4834365845,0
38.7,17.79049166159023,-3.0319050720447263,397.74453729847414,0.3649095829316664,294.0848403605679,-10.1224851608,-16.3913192749,-64.4834365845,0
38.800000000000004,17.82949839400321,-3.2556845134067913,397.4456139900825,0.37831828435854614,293.0295340863456,-9.108487894831821,-10.688311338512445,-64.98035795171216,0
38.900000000000006,17.880852501505032,-3.462347003019594,397.14724345052565,0.3917784370284823,291.4591830039412,-8.67388439178,-8.24499511719,-65.1935577393,0
39.0,17.932206609006847,-3.6690094926323824,396.8488729109688,0.40523858969841753,289.8888319215369,-8.67388439178,-8.24499511719,-65.1935577393,0
39.1,17.983560716508666,-3.8756719822451853,396.550502371412,0.41869874236835375,288.31848083913246,-8.67388439178,-8.24499511719,-65.1935577393,0
39.2,18.036239974204783,-4.0122086691836,396.2603181558976,0.43100428994261153,286.8995716252603,-8.67388439178,-8.24499511719,-65.1935577393,0
39.300000000000004,18.095856078101765,-3.7816534521565246,396.0129874003741,0.43726575435865034,286.27342458649997,-6.13695478439,-7.35221815109,-72.023765564,0
39.400000000000006,18.155472181998743,-3.551098235129449,395.7656566448505,0.4435272187746892,285.6472775477397,-6.13695478439,-7.35221815109,-72.023765564,0
39.5,18.21508828589572,-3.320543018102389,395.51832588932695,0.4497886831907276,285.0211305089794,-6.13695478439,-7.35221815109,-72.023765564,0
39.6,18.242663828112168,-3.172919402880092,395.371005516724,0.45243822786724003,284.268529545926,-4.7075732671187005,-8.265395711595957,-73.62289459739766,0
39.7,18.26912033747088,-3.0281922158880237,395.22717805743883,0.4549616244160037,283.51151211546846,-4.21165704727,-8.58160591125,-74.1806488037,0
39.800000000000004,18.295576846829594,-2.8834650288959556,395.08335059815363,0.4574850209647673,282.75449468501085,-4.21165704727,-8.58160591125,-74.1806488037,0
39.900000000000006,18.321910119285793,-2.7380615111162436,394.9397562290603,0.46001026627906577,281.99794841123025,-4.21165704727,-8.58160591125,-74.1806488037,0
40.0,18.311386090872354,-2.3903831323284375,394.8658737332457,0.4630884345098249,281.38231417794805,-1.52314579487,-5.58521747589,-77.3023300171,0
