t_sec,airspeed,climb,altitude,throttle,heading,pitch,roll,yaw,is_boundary
0.0,17.5415992737,-0.502018928528,392.649993896,0.460000008345,289.0,-2.08845806122,9.60470294952,-70.8663330078,0
0.1,17.53673314695445,-0.47882835158925074,392.58196728851067,0.46485906829199886,289.2429532290544,-2.08845806122,9.60470294952,-70.8663330078,0
0.2,17.5318670202089,-0.4556377746505014,392.51394068102127,0.4697181282389978,289.4859064581089,-2.08845806122,9.60470294952,-70.8663330078,0
0.30000000000000004,17.52700089346335,-0.43244719771175216,392.4459140735319,0.47457718818599665,289.7288596871633,-2.08845806122,9.60470294952,-70.8663330078,0
0.4,17.522134766717798,-0.40925662077300284,392.3778874660426,0.4794362481329955,289.97181291621774,-2.12212872505,20.9942474365,-69.9898223877,0
0.5,17.541572568388546,-0.6207090336014,392.2775923891247,0.48792008529972863,290.5280063809358,-2.12212872505,20.9942474365,-69.9898223877,0
0.6000000000000001,17.564200150579126,-0.8629572760197024,392.17306222175466,0.4968796580580986,291.1253112077609,-2.12212872505,20.9942474365,-69.9898223877,0
0.7000000000000001,17.586827732769702,-1.1052055184380047,392.0685320543846,0.5058392308164685,291.72261603458594,-2.08435511589,29.6260986328,-67.1983413696,0
0.8,17.624902858566323,-1.31279768351378,391.9629767306488,0.515701220157406,292.7981719669167,-2.08435511589,29.6260986328,-67.1983413696,0
0.9,17.676371612032142,-1.490341666934359,391.856532556037,0.5263456401564254,294.2883904114815,-2.08435511589,29.6260986328,-67.1983413696,0
1.0,17.727840365497965,-1.667885650354938,391.75008838142526,0.5369900601554447,295.77860885604633,-2.08435511589,29.6260986328,-67.1983413696,0
1.1,17.779309118963788,-1.8454296337755172,391.64364420681346,0.547634480154464,297.2688273006112,-2.1262492414000693,30.765890615721453,-66.26130735578487,0
1.2000000000000002,17.830777872429607,-2.0229736171960964,391.53720003220167,0.5582789001534835,298.75904574517597,-2.38279891014,37.7430381775,-60.0749816895,0
1.3,17.91070448461728,-2.1742092188429667,391.41113187709595,0.5704672584150796,300.88410563638587,-2.38279891014,37.7430381775,-60.0749816895,0
1.4000000000000001,17.9961199615291,-2.3203705403031747,391.28127870867166,0.5829534067651204,303.1316118035428,-2.38279891014,37.7430381775,-60.0749816895,0
1.5,18.081535438440916,-2.4665318617633822,391.1514255402474,0.5954395551151612,305.3791179706997,-1.9319932999393972,40.4712186285747,-55.296239541854234,0
1.6,18.166950915352736,-2.6126931832235902,391.021572371823,0.607925703465202,307.62662413785665,-1.53769803047,42.7318611145,-51.1142807007,0
1.7000000000000002,18.274677576315646,-2.374582047798472,390.92124960466435,0.6158329494222241,310.0415292379328,-1.53769803047,42.7318611145,-51.1142807007,0
1.8,18.386849209732297,-2.059913770373312,390.8268100671843,0.6228279580475676,312.4897845915818,-0.6982105289084133,43.225864133971676,-47.81450989913918,0
1.9000000000000001,18.49902084314895,-1.7452454929481513,390.7323705297042,0.6298229666729112,314.9380399452307,0.00270518171601,43.6358757019,-44.7411575317,0
2.0,18.600532355179187,-1.529458619704466,390.6765828083771,0.6341078315388097,317.4647041346741,0.00270518171601,43.6358757019,-44.7411575317,0
2.1,18.701767077616253,-1.3162391978661552,390.6217986797934,0.6383223276385932,319.9934042061655,0.00270518171601,43.6358757019,-44.7411575317,0
2.2,18.803001800053323,-1.1030197760278444,390.56701455120975,0.6425368237383768,322.5221042776569,0.00270518171601,43.6358757019,-44.7411575317,0
2.3000000000000003,18.90423652249039,-0.8898003541895334,390.51223042262615,0.6467513198381604,325.05080434914834,0.970805381579499,44.3523075473855,-32.851695574000885,0
2.4000000000000004,18.99813871474377,-0.7224761842785218,390.46778466404373,0.649999976158,327.5911058933111,0.977282762527,44.3569602966,-32.7706069946,0
2.5,19.06737753009313,-0.7095232706776393,390.4581125933327,0.649999976158,330.1704296420838,0.977282762527,44.3569602966,-32.7706069946,0
2.6,19.13661634544249,-0.6965703570767569,390.4484405226217,0.649999976158,332.74975339085637,1.3958772878987857,44.54630242486011,-26.754647389329328,0
2.7,19.20226633932338,-0.6482838729099202,390.44416695715665,0.649999976158,335.3272490774225,1.52687120438,44.6056365967,-24.872625351,0
2.8000000000000003,19.24337578520586,-0.35838459411198076,390.4768086515545,0.649999976158,337.89224437947036,1.52687120438,44.6056365967,-24.872625351,0
2.9000000000000004,19.284485231088336,-0.06848531531404123,390.50945034595236,0.649999976158,340.4572396815183,1.52687120438,44.6056365967,-24.872625351,0
3.0,19.325594676970816,0.22141396348389697,390.5420920403502,0.649999976158,343.02223498356614,1.52687120438,44.6056365967,-24.872625351,0
3.1,19.366704122853296,0.5113132422818364,390.57473373474807,0.649999976158,345.587230285614,2.61020588875,45.46534729,-13.0362138748,0
3.2,19.37712393496386,0.6681746850904133,390.65400687377445,0.649999976158,348.2616317491244,2.61020588875,45.46534729,-13.0362138748,0
3.3000000000000003,19.3816578625095,0.7995211494140829,390.7422233355599,0.649999976158,350.95701593409194,2.61020588875,45.46534729,-13.0362138748,0
3.4000000000000004,19.386191790055143,0.9308676137377525,390.8304397973453,0.649999976158,353.65240011905956,2.61020588875,45.46534729,-13.0362138748,0
3.5,19.390725717600784,1.0622140780614215,390.9186562591308,0.649999976158,356.34778430402713,4.24956417084,46.2776222229,-2.22648191452,0
3.6,19.379650938826522,1.3212281944307738,391.03873330828515,0.6457986775777341,283.26713959730534,4.24956417084,46.2776222229,-2.22648191452,0
3.7,19.36359358357337,1.6209960944360369,391.1689808232023,0.6402562498188041,185.99743966197002,4.24956417084,46.2776222229,-2.22648191452,0
3.8000000000000003,19.347536228320216,1.9207639944413,391.2992283381194,0.634713822059874,88.7277397266347,4.64824914932,46.2603492737,7.29652023315,0
3.9000000000000004,19.32789937774507,2.1819578961090342,391.43569539990307,0.6292094735510817,6.434787339140021,4.64824914932,46.2603492737,7.29652023315,0
4.0,19.28789914059062,2.223708225597726,391.60754483428366,0.6239217540420368,9.343035842565905,4.64824914932,46.2603492737,7.29652023315,0
4.1000000000000005,19.247898903436177,2.265458555086419,391.77939426866425,0.6186340345329918,12.251284345991817,4.64824914932,46.2603492737,7.29652023315,0
4.2,19.207898666281732,2.3072088845751106,391.9512437030448,0.6133463150239469,15.1595328494177,4.40372943878,46.4998550415,17.1704311371,0
4.3,19.162541401590328,2.321332710462359,392.1255223921198,0.6075117538464098,17.995303155155195,4.40372943878,46.4998550415,17.1704311371,0
4.4,19.107950567516692,2.287838480248052,392.3039882337929,0.6007346362880657,20.706147377829307,4.40372943878,46.4998550415,17.1704311371,0
4.5,19.053359733443056,2.254344250033745,392.4824540754659,0.5939575187297217,23.416991600503394,4.40372943878,46.4998550415,17.1704311371,0
4.6000000000000005,18.998768899369423,2.2208500198194376,392.6609199171389,0.5871804011713776,26.127835823177506,4.260720388314297,46.58909947913588,21.14852864052363,0
4.7,18.944178065295787,2.1873557896051303,392.83938575881194,0.5804032836130336,28.838680045851596,3.97562861443,46.7573318481,29.0916957855,0
4.800000000000001,18.892347701093136,2.9034061256396138,392.96880470376965,0.5770299758266028,31.079007221619346,3.97562861443,46.7573318481,29.0916957855,0
4.9,18.840692004328844,3.66688354309166,393.09512022930636,0.5738720425094852,33.289562651587275,3.7983114436406824,46.86922374157919,30.852844318538015,0
5.0,18.78903630756455,4.430360960543707,393.22143575484307,0.5707141091923676,35.5001180815552,3.23624992371,47.2212867737,36.4426727295,0
5.1000000000000005,18.753527059966586,3.3495963072823534,393.34844205235913,0.569999992847,37.789928331249826,3.23624992371,47.2212867737,36.4426727295,0
5.2,18.72273602302131,1.7299191975090866,393.47565020278284,0.569999992847,40.10289791033376,2.86938561668504,47.65621469382384,40.15936450877874,0
5.300000000000001,18.695247381231795,0.4064718483178911,393.59655628171737,0.5689644106792079,42.414233262171095,2.6713411808,47.8910217285,42.1659164429,0
5.4,18.682823588006624,0.4343638370693335,393.68871360462873,0.5632047153154308,44.718113604892636,2.6713411808,47.8910217285,42.1659164429,0
5.5,18.67039979478145,0.46225582582077585,393.78087092754004,0.5574450199516536,47.021993947614185,2.6713411808,47.8910217285,42.1659164429,0
5.6000000000000005,18.65797600155628,0.49014781457221845,393.87302825045134,0.5516853245878764,49.32587429033575,1.58353853226,46.6065406799,50.4298324585,0
5.7,18.66052419461923,0.602087026553357,393.9194296347522,0.5470100045164841,51.6445007398208,1.58353853226,46.6065406799,50.4298324585,0
5.800000000000001,18.66926534500033,0.7487912226957887,393.94690470096714,0.5427832214510273,53.96922671464858,1.58353853226,46.6065406799,50.4298324585,0
5.9,18.678006495381425,0.8954954188382191,393.9743797671821,0.5385564383855707,56.293952689476335,1.58353853226,46.6065406799,50.4298324585,0
6.0,18.686747645762523,1.0421996149806496,394.00185483339703,0.5343296553201139,58.61867866430409,0.7507979689007962,46.131701163902676,54.72404241999655,0
6.1000000000000005,18.695488796143618,1.1889038111230814,394.029329899612,0.5301028722546571,60.94340463913187,-0.6051171422,45.3644332886,61.7406959534,0
6.2,18.73983864039541,0.7586175142736424,394.01405877030425,0.532656760938697,63.39109862207468,-0.6051171422,45.3644332886,61.7406959534,0
6.300000000000001,18.785077007939133,0.3139339049557853,393.99772101972417,0.5353798438314957,65.84186095511679,-0.6051171422,45.3644332886,61.7406959534,0
6.4,18.830315375482858,-0.130749704362068,393.9813832691441,0.5381029267242946,68.29262328815886,-1.7037038879724498,45.483415802565325,68.41127096379024,0
6.5,18.878733952243476,-0.438026869873003,393.9488726469252,0.5406815930804544,70.68157227246986,-2.06332063675,45.5217933655,70.5989151001,0
6.6000000000000005,18.934456699277032,-0.42971471602928346,393.8792168558841,0.5429285696319823,72.92855096694146,-2.06332063675,45.5217933655,70.5989151001,0
6.7,18.990179446310588,-0.421402562185564,393.809561064843,0.5451755461835104,75.17552966141302,-2.06332063675,45.5217933655,70.5989151001,0
6.800000000000001,19.045902193344144,-0.41309040834184446,393.73990527380187,0.5474225227350384,77.42250835588462,-2.06332063675,45.5217933655,70.5989151001,0
6.9,19.101624940377704,-0.404778254498125,393.67024948276077,0.5496694992865664,79.6694870503562,-2.2411403656,46.0820617676,80.5659713745,0
7.0,19.176413865695256,-0.7449910728316316,393.57247836267965,0.5538899159940914,82.13944928059304,-2.2411403656,46.0820617676,80.5659713745,0
7.1000000000000005,19.25449093683023,-1.145310374617666,393.4698584837014,0.5584506714364278,84.64786716615623,-2.2411403656,46.0820617676,80.5659713745,0
7.2,19.332568007965204,-1.5456296764036968,393.3672386047232,0.5630114268787643,87.15628505171938,-2.2411403656,46.0820617676,80.5659713745,0
7.300000000000001,19.410645079100178,-1.9459489781897312,393.2646187257449,0.5675721823211006,89.66470293728257,-1.74443888664,45.1492195129,91.2755050659,0
7.4,19.495647900469194,-1.9594742004242969,393.1599554312088,0.569999992847,92.07220518539171,-1.74443888664,45.1492195129,91.2755050659,0
7.5,19.588533911501663,-1.5327336049840141,393.05296623235046,0.569999992847,94.36484087274222,-1.74443888664,45.1492195129,91.2755050659,0
7.6000000000000005,19.681419922534133,-1.1059930095437278,392.9459770334921,0.569999992847,96.65747656009275,-1.6227298975,43.6796264648,97.850112915,0
7.7,19.772129940420655,-1.3514386191566543,392.84965169966205,0.569999992847,99.41032736635817,-1.6227298975,43.6796264648,97.850112915,0
7.800000000000001,19.86245776048316,-1.7149489871007444,392.7551993983905,0.569999992847,102.24401170712129,-1.6227298975,43.6796264648,97.850112915,0
7.9,19.952785580545665,-2.0784593550448314,392.66074709711893,0.569999992847,105.07769604788439,-1.40063631535,43.1982688904,106.511901855,0
8.0,20.026978745493555,-2.009961001826508,392.5850338793612,0.5714505376278043,107.59560078044964,-1.40063631535,43.1982688904,106.511901855,0
8.1,20.09338640826374,-1.7330042207394964,392.51836288621064,0.5736010180111724,109.96113145792455,-1.40063631535,43.1982688904,106.511901855,0
8.200000000000001,20.15979407103393,-1.45604743965248,392.45169189306,0.5757514983945404,112.32666213539949,-1.40063631535,43.1982688904,106.511901855,0
8.3,20.226201733804118,-1.1790906585654688,392.3850208999094,0.5779019787779085,114.69219281287438,-1.1885706349809588,43.31834020357845,108.4756129506271,0
8.4,20.292477761034235,-0.9009428680163841,392.3191930711771,0.5800652972244756,117.06531397576558,-0.210449010134,43.8708610535,117.544143677,0
8.5,20.353490949104586,-0.5751780643609254,392.28707527786804,0.5827418863402355,119.74190564419094,-0.210449010134,43.8708610535,117.544143677,0
8.6,20.414504137174937,-0.249413260705467,392.254957484559,0.5854184754559955,122.4184973126163,-0.210449010134,43.8708610535,117.544143677,0
8.700000000000001,20.475517325245285,0.07635154294999735,392.22283969125,0.5880950645717554,125.0950889810417,0.25492043508553275,43.86733592821714,122.28559421143329,0
8.8,20.52894086083369,0.06501293515486639,392.199981689,0.5887275652470929,127.69982535718735,0.804282188416,43.8631782532,127.914649963,0
8.9,20.563629168769424,-0.778473016809327,392.199981689,0.584314187686952,130.1271853301167,0.804282188416,43.8631782532,127.914649963,0
9.0,20.598317476705155,-1.6219589687735203,392.199981689,0.579900810126811,132.55454530304607,0.804282188416,43.8631782532,127.914649963,0
9.1,20.63300578464089,-2.4654449207377134,392.199981689,0.57548743256667,134.98190527597544,0.804282188416,43.8631782532,127.914649963,0
9.200000000000001,20.667694092576625,-3.3089308727019215,392.199981689,0.571074055006529,137.40926524890486,1.31132018566,40.695690155,138.765426636,0
9.3,20.674333612474832,-1.8228618987263852,392.2170619840925,0.5657308351450621,139.49420662070312,1.31132018566,40.695690155,138.765426636,0
9.4,20.67195148025649,0.41248843814099345,392.2396360096152,0.56008853948201,141.46901198614324,1.31132018566,40.695690155,138.765426636,0
9.5,20.669569348038145,2.647838775008372,392.26221003513785,0.5544462438189579,143.44381735158333,1.389316082,37.21900177,145.905059814,0
9.600000000000001,20.659452759462326,4.241347544680086,392.2976778265124,0.5483426374427204,145.44196607093136,1.389316082,37.21900177,145.905059814,0
9.700000000000001,20.620584203329596,3.4488828129508313,392.38107673551497,0.5405241606158486,147.5268910707583,1.389316082,37.21900177,145.905059814,0
9.8,20.58171564719687,2.6564180812215756,392.4644756445175,0.5327056837889769,149.61181607058523,1.389316082,37.21900177,145.905059814,0
9.9,20.542847091064143,1.8639533494923208,392.54787455352,0.5248872069621052,151.69674107041217,1.8097897565869814,32.32944696414063,151.57054602288264,0
10.0,20.4934325757404,1.4460156554470498,392.6489695274004,0.5154451672258897,153.45548146512445,1.92429351807,31.0213871002,153.399215698,0
10.100000000000001,20.426434956825435,1.6525207059671367,392.7795688579988,0.5032961878642884,154.67037965471235,1.92429351807,31.0213871002,153.399215698,0
10.200000000000001,20.35943733791047,1.85902575648722,392.9101681885972,0.4911472085026874,155.88527784430022,2.1665343157314343,29.51386048748315,154.76340971562985,0
10.3,20.289380826599615,2.0250643001065085,393.0447606113776,0.47916832690695293,157.08316625375528,2.76062750816,25.9731369019,158.142089844,0
10.4,20.18528608285671,1.740806400002695,393.2237866991008,0.46908223084970757,158.09177606990102,2.76062750816,25.9731369019,158.142089844,0
10.5,20.0811913391138,1.4565484998988818,393.402812786824,0.4589961347924622,159.10038588604678,2.76062750816,25.9731369019,158.142089844,0
10.600000000000001,19.97709659537089,1.1722905997950637,393.5818388745471,0.4489100387352167,160.10899570219257,3.3678111058293445,22.638128081781076,160.59414255273288,0
10.700000000000001,19.87119413617944,0.9757295231555422,393.7596241531062,0.439005886089747,161.09941117336245,3.56872868538,21.5426082611,161.407943726,0
10.8,19.75159604215195,1.443578141866898,393.92800879882464,0.4304801752397001,161.95198243621354,3.56872868538,21.5426082611,161.407943726,0
10.9,19.631997948124457,1.9114267605782538,394.0963934445431,0.42195446438965317,162.8045536990646,3.56872868538,21.5426082611,161.407943726,0
11.0,19.512399854096966,2.3792753792896093,394.26477809026153,0.41342875353960623,163.65712496191566,3.56872868538,21.5426082611,161.407943726,0
11.100000000000001,19.39280176006947,2.8471239980009737,394.43316273598,0.4049030426895591,164.5096962247667,2.26758098602,17.0571784973,165.035125732,0
11.200000000000001,19.28522355783218,2.947998311519938,394.5657602335432,0.3991683283754777,165.2495027697393,2.26758098602,17.0571784973,165.035125732,0
11.3,19.193913440708968,2.5521985005332044,394.64992232234056,0.3972110331923417,165.83669013474494,2.26758098602,17.0571784973,165.035125732,0
11.4,19.10260332358576,2.156398689546471,394.734084411138,0.3952537380092056,166.42387749975057,2.26758098602,17.0571784973,165.035125732,0
11.5,19.01129320646255,1.760598878559737,394.81824649993536,0.39329644282606957,167.01106486475618,2.26758098602,17.0571784973,165.035125732,0
11.600000000000001,18.91998308933934,1.3647990675729964,394.9024085887328,0.3913391476429335,167.5982522297618,0.16684931265898584,20.36733487945219,168.42457805867932,0
11.700000000000001,18.83993425878937,1.0047310341803297,394.96323282651514,0.389999985695,168.24305094187721,-0.141527712345,20.8494701385,168.924606323,0
11.8,18.784282573716812,0.7220745265897218,394.9734965051074,0.389999985695,169.01266242804337,-0.141527712345,20.8494701385,168.924606323,0
11.9,18.728630888644254,0.43941801899911404,394.98376018369964,0.389999985695,169.78227391420953,-0.141527712345,20.8494701385,168.924606323,0
12.0,18.672979203571696,0.15676151140850625,394.99402386229195,0.389999985695,170.5518854003757,-1.4521974583121746,24.877823913570808,170.52796218390765,0
12.100000000000001,18.63515026496236,-0.06321247238025474,394.97002281185775,0.3931009828742372,171.31009970560243,-1.9152661562,26.2942295074,171.094284058,0
12.200000000000001,18.622163348872995,-0.19581716821402761,394.89826227767225,0.40052426797469504,172.05242818615304,-1.9152661562,26.2942295074,171.094284058,0
12.3,18.609176432783627,-0.32842186404780055,394.82650174348674,0.4079475530751529,172.79475666670362,-1.9152661562,26.2942295074,171.094284058,0
12.4,18.596189516694263,-0.46102655988157343,394.75474120930124,0.4153708381756107,173.53708514725423,-3.275705375359583,31.755206949360907,174.179674606389,0
12.5,18.60093014556839,-0.6141593808994,394.65730484089573,0.4230991402587631,174.41322043314977,-3.32166409492,31.9389076233,174.283813477,0
12.600000000000001,18.635040651390863,-0.8013019033100383,394.51733037185977,0.43133277521611474,175.51103838384336,-3.32166409492,31.9389076233,174.283813477,0
12.700000000000001,18.66915115721334,-0.9884444257206731,394.3773559028238,0.4395664101734662,176.60885633453694,-3.32166409492,31.9389076233,174.283813477,0
12.8,18.703261663035814,-1.1755869481313082,394.23738143378785,0.44780004513081767,177.7066742852305,-4.96316719055,33.2044334412,178.984542847,0
12.9,18.771181264637086,-1.46152706885003,394.04957148867743,0.4590246004569321,179.50410200322568,-4.96316719055,33.2044334412,178.984542847,0
13.0,18.85142799227163,-1.783489757403658,393.8443202624902,0.4713396745174857,181.55661426509815,-4.96316719055,33.2044334412,178.984542847,0
13.100000000000001,18.93167471990618,-2.105452445957291,393.63906903630294,0.4836547485780396,183.60912652697064,-4.96316719055,33.2044334412,178.984542847,0
13.200000000000001,19.011921447540725,-2.4274151345109196,393.4338178101157,0.49596982263859324,185.66163878884308,-4.973914531923011,33.230926535815236,176.11502851956936,0
13.3,19.09216817517527,-2.749377823064547,393.22856658392845,0.5082848966991469,187.71415105071554,-6.2043299675,36.3640518188,-171.759094238,0
13.4,19.216009074627575,-2.901670220250193,393.0441625523779,0.5158251343105127,189.6019136987194,-6.2043299675,36.3640518188,-171.759094238,0
13.5,19.34690358079727,-3.0265096929500293,392.8631316302591,0.52259279574832,191.4630195957261,-6.2043299675,36.3640518188,-171.759094238,0
13.600000000000001,19.477798086966967,-3.151349165649868,392.68210070814024,0.5293604571861273,193.3241254927329,-6.2043299675,36.3640518188,-171.759094238,0
13.700000000000001,19.60869259313666,-3.276188638349704,392.50106978602145,0.5361281186239346,195.18523138973964,-6.2043299675,36.3640518188,-171.759094238,0
13.8,19.739587099306355,-3.4010281110495404,392.3200388639026,0.5428957800617419,197.04633728674636,-6.2043299675,36.3640518188,-171.759094238,0
13.9,19.870481605476048,-3.5258675837493767,392.1390079417838,0.5496634414995492,198.90744318375312,-3.85187149048,36.8236541748,-160.416015625,0
14.0,19.96510306969857,-3.0512971975427208,392.0299933654924,0.5530305041335905,201.1213465719415,-3.85187149048,36.8236541748,-160.416015625,0
14.100000000000001,20.05782618837064,-2.5453567641199846,391.92474775652,0.5562195968135979,203.3537135769551,-3.6301686594311287,37.18939879436036,-159.31921463364895,0
14.200000000000001,20.15054930704271,-2.0394163306972577,391.8195021475476,0.5594086894936052,205.58608058196867,-2.59340691566,38.7212104797,-153.458892822,0
14.3,20.211354197401988,-1.858284760491976,391.7436208650161,0.5643357529288135,207.7343018718424,-2.59340691566,38.7212104797,-153.458892822,0
14.4,20.26489378378308,-1.7510869657756545,391.6744235611697,0.5696584174518389,209.86336971143808,-2.59340691566,38.7212104797,-153.458892822,0
14.5,20.318433370164175,-1.6438891710593329,391.6052262573233,0.5749810819748642,211.99243755103376,-2.3558855573548487,39.002009181563814,-152.33146647221295,0
14.600000000000001,20.37048099276638,-1.5284185857708532,391.53777967890323,0.5802931089128397,214.13190625351322,-0.825084984303,40.7003746033,-144.976989746,0
14.700000000000001,20.397877771136933,-1.2762615241475923,391.4992593119558,0.5854293772595016,216.44322232551352,-0.825084984303,40.7003746033,-144.976989746,0
14.8,20.425274549507485,-1.0241044625243312,391.46073894500836,0.5905656456061636,218.75453839751384,-0.825084984303,40.7003746033,-144.976989746,0
14.9,20.452671327878036,-0.7719474009010704,391.42221857806095,0.5957019139528256,221.06585446951414,-0.3387063386837305,42.18204670003573,-137.89941160198282,0
15.0,20.478820383744562,-0.588386319316179,391.3855339079959,0.6007417571510134,223.40795370902282,-0.270649015903,42.3889427185,-136.455123901,0
15.100000000000001,20.498571069009923,-0.7565881502529928,391.358262764518,0.6052871283546521,225.9079102552327,-0.270649015903,42.3889427185,-136.455123901,0
15.200000000000001,20.518321754275284,-0.9247899811898036,391.33099162104,0.6098324995582909,228.40786680144254,-0.270649015903,42.3889427185,-136.455123901,0
15.3,20.538072439540645,-1.0929918121266144,391.3037204775621,0.6143778707619295,230.9078233476524,-0.270649015903,42.3889427185,-136.455123901,0
15.4,20.55782312480601,-1.2611936430634252,391.27644933408413,0.6189232419655682,233.40777989386223,0.654794573784,44.3884849548,-125.612014771,0
15.5,20.565921155482233,-1.3643581261774982,391.269989014,0.620000004768,235.93563096145166,0.654794573784,44.3884849548,-125.612014771,0
15.600000000000001,20.57040184353575,-1.4473330148478842,391.269989014,0.620000004768,238.47214134699777,0.654794573784,44.3884849548,-125.612014771,0
15.700000000000001,20.574810798895736,-1.5289006497061535,391.27006145520244,0.620000004768,241.00885428501587,1.18145895004,44.6857032776,-118.792724609,0
15.8,20.55826093368119,-1.1992976077216837,391.2912997287441,0.620000004768,243.6047488975094,1.18145895004,44.6857032776,-118.792724609,0
15.9,20.541711068466647,-0.8696945657372139,391.3125380022858,0.620000004768,246.20064351000295,1.18145895004,44.6857032776,-118.792724609,0
16.0,20.525161203252104,-0.540091523752744,391.33377627582746,0.620000004768,248.7965381224965,1.18145895004,44.6857032776,-118.792724609,0
16.1,20.50861133803756,-0.2104884817682684,391.3550145493692,0.620000004768,251.39243273499005,1.40910351276,45.1976165771,-107.269042969,0
16.2,20.479624969297618,0.14231276617508493,391.39403247397536,0.620000004768,254.00261370976108,1.40910351276,45.1976165771,-107.269042969,0
16.3,20.446838415219595,0.5022026208136302,391.4384832735978,0.620000004768,256.61716012569906,1.40910351276,45.1976165771,-107.269042969,0
16.400000000000002,20.414051861141573,0.8620924754521755,391.4829340732202,0.620000004768,259.23170654163704,1.40910351276,45.1976165771,-107.269042969,0
16.5,20.38126530706355,1.221982330090708,391.5273848728426,0.620000004768,261.8462529575749,2.003272295,45.9543609619,-97.977104187,0
16.6,20.32684230390806,1.1720093930780908,391.5880857869758,0.6175796165976961,264.17835143076724,2.003272295,45.9543609619,-97.977104187,0
16.7,20.27106748796765,1.0964288455082234,391.6498019838143,0.6150080062161425,266.49280298145794,2.003272295,45.9543609619,-97.977104187,0
16.8,20.215292672027235,1.0208482979383535,391.7115181806528,0.6124363958345888,268.80725453214876,2.9090543467835692,45.10573637239522,-90.51809741171641,0
16.900000000000002,20.158343682771125,0.936894734694755,391.77405409748843,0.6096748069668753,271.1300826716308,3.19315743446,44.8459701538,-88.1771240234,0
17.0,20.080239931514587,0.7020868201939829,391.85135868707056,0.6034904272673748,273.60382953825933,3.19315743446,44.8459701538,-88.1771240234,0
17.1,20.002136180258045,0.46727890569320246,391.92866327665274,0.5973060475678742,276.07757640488785,3.2710204053321754,44.50508583925336,-86.3287894341025,0
17.2,19.924032429001507,0.2324709911924303,392.00596786623487,0.5911216678683737,278.55132327151637,3.52556061745,43.402759552,-80.2374572754,0
17.3,19.81635833721265,0.386178512498613,392.1042077431649,0.585681230912334,280.94343614110755,3.52556061745,43.402759552,-80.2374572754,0
17.400000000000002,19.702132608816115,0.62596593366592,392.20708606498647,0.5804056227145817,283.31746209408595,3.52556061745,43.402759552,-80.2374572754,0
17.5,19.587906880419585,0.8657533548332186,392.309964386808,0.5751300145168297,285.69148804706424,3.5522652104942605,43.350684252454634,-79.1220750629596,0
17.6,19.473761913396768,1.1101956562418882,392.41283085137644,0.56986207226783,288.05516828428193,3.73353815079,42.9978866577,-71.403968811,0
17.7,19.36246272890047,1.5186616269377657,392.51527950279797,0.5648642544855815,290.0542973037507,3.73353815079,42.9978866577,-71.403968811,0
17.8,19.25116354440417,1.9271275976336577,392.6177281542195,0.5598664367033329,292.0534263232195,3.73353815079,42.9978866577,-71.403968811,0
17.900000000000002,19.13986435990787,2.33559356832955,392.7201768056411,0.5548686189210842,294.0525553426883,3.8717105714255133,41.94081807291669,-65.03832771631494,0
18.0,19.028551222325376,2.7282197990102492,392.82302213885083,0.5498003231168698,296.054914391677,3.90220355988,41.7099304199,-63.6323242188,0
18.1,18.916712338423533,2.5240114016073836,392.9408142721553,0.5420764455930168,298.1789795712818,3.90220355988,41.7099304199,-63.6323242188,0
18.2,18.804873454521694,2.319803004204525,393.0586064054598,0.5343525680691641,300.3030447508865,3.90220355988,41.7099304199,-63.6323242188,0
18.3,18.693034570619854,2.1155946068016593,393.17639853876426,0.5266286905453111,302.4271099304913,3.90220355988,41.7099304199,-63.6323242188,0
18.400000000000002,18.58119568671801,1.911386209398794,393.29419067206874,0.5189048130214582,304.5511751100961,3.483293594999851,40.726416559090225,-60.87074555828494,0
18.5,18.469356802816172,1.7071778119959355,393.4119828053732,0.5111809354976055,306.67524028970087,2.27057766914,37.963104248,-52.862537384,0
18.6,18.378166148637742,1.8918368626836277,393.50829536880366,0.5037357810128886,308.25284308485874,2.27057766914,37.963104248,-52.862537384,0
18.7,18.290702328628143,2.146683261734897,393.6007310480648,0.49634093372446947,309.7318139530371,1.6445359933463526,36.60562751729883,-48.19809416609384,0
18.8,18.204110886140576,2.3193559260837966,393.68985370644515,0.4896347705844966,311.219142927387,1.63058245182,36.5758972168,-48.0829391479,0
18.900000000000002,18.122768099579687,1.9976306391216887,393.75904358774005,0.4870720729122373,312.756758414611,1.63058245182,36.5758972168,-48.0829391479,0
19.0,18.0414253130188,1.6759053521595921,393.8282334690349,0.4845093752399781,314.294373901835,1.63058245182,36.5758972168,-48.0829391479,0
19.1,17.96008252645791,1.354180065197484,393.89742335032975,0.4819466775677188,315.83198938905906,1.10849714279,35.6750602722,-41.6808853149,0
19.200000000000003,17.878635730085826,1.0603433319517321,393.959908063061,0.47929103741024287,317.4962667758196,1.10849714279,35.6750602722,-41.6808853149,0
19.3,17.796860246050482,0.8546388955308635,394.00120336912295,0.47634168411231304,319.56081605333117,1.10849714279,35.6750602722,-41.6808853149,0
19.400000000000002,17.71508476201513,0.6489344591099874,394.04249867518496,0.47339233081438303,321.6253653308428,1.10849714279,35.66631229190799,-41.6808853149,0
19.5,17.633309277979787,0.4432300226891186,394.08379398124697,0.4704429775164532,323.6899146083543,0.112511783838,35.2556152344,-35.8146209717,0
19.6,17.58353008516319,0.23378317775627086,394.089996338,0.469999998808,325.476135959935,0.112511783838,35.2556152344,-35.8146209717,0
19.700000000000003,17.53940594319928,0.023674896461875983,394.089996338,0.469999998808,327.213165404738,0.112511783838,35.2556152344,-35.8146209717,0
19.8,17.49528180123537,-0.18643338483251143,394.089996338,0.469999998808,328.950194849541,0.112511783838,35.2556152344,-35.8146209717,0
19.900000000000002,17.451157659271463,-0.3965416661269063,394.089996338,0.469999998808,330.687224294344,-1.233382267713374,35.53595858882949,-29.477118711020296,0
20.0,17.41282155030545,-0.5557471621580531,394.0799604616515,0.47059029728590884,332.41320932861396,-1.61564445496,35.6018791199,-27.6747665405,0
20.1,17.39239545226461,-0.5574432866084855,394.038870399,0.47300716658542724,334.1050194517561,-1.61564445496,35.6018791199,-27.6747665405,0
20.200000000000003,17.371969354223765,-0.559139411058918,393.9977803363485,0.4754240358849456,335.79682957489825,-1.61564445496,35.6018791199,-27.6747665405,0
20.3,17.351543256182925,-0.5608355355093503,393.956690273697,0.4778409051844638,337.48863969804034,-1.9165508734516963,36.74510686383634,-22.68800671814421,0
20.400000000000002,17.333352311933226,-0.5839495821206527,393.91235567895467,0.4805260453460664,339.18411952750233,-2.05170941353,37.2570457458,-20.4473724365,0
20.5,17.33388193324889,-0.7864497710527157,393.8408464548974,0.48545809231239545,340.9103350396892,-2.05170941353,37.2570457458,-20.4473724365,0
20.6,17.334411554564554,-0.988949959984786,393.76933723084016,0.4903901392787246,342.63655055187604,-2.05170941353,37.2570457458,-20.4473724365,0
20.700000000000003,17.33494117588022,-1.1914501489168563,393.6978280067829,0.49532218624505375,344.36276606406295,-2.3309100097699487,37.39786488754077,-15.527072951992457,0
20.8,17.33658475035903,-1.38823125914851,393.6255681757766,0.5001386437952944,346.11091514201524,-2.48043107986,37.4733848572,-12.8849506378,0
20.900000000000002,17.35872472418938,-1.479783060963349,393.5394974052319,0.5028282912503325,348.2626351581411,-2.48043107986,37.4733848572,-12.8849506378,0
21.0,17.38086469801973,-1.5713348627781851,393.45342663468716,0.5055179387053705,350.4143551742669,-2.48043107986,37.4733848572,-12.8849506378,0
21.1,17.40300467185008,-1.6628866645930243,393.36735586414244,0.5082075861604086,352.5660751903928,-2.67819476128,37.7303237915,-5.70421648026,0
21.200000000000003,17.429886757580004,-1.7094912244714713,393.2831515963964,0.5106883219672688,329.90837437681944,-2.67819476128,37.7303237915,-5.70421648026,0
21.3,17.466242063304957,-1.6663055980256072,393.2026760031328,0.5127517192455098,257.68940077037155,-2.67819476128,37.7303237915,-5.70421648026,0
21.400000000000002,17.502597369029907,-1.6231199715797413,393.1222004098692,0.5148151165237508,185.47042716392107,-2.67819476128,37.7303237915,-5.70421648026,0
21.5,17.53895267475486,-1.5799343451338772,393.0417248166056,0.5168785138019918,113.25145355747316,-2.67819476128,37.7303237915,-5.70421648026,0
21.6,17.575307980479813,-1.5367487186880116,392.961249223342,0.5189419110802328,41.03247995102271,-2.25731730461,37.6412353516,4.22877931595,0
21.700000000000003,17.613642157926968,-1.6453411437612442,392.8853761855152,0.521235939583818,4.988767868442343,-2.25731730461,37.6412353516,4.22877931595,0
21.8,17.65405902449046,-1.913674340533078,392.81434716663523,0.5237726989008872,7.0181772575454335,-2.25731730461,37.6412353516,4.22877931595,0
21.900000000000002,17.69447589105395,-2.1820075373049215,392.7433181477552,0.5263094582179565,9.047586646648595,-2.25731730461,37.6412353516,4.22877931595,0
22.0,17.73489275761744,-2.4503407340767556,392.6722891288752,0.5288462175350257,11.076996035751684,-1.48658299446,38.0066986084,12.3684749603,0
22.1,17.77117748823447,-2.2460746950011163,392.60390428455287,0.5315033670215643,13.052371673080568,-1.48658299446,38.0066986084,12.3684749603,0
22.200000000000003,17.804015039568284,-1.6475490487428952,392.5377253075772,0.5342609504007616,14.982670373899117,-1.48658299446,38.0066986084,12.3684749603,0
22.3,17.836852590902094,-1.0490234024846952,392.47154633060154,0.5370185337799588,16.912969074717598,-1.48658299446,38.0066986084,12.3684749603,0
22.400000000000002,17.869690142235907,-0.4504977562264738,392.4053673536259,0.5397761171591561,18.843267775536145,-0.743078052998,37.5621910095,19.6419563293,0
22.5,17.89729394505772,-0.8493729775602985,392.3688306202716,0.5419476797564711,20.947660155954527,-0.743078052998,37.5621910095,19.6419563293,0
22.6,17.924435235164328,-1.3363897254419272,392.33491340800254,0.5440674549852543,23.06743740636944,-0.743078052998,37.5621910095,19.6419563293,0
22.700000000000003,17.951576525270937,-1.8234064733235558,392.30099619573343,0.5461872302140377,25.187214656784352,-0.743078052998,37.5621910095,19.6419563293,0
22.8,17.97871781537755,-2.310423221205167,392.2670789834644,0.548307005442821,27.30699190719919,-0.1981689636973596,37.37960004867864,27.972642940768328,0
22.900000000000002,18.00543652716917,-2.5224507993703913,392.23937491141214,0.549385290195745,29.43030561806098,-0.137474954128,37.3634185791,29.5227584839,0
23.0,18.030478856086468,-1.6435867761715675,392.23631858271517,0.5463319460042005,31.567648590526094,-0.137474954128,37.3634185791,29.5227584839,0
23.1,18.055521185003766,-0.7647227529727125,392.2332622540182,0.543278601812656,33.70499156299128,0.09145542651253602,37.313843722298536,30.96014458941513,0
23.200000000000003,18.080563513921064,0.1141412702261424,392.23020592532123,0.5402252576211114,35.84233453545647,0.89075666666,37.141166687,36.0067977905,0
23.3,18.08550612658456,0.6107769123068223,392.25201961045263,0.540000021458,37.65258257599301,0.89075666666,37.141166687,36.0067977905,0
23.400000000000002,18.08884795776336,1.0769711238870618,392.2758139930803,0.540000021458,39.436780123868054,0.89075666666,37.141166687,36.0067977905,0
23.5,18.09218978894216,1.543165335467285,392.299608375708,0.540000021458,41.220977671743036,1.84311294556,37.4743766785,42.7149734497,0
23.6,18.092749863952548,1.4291953869041825,392.335297721677,0.5381926530548907,43.08441561241343,1.84311294556,37.4743766785,42.7149734497,0
23.700000000000003,18.091154046015447,0.8655915576154545,392.3802058007146,0.5349845534022158,45.00926576667866,1.84311294556,37.4743766785,42.7149734497,0
23.8,18.08955822807835,0.3019877283267465,392.4251138797521,0.531776453749541,46.934115920943825,1.9866044222454105,36.729600356804596,47.531598439598724,0
23.900000000000002,18.089721209074362,0.07317212538881473,392.4709291687722,0.52999997139,48.93087915203623,2.01747441292,36.5727233887,48.5982818604,0
24.0,18.092066669489725,0.25979253397894714,392.5178702073472,0.52999997139,51.01687874051019,2.01747441292,36.5727233887,48.5982818604,0
24.1,18.094412129905088,0.4464129425690862,392.56481124592216,0.52999997139,53.10287832898421,2.01747441292,36.5727233887,48.5982818604,0
24.200000000000003,18.096757590320447,0.6330333511592252,392.61175228449713,0.52999997139,55.188877917458235,1.45878827572,37.5193939209,56.2887496948,0
24.3,18.10669931504591,0.738335967645428,392.65957486543175,0.52999997139,57.15718453415827,1.45878827572,37.5193939209,56.2887496948,0
24.400000000000002,18.121474051333717,0.7919013336333512,392.7079583147409,0.52999997139,59.05061072672227,1.45878827572,37.5193939209,56.2887496948,0
24.5,18.136248787621525,0.8454666996212725,392.7563417640501,0.52999997139,60.9440369192862,1.45878827572,37.5193939209,56.2887496948,0
24.6,18.15102352390933,0.8990320656091958,392.8047252133593,0.52999997139,62.83746311185019,1.4662629524639077,37.584244933142834,56.663855836969006,0
24.700000000000003,18.16579826019714,0.9525974315971191,392.8531086626685,0.52999997139,64.73088930441419,1.64137506485,39.0791358948,65.50730896,0
24.8,18.1850380821656,0.6326153102824633,392.88498780130215,0.52999997139,66.66689779621382,1.64137506485,39.0791358948,65.50730896,0
24.900000000000002,18.205017663322227,0.25074519717719257,392.9141325656505,0.52999997139,68.60996116878532,1.5895972486205319,39.23859249728048,66.602842906785,0
25.0,18.224997244478853,-0.13112491592806463,392.9432773299989,0.52999997139,70.55302454135673,1.37206745148,39.8845405579,71.2936553955,0
25.1,18.25593361612911,-0.11562787638184345,392.95645892789224,0.5316189433677243,72.45706748470637,1.37206745148,39.8845405579,71.2936553955,0
25.200000000000003,18.290143469511655,0.018587698119862134,392.96487132500454,0.5337216039947164,74.34945257420561,1.37206745148,39.8845405579,71.2936553955,0
25.3,18.3243533228942,0.15280327262156296,392.9732837221168,0.5358242646217084,76.24183766370479,1.37206745148,39.8845405579,71.2936553955,0
25.400000000000002,18.358563176276746,0.2870188471232686,392.98169611922907,0.5379269252487006,78.13422275320403,1.254561912943701,40.28455809117732,73.34583392539459,0
25.5,18.39298910385689,0.41696652476980695,392.98955489475344,0.5400363011702286,80.02539582278006,0.870820820332,41.3841705322,80.1785202026,0
25.6,18.442566440966903,0.24764361017560543,392.95859298971584,0.5426165624577989,81.83158044663749,0.870820820332,41.3841705322,80.1785202026,0
25.700000000000003,18.49214377807692,0.07832069558140392,392.9276310846782,0.5451968237453692,83.63776507049492,0.870820820332,41.3841705322,80.1785202026,0
25.8,18.54172111518693,-0.09100221901279165,392.8966691796406,0.5477770850329392,85.4439496943523,0.019683309720474385,41.842594706144595,86.4199837982723,0
25.900000000000002,18.595077838413797,-0.2399309696281927,392.8607089583552,0.5503869505740365,87.38693902206023,-0.13772585988,41.9251022339,87.9138336182,0
26.0,18.671945589493117,-0.26199050325740836,392.7936549168347,0.5531809799998771,90.1809711125693,-0.13772585988,41.9251022339,87.9138336182,0
26.1,18.748813340572443,-0.28405003688662483,392.72660087531426,0.555975009425718,92.97500320307844,-0.13772585988,41.9251022339,87.9138336182,0
26.200000000000003,18.825681091651767,-0.3061095705158413,392.6595468337938,0.5587690388515587,95.7690352935876,-1.20088088512,42.3672637939,97.5540008545,0
26.3,18.901947945908667,-0.3299772143623625,392.5903918891688,0.5628295115837024,98.13180475922655,-1.20088088512,42.3672637939,97.5540008545,0
26.400000000000002,18.977741575026258,-0.3552688018503758,392.51958241729847,0.5678873482354013,100.15494134927032,-1.20088088512,42.3672637939,97.5540008545,0
26.5,19.053535204143845,-0.3805603893383882,392.4487729454282,0.5729451848871,102.17807793931402,-1.20088088512,42.3672637939,97.5540008545,0
26.6,19.129328833261436,-0.40585197682640156,392.3779634735578,0.5780030215387989,104.2012145293578,-0.982033848763,42.8501091003,105.810432434,0
26.700000000000003,19.218157289296357,-0.656225789031918,392.31005061900953,0.579999983311,106.47202526446142,-0.982033848763,42.8501091003,105.810432434,0
26.8,19.315489866566523,-1.053446700860316,392.24402756208065,0.579999983311,108.90442241492616,-0.982033848763,42.8501091003,105.810432434,0
26.900000000000002,19.412822443836692,-1.4506676126887283,392.17800450515176,0.579999983311,111.33681956539097,-0.085173420608,43.1277656555,113.180297852,0
27.0,19.500261252412248,-1.2086264876760366,392.12820396029366,0.5821196164114463,113.6957080975538,-0.085173420608,43.1277656555,113.180297852,0
27.1,19.583991440238293,-0.7269617644789305,392.0844843282538,0.5850337814582437,116.0270423583852,-0.085173420608,43.1277656555,113.180297852,0
27.200000000000003,19.667721628064335,-0.24529704128182406,392.04076469621384,0.587947946505041,118.3583766192166,0.11063170583865974,43.3033520772019,118.89736084732759,0
27.3,19.74950401125632,-0.09029333778006832,391.9994785873795,0.590750109744427,120.750132214665,0.175703838468,43.3615722656,120.822250366,0
27.400000000000002,19.82665030457214,-0.7127956633048224,391.96398465713406,0.5932856905779742,123.28570035312963,0.175703838468,43.3615722656,120.822250366,0
27.5,19.90379659788796,-1.3352979888295542,391.92849072688864,0.5958212714115213,125.82126849159417,0.175703838468,43.3615722656,120.822250366,0
27.6,19.98094289120378,-1.9578003143543081,391.8929967966432,0.5983568522450684,128.3568366300588,-0.20270706354538223,43.7145784047156,127.99837154621267,0
27.700000000000003,20.062716385789944,-1.7884516562541881,391.8590374237465,0.600000023842,130.9585933801703,-0.348800688982,43.8166732788,130.828994751,0
27.8,20.15300983443838,-0.16108688636532253,391.82790359427287,0.600000023842,133.68222162402705,-0.348800688982,43.8166732788,130.828994751,0
27.900000000000002,20.243303283086814,1.4662778835236012,391.7967697647993,0.600000023842,136.4058498678839,-1.02898478508,44.0652084351,138.338317871,0
28.0,20.327363723883145,1.7814226584180002,391.77248629268536,0.603887230370957,139.13796562990422,-1.02898478508,44.0652084351,138.338317871,0
28.1,20.40968508015056,1.730442193943738,391.75011415307483,0.6088590145060464,141.87244951208064,-1.02898478508,44.0652084351,138.338317871,0
28.200000000000003,20.49200643641797,1.6794617294694758,391.7277420134643,0.6138307986411358,144.60693339425706,-1.02898478508,44.0652084351,138.338317871,0
28.3,20.57432779268538,1.6284812649952156,391.7053698738538,0.618802582776225,147.3414172764334,0.254188269377,45.7062759399,148.057846069,0
28.400000000000002,20.633327052794737,1.2312211745898336,391.7144741525087,0.6181888354681381,149.81117102717573,0.254188269377,45.7062759399,148.057846069,0
28.5,20.684927343283903,0.7241033589187528,391.73356437157486,0.6158030700198054,152.1969387508151,0.254188269377,45.7062759399,148.057846069,0
28.6,20.736527633773072,0.21698554324765373,391.752654590641,0.6134173045714726,154.5827064744545,0.254188269377,45.7062759399,148.057846069,0
28.700000000000003,20.788127924262245,-0.29013227242344497,391.7717448097071,0.6110315391231399,156.96847419809393,2.31955909729,45.0957794189,158.007553101,0
28.8,20.81920819297873,-0.35630274641096144,391.80224784717745,0.610000014305,159.36912199997687,2.31955909729,45.0957794189,158.007553101,0
28.900000000000002,20.834658365200276,-0.08660371811165574,391.8414440261518,0.610000014305,161.78110395449272,2.31955909729,45.0957794189,158.007553101,0
29.0,20.850108537421818,0.18309531018764036,391.8806402051262,0.610000014305,164.1930859090085,2.5943857732772106,45.17059371681427,164.94565028115156,0
29.1,20.862634795762393,0.4518063801003307,391.9220863410553,0.610000014305,166.5723300729879,2.65079379082,45.1858863831,166.509719849,0
29.200000000000003,20.86642937041779,0.7175671099971246,391.9702515231786,0.610000014305,168.85380937686784,2.65079379082,45.1858863831,166.509719849,0
29.3,20.87022394507319,0.9833278398939089,392.0184167053019,0.610000014305,171.1352886807477,2.65079379082,45.1858863831,166.509719849,0
29.400000000000002,20.874018519728587,1.2490885697907028,392.0665818874252,0.610000014305,173.41676798462763,2.496737302916671,46.00990345570612,173.76607621289173,0
29.5,20.8807986157325,1.2992842458090448,392.11939313066864,0.610842999291849,175.75868721172415,2.4406170845,46.3032569885,176.419967651,0
29.6,20.894348194496093,0.860699656850845,392.1827390266518,0.613597399964265,178.23765018108554,2.4406170845,46.3032569885,176.419967651,0
29.700000000000003,20.907897773259688,0.4221150678926455,392.24608492263496,0.616351800636681,180.7166131504469,2.4406170845,46.3032569885,176.419967651,0
29.8,20.921447352023282,-0.01646952106553856,392.3094308186181,0.619106201309097,183.1955761198082,2.5961485752953357,47.69495460617187,-57.05786816816865,0
29.900000000000002,20.934144306227118,-0.10132492210967112,392.35954450757043,0.620000004768,185.7112269076778,2.67399120331,48.275844574,-175.038116455,0
30.0,20.946431672168043,-0.01625403853059404,392.40330163943065,0.620000004768,188.24450198243977,2.67399120331,48.275844574,-175.038116455,0
30.1,20.958719038108967,0.06881684504848609,392.44705877129087,0.620000004768,190.77777705720183,2.67399120331,48.275844574,-175.038116455,0
30.200000000000003,20.97100640404989,0.15388772862756622,392.4908159031511,0.620000004768,193.31105213196386,2.37527211468238,47.868202266941104,-166.54743176383408,0
30.3,20.975007525992524,0.2448497851531014,392.5327281600156,0.6177520953996035,195.8991628184035,2.29348349571,47.7595825195,-164.21105957,0
30.400000000000002,20.962433279969442,0.3475962351091641,392.5709500256835,0.6110075860104468,198.59696378687812,2.29348349571,47.7595825195,-164.21105957,0
30.5,20.94985903394636,0.4503426850652231,392.60917189135137,0.6042630766212902,201.29476475535262,2.29348349571,47.7595825195,-164.21105957,0
30.6,20.93728478792328,0.5530891350212859,392.6473937570192,0.5975185672321335,203.99256572382723,2.29348349571,47.7595825195,-164.21105957,0
30.700000000000003,20.924710541900197,0.6558355849773485,392.68561562268707,0.5907740578429768,206.6903666923018,2.63166069984,45.4194602966,-151.970016479,0
30.8,20.88182731645699,1.0848723792811312,392.7583139951711,0.587153545917368,209.27714445701824,2.63166069984,45.4194602966,-151.970016479,0
30.900000000000002,20.83501443829093,1.5562137237426548,392.83548235316687,0.5839380699043403,211.84952772072236,2.63166069984,45.4194602966,-151.970016479,0
31.0,20.788201560124865,2.0275550682041614,392.91265071116266,0.5807225938913126,214.42191098442638,3.06079506874,45.2662506104,-144.525375366,0
31.1,20.723988496893938,2.4543100618426905,393.01457840467566,0.5765474390706808,216.89890114306263,3.06079506874,45.2662506104,-144.525375366,0
31.200000000000003,20.654731616350503,2.868140744196941,393.12368312329846,0.5720941007384258,219.34823956161446,3.06079506874,45.2662506104,-144.525375366,0
31.3,20.58547473580707,3.2819714265511766,393.2327878419213,0.567640762406171,221.7975779801662,3.06079506874,45.2662506104,-144.525375366,0
31.400000000000002,20.51621785526364,3.695802108905427,393.3418925605442,0.563187424073916,224.24691639871804,2.740143189942122,44.913714399526,-135.3513194947526,0
31.5,20.44506831855114,3.7800691642472275,393.44809238799087,0.5583464874462689,226.57873078014146,2.68104910851,44.8488578796,-133.649658203,0
31.6,20.36915330745977,3.0345357273496183,393.54697805838146,0.5525296262021118,228.61463415723748,2.68104910851,44.8488578796,-133.649658203,0
31.700000000000003,20.2932382963684,2.289002290452009,393.6458637287721,0.5467127649579546,230.65053753433352,2.68104910851,44.8488578796,-133.649658203,0
31.8,20.217323285277033,1.543468853554426,393.74474939916274,0.5408959037137977,232.6864409114295,1.91736006737,44.6267089844,-126.032836914,0
31.900000000000002,20.15429769633788,1.4308566998104497,393.8132000538486,0.5379531340224504,234.84218946852042,1.91736006737,44.6267089844,-126.032836914,0
32.0,20.093618673929694,1.4334701847524687,393.8761099024084,0.5355336032292555,237.01975627975426,1.91736006737,44.6267089844,-126.032836914,0
32.1,20.032939651521502,1.4360836696944879,393.9390197509682,0.5331140724360606,239.1973230909882,1.91736006737,44.6267089844,-126.032836914,0
32.2,19.972260629113315,1.438697154636507,394.001929599528,0.5306945416428657,241.3748899022221,0.468487799168,44.9175796509,-117.300765991,0
32.300000000000004,19.923011362018016,1.2966729425672263,394.02130937246267,0.531319048384782,243.71479150759845,0.468487799168,44.9175796509,-117.300765991,0
32.4,19.87836438457066,1.0964091131627844,394.0231613846588,0.5331692631188887,246.1200586192458,0.468487799168,44.9175796509,-117.300765991,0
32.5,19.833717407123302,0.8961452837583282,394.02501339685494,0.5350194778529955,248.52532573089331,0.468487799168,44.9175796509,-117.300765991,0
32.6,19.789070429675945,0.695881454353872,394.0268654090511,0.5368696925871024,250.93059284254085,0.468487799168,44.9175796509,-117.300765991,0
32.7,19.744423452228588,0.49561762494941586,394.0287174212472,0.5387199073212092,253.33585995418838,-0.715225854062357,45.451179559279524,-107.09927633122024,0
32.800000000000004,19.702101217510574,0.2697141883996779,394.01554801343474,0.5406880805046765,255.6880597028791,-1.01567876339,45.5866889954,-104.511360168,0
32.9,19.664999001936984,-0.013760883266641322,393.96864923891354,0.5429211197123001,257.92110104015416,-1.01567876339,45.5866889954,-104.511360168,0
33.0,19.627896786363387,-0.2972359549329806,393.92175046439235,0.5451541589199238,260.1541423774294,-1.01567876339,45.5866889954,-104.511360168,0
33.1,19.590794570789793,-0.58071102659932,393.87485168987115,0.5473871981275475,262.38718371470463,-1.0373980681457318,45.59798983733186,-102.90330888497085,0
33.2,19.553692355216196,-0.8641860982656594,393.82795291534995,0.5496202373351713,264.6202250519799,-1.15473175049,45.6590919495,-94.2002258301,0
33.300000000000004,19.522145773051893,-1.0464960466789979,393.764242290834,0.550000011921,267.026792144637,-1.15473175049,45.6590919495,-94.2002258301,0
33.4,19.491737662076336,-1.208075041545868,393.6970865493641,0.550000011921,269.46891847211975,-1.15473175049,45.6590919495,-94.2002258301,0
33.5,19.46132955110077,-1.3696540364127499,393.62993080789414,0.550000011921,271.91104479960273,-1.15473175049,45.6590919495,-94.2002258301,0
33.6,19.43092144012521,-1.5312330312796316,393.5627750664242,0.550000011921,274.35317112708566,-1.1791459641149453,45.45698157896353,-92.74396608487059,0
33.7,19.40051332914965,-1.6928120261465134,393.4956193249543,0.550000011921,276.7952974545686,-1.3522516489,44.3916015625,-82.036605835,0
33.800000000000004,19.3747523591005,-1.193530899104066,393.43166811829786,0.550000011921,279.40130922080004,-1.3522516489,44.3916015625,-82.036605835,0
33.9,19.349416557311496,-0.6337874894068671,393.36801009545337,0.550000011921,282.0223149129652,-1.5049292738452809,43.95584456045967,-76.98508660078973,0
34.0,19.323157241664514,-0.3131981390997687,393.3062976367546,0.5505471782089818,284.54716680981477,-1.54822695255,43.8321647644,-75.5439376831,0
34.1,19.29405887567464,-0.7278120653357367,393.2505661977314,0.5527764336438672,286.7764243707431,-1.54822695255,43.8321647644,-75.5439376831,0
34.2,19.264960509684762,-1.1424259915717045,393.1948347587082,0.5550056890787526,289.00568193167135,-1.54822695255,43.8321647644,-75.5439376831,0
34.300000000000004,19.235862143694888,-1.5570399178076726,393.139103319685,0.557234944513638,291.23493949259966,-1.54822695255,43.8321647644,-75.5439376831,0
34.4,19.206763777705014,-1.971653844043611,393.0833718806618,0.5594641999485231,293.4641970535278,-0.601565897465,43.1595230103,-65.4462966919,0
34.5,19.176349531367695,-1.8469650631231953,393.04127055241986,0.560000002384,295.640543360168,-0.601565897465,43.1595230103,-65.4462966919,0
34.6,19.14551894522337,-1.5516428462263434,393.003481742184,0.560000002384,297.80014873634155,-0.601565897465,43.1595230103,-65.4462966919,0
34.7,19.114688359079043,-1.2563206293294913,392.96569293194824,0.560000002384,299.95975411251504,-0.44140314239443756,43.05849041997078,-61.91111968958506,0
34.800000000000004,19.08368541291825,-0.9695580310377812,392.92848818414365,0.560000002384,302.1353960024993,-0.212585151196,42.9140319824,-56.6047019958,0
34.9,19.049736267685848,-0.8291074423689617,392.9012669825695,0.560000002384,304.5851546109074,-0.212585151196,42.9140319824,-56.6047019958,0
35.0,19.015787122453442,-0.6886568537001323,392.87404578099535,0.560000002384,307.0349132193156,-0.212585151196,42.9140319824,-56.6047019958,0
35.1,18.981837977221037,-0.548206265031303,392.8468245794212,0.560000002384,309.48467182772384,0.0254815146327,41.8407936096,-48.0441741943,0
35.2,18.94365886009277,-0.39212448702937436,392.8316907976594,0.5591487217276379,311.93640961505224,0.0254815146327,41.8407936096,-48.0441741943,0
35.300000000000004,18.898620168047113,-0.21069423936428527,392.836158697375,0.556916953545164,314.3913569570567,0.0254815146327,41.8407936096,-48.0441741943,0
35.4,18.853581476001462,-0.02926399169920907,392.8406265970906,0.5546851853626904,316.846304299061,0.0254815146327,41.8407936096,-48.0441741943,0
35.5,18.808542783955804,0.15216625596588002,392.8450944968062,0.5524534171802167,319.30125164106545,0.1228879989254,41.730297296172736,-46.37490687818997,0
35.6,18.763504091910146,0.3335965036309691,392.8495623965218,0.5502216489977428,321.75619898306985,0.627528429031,41.1725120544,-37.2688102722,0
35.7,18.710413061804406,0.35359400118858614,392.8780413818991,0.5456860328199646,323.94128666135146,0.627528429031,41.1725120544,-37.2688102722,0
35.800000000000004,18.656434180819936,0.3557919220308512,392.90916782983265,0.5408963943381271,326.0966196102883,0.627528429031,41.1725120544,-37.2688102722,0
35.9,18.602455299835473,0.357989842873116,392.94029427776616,0.53610675585629,328.25195255922506,0.627528429031,41.1725120544,-37.2688102722,0
36.0,18.548476418851003,0.3601877637153811,392.97142072569966,0.5313171173744524,330.4072855081619,1.53538584709,39.9182128906,-28.2854499817,0
36.1,18.494676434063084,0.6554517163287876,393.0232816754934,0.5280317475230119,332.574580595268,1.53538584709,39.9182128906,-28.2854499817,0
36.2,18.44094430612643,1.061878111256315,393.0830073984682,0.5253169595770922,334.74641302328024,1.53538584709,39.9182128906,-28.2854499817,0
36.300000000000004,18.387212178189774,1.4683045061838422,393.142733121443,0.5226021716311726,336.91824545129253,1.4846781843557728,39.67528875197907,-25.771528366128678,0
36.4,18.333750533723077,1.8446267253577144,393.202246190811,0.5198382302471252,339.08087541706425,1.38158130646,39.1812210083,-20.6525993347,0
36.5,18.286539926672766,1.5252231426590925,393.25684470605563,0.5159383230277612,341.0308308863212,1.38158130646,39.1812210083,-20.6525993347,0
36.6,18.239329319622456,1.2058195599604704,393.3114432213003,0.5120384158083974,342.9807863555782,1.38158130646,39.1812210083,-20.6525993347,0
36.7,18.192118712572146,0.8864159772618485,393.3660417365449,0.5081385085890335,344.93074182483514,1.38158130646,39.1812210083,-20.6525993347,0
36.800000000000004,18.144908105521836,0.5670123945632264,393.4206402517895,0.5042386013696697,346.8806972940921,1.38158130646,39.1812210083,-20.6525993347,0
36.9,18.09769749847153,0.24760881186462713,393.4752387670341,0.5003386941503061,348.83065276334895,0.866744279861,38.1604995728,-10.1349496841,0
37.0,18.045457753928414,0.2894644641300077,393.5184474018068,0.49797545253006037,350.82209446067714,0.866744279861,38.1604995728,-10.1349496841,0
37.1,17.992739706229365,0.3656781812608364,393.56057278606517,0.4957583576410844,352.8174817637564,0.866744279861,38.1604995728,-10.1349496841,0
37.2,17.940021658530313,0.4418918983916651,393.60269817032355,0.4935412627521084,354.8128690668357,0.866744279861,38.1604995728,-10.1349496841,0
37.300000000000004,17.88730361083126,0.5181056155224938,393.64482355458193,0.49132416786313243,356.8082563699149,0.520105779171,37.9607200623,-1.32941746712,0
37.4,17.84000604499138,0.6338919318360875,393.67664122397156,0.490000009537,328.7096756705258,0.520105779171,37.9607200623,-1.32941746712,0
37.5,17.800746649480875,0.8083614613532252,393.6931733209759,0.490000009537,255.98398487728633,0.520105779171,37.9607200623,-1.32941746712,0
37.6,17.76148725397037,0.9828309908703629,393.7097054179802,0.490000009537,183.25829408404687,0.520105779171,37.9607200623,-1.32941746712,0
37.7,17.722227858459863,1.1573005203875004,393.7262375149845,0.490000009537,110.53260329080737,0.520105779171,37.9607200623,-1.32941746712,0
37.800000000000004,17.682968462949358,1.3317700499046383,393.7427696119888,0.490000009537,37.80691249756791,-0.404526799917,37.117149353,6.84230327606,0
37.9,17.65660533348762,1.1275215049023173,393.7456864702659,0.4885621048556526,7.006531237106965,-0.404526799917,37.117149353,6.84230327606,0
38.0,17.64026670678093,0.6288884948886202,393.738019955215,0.4860064906462006,8.795457558285287,-0.404526799917,37.117149353,6.84230327606,0
38.1,17.623928080074247,0.1302554848749231,393.73035344016415,0.4834508764367486,10.58438387946361,-0.404526799917,37.117149353,6.84230327606,0
38.2,17.60758945336756,-0.368377525138774,393.72268692511324,0.4808952622272966,12.373310200641933,-0.912020564079,36.1228599548,13.4713439941,0
38.300000000000004,17.60020293305184,-0.3871385342111845,393.70348738779177,0.479999989271,14.050728713124034,-0.912020564079,36.1228599548,13.4713439941,0
38.400000000000006,17.59764347990589,-0.14714766073523533,393.67806912710637,0.479999989271,15.668021076628087,-0.912020564079,36.1228599548,13.4713439941,0
38.5,17.59508402675994,0.09284321274069673,393.65265086642097,0.479999989271,17.285313440132022,-0.912020564079,36.1228599548,13.4713439941,0
38.6,17.592524573613993,0.332834086216646,393.6272326057355,0.479999989271,18.902605803636074,-1.2612427949744873,35.423273344010724,19.192231874692503,0
38.7,17.592160043999478,0.3280739653683189,393.5966882010436,0.4808865038672841,20.620558959774065,-1.34337341785,35.2584686279,20.5467720032,0
38.800000000000004,17.596428530035148,-0.19330332726813032,393.55532359917083,0.48364426178474695,22.550985589795463,-1.34337341785,35.2584686279,20.5467720032,0
38.900000000000006,17.600697016070818,-0.7146806199045797,393.51395899729806,0.4864020197022098,24.481412219816857,-1.3842258771951323,35.3533596585807,21.368445029779785,0
39.0,17.604965502106484,-1.2360579125409918,393.4725943954253,0.4891597776196725,26.411838849838116,-1.62918257713,35.9227409363,27.0628318787,0
39.1,17.62104654232027,-1.2185550993865177,393.4209923843747,0.49354535653595083,28.240872633053016,-1.62918257713,35.9227409363,27.0628318787,0
39.2,17.642303671434497,-0.9649228859180907,393.3649044899821,0.4986442228646576,30.02547755007809,-1.62918257713,35.9227409363,27.0628318787,0
39.300000000000004,17.663560800548723,-0.7112906724496635,393.3088165955895,0.5037430891933644,31.810082467103165,-1.62918257713,35.9227409363,27.0628318787,0
39.400000000000006,17.68481792966295,-0.45765845898123647,393.25272870119693,0.5088419555220711,33.594687384128235,-1.98066782951,37.3161010742,34.4963684082,0
39.5,17.71910004379572,-0.6734982227331399,393.1873496520294,0.5121934352084448,35.535412785981045,-1.98066782951,37.3161010742,34.4963684082,0
39.6,17.75720962129151,-1.0272949046862088,393.119240346017,0.5150314357357232,37.52201504949982,-1.98066782951,37.3161010742,34.4963684082,0
39.7,17.7953191987873,-1.3810915866392777,393.0511310400046,0.5178694362630015,39.5086173130186,-1.9122848981932605,38.10843847886349,38.19421545067998,0
39.800000000000004,17.839593465656115,-1.5989885136451378,392.9824155455973,0.5206512092869373,41.520983184811556,-1.85639119148,38.7560844421,41.2309570312,0
39.900000000000006,17.902433054731773,-1.4076153889490173,392.9118744794233,0.5232636498995744,43.61093766811086,-1.85639119148,38.7560844421,41.2309570312,0
40.0,17.965272643807427,-1.2162422642529105,392.84133341324934,0.5258760905122114,45.70089215141,-1.85639119148,38.7560844421,41.2309570312,0
40.1,18.028112232883085,-1.02486913955679,392.77079234707537,0.5284885311248486,47.790846634709304,-1.6079134722900559,38.444535120692066,45.68402602397701,0
