t_sec,airspeed,climb,altitude,throttle,heading,pitch,roll,yaw,is_boundary
0.0,16.1917724609,1.2159126997,396.899993896,0.409999996424,118.0,-0.92239689827,-10.1209888458,119.168876648,0
0.1,16.25592285021443,1.0251518368600334,396.9339100589795,0.409999996424,117.38326036398888,-0.92239689827,-10.1209888458,119.168876648,0
0.2,16.320073239528856,0.8343909740200668,396.967826221959,0.409999996424,116.76652072797776,-0.92239689827,-10.1209888458,119.168876648,0
0.30000000000000004,16.384223628843287,0.6436301111801,397.00174238493855,0.409999996424,116.14978109196663,-0.92239689827,-10.1209888458,119.168876648,0
0.4,16.4611088050302,0.6694835617842135,396.9761988691006,0.412413151861102,114.55210535688168,-1.7514855119193522,-13.964120405426044,118.86658307788807,0
0.5,16.542078776983352,0.7648179734223464,396.9315831342512,0.4156003482940572,112.63978567332929,-2.10915803909,-15.6135835648,118.737892151,0
0.6000000000000001,16.623048748936505,0.8601523850604792,396.8869673994018,0.4187875447270124,110.72746598977689,-2.10915803909,-15.6135835648,118.737892151,0
0.7000000000000001,16.72288491410888,0.6189636422668736,396.8259942335181,0.4241249754666541,109.0375027029906,-2.1400653054564542,-15.674681172080897,118.60858366886016,0
0.8,16.834304377705056,0.17115938997399205,396.75497807682456,0.430782588045103,107.48405982974266,-2.86817264557,-17.4897174835,115.724975586,0
0.9,16.945723841301234,-0.2766448623188894,396.68396192013097,0.4374402006235518,105.93061695649472,-2.86817264557,-17.4897174835,115.724975586,0
1.0,17.05714330489741,-0.724449114611771,396.61294576343744,0.4440978132020007,104.37717408324679,-2.86817264557,-17.4897174835,115.724975586,0
1.1,17.170967623129854,-1.126596351669597,396.53698257497695,0.4510199861940712,102.82150042561864,-3.50648212433,-19.3852157593,110.370758057,0
1.2000000000000002,17.303580879999856,-1.1720289479806911,396.4223686194786,0.46000914872575527,101.24839782646481,-3.50648212433,-19.3852157593,110.370758057,0
1.3,17.436194136869855,-1.217461544291785,396.3077546639803,0.46899831125743935,99.67529522731098,-3.50648212433,-19.3852157593,110.370758057,0
1.4000000000000001,17.568807393739856,-1.2628941406028793,396.1931407084819,0.47798747378912343,98.10219262815716,-3.50648212433,-19.3852157593,110.370758057,0
1.5,17.701420650609855,-1.3083267369139735,396.0785267529836,0.48697663632080757,96.52909002900334,-3.3787907485284085,-26.726111678369676,105.32530081926663,0
1.6,17.846584638713836,-1.4285751723291662,395.95293003163107,0.49555624483916516,93.96271177964557,-3.34060668945,-29.0421695709,103.745773315,0
1.7000000000000002,17.998109150572468,-1.5867391612666601,395.82176740803715,0.5039282974803382,90.89295621702524,-3.34060668945,-29.0421695709,103.745773315,0
1.8,18.1496336624311,-1.7449031502041539,395.69060478444317,0.5123003501215112,87.8232006544049,-3.34060668945,-29.0421695709,103.745773315,0
1.9000000000000001,18.300517506769935,-1.9030304465006416,395.55933251389655,0.5204174220176478,84.77040786542362,-2.661109984501316,-31.640799590169035,100.07567241317977,0
2.0,18.44406532614685,-2.0607375901875087,395.426804720388,0.5256148124056863,81.91184894501505,-1.92180478573,-34.2661323547,96.1183700562,0
2.1,18.58761314552376,-2.2184447338743762,395.29427692687955,0.5308122027937248,79.05329002460647,-1.92180478573,-34.2661323547,96.1183700562,0
2.2,18.731160964900674,-2.376151877561244,395.161749133371,0.5360095931817632,76.1947311041979,-1.92180478573,-34.2661323547,96.1183700562,0
2.3000000000000003,18.87226811798011,-2.448305947480665,395.0309641840324,0.5414888551391402,73.33002420453094,-1.7618983984,-36.9472236633,85.955871582,0
2.4000000000000004,19.005306000523973,-2.2376065613202023,394.90594138297394,0.547900033906132,70.44499100792852,-1.7618983984,-36.9472236633,85.955871582,0
2.5,19.138343883067833,-2.026907175159741,394.78091858191544,0.5543112126731237,67.55995781132611,-1.7618983984,-36.9472236633,85.955871582,0
2.6,19.27271321667728,-1.8035761296375437,394.65951322808195,0.5602829702247104,64.66043826730753,-1.7618983984,-36.9472236633,85.955871582,0
2.7,19.417567682997817,-1.480771188158573,394.5665951504315,0.5627943003684137,61.646839220794185,-1.10524904728,-39.008140564,73.982749939,0
2.8000000000000003,19.562422149318355,-1.1579662466796026,394.473677072781,0.5653056305121169,58.63324017428085,-1.10524904728,-39.008140564,73.982749939,0
2.9000000000000004,19.707276615638897,-0.8351613052006321,394.3807589951305,0.5678169606558202,55.61964112776751,-1.10524904728,-39.008140564,73.982749939,0
3.0,19.85013761194252,-0.5424245401422398,394.2908048945308,0.571469257390259,52.595952467355076,-0.5488192187778582,-39.35625684590734,68.88990982647628,0
3.1,19.979742938554576,-0.4496274839722358,394.22055989435637,0.582708463447437,49.50517245968005,-0.143510058522,-39.612537384,65.2311782837,0
3.2,20.109348265166627,-0.35683042780223173,394.1503148941819,0.5939476695046151,46.41439245200502,-0.143510058522,-39.612537384,65.2311782837,0
3.3000000000000003,20.238953591778678,-0.26403337163222773,394.0800698940075,0.6051868755617931,43.32361244432998,-0.143510058522,-39.612537384,65.2311782837,0
3.4000000000000004,20.3679123302086,-0.49136993563785003,394.00398417622006,0.6136803001376865,40.15985532880275,0.5502073845409836,-40.953945400605384,54.826783863751174,0
3.5,20.49638677264873,-0.9584872947995282,393.92352374792034,0.6201171282631789,36.94143819681306,0.647962868214,-41.1722145081,53.2578735352,0
3.6,20.62486121508886,-1.4256046539612084,393.8430633196206,0.6265539563886714,33.72302106482335,0.647962868214,-41.1722145081,53.2578735352,0
3.7,20.74130289974749,-1.6219905177376233,393.7603670782459,0.6338342921034413,30.46628283595779,0.9457917464838586,-42.56822276420661,49.41250342020084,0
3.8000000000000003,20.843880233963688,-1.5064348967782455,393.6750946945971,0.6420865317683251,27.16539038026633,1.482194892689105,-45.10016468417227,42.48908608710316,0
3.9000000000000004,20.946457568179888,-1.390879275818868,393.58982231094825,0.6503387714332087,23.86449792457487,1.50564146042,-45.227935791,42.198513031,0
4.0,21.049034902396084,-1.2753236548594908,393.5045499272994,0.6585910110980924,20.563605468883424,1.50564146042,-45.227935791,42.198513031,0
4.1000000000000005,21.13280465445227,-1.429855067649233,393.42776897102095,0.6550223151001139,17.013379377004377,1.53285121918,-46.1705322266,32.0993347168,0
4.2,21.212701938545486,-1.6399972110744965,393.35273639367665,0.6490196967479883,13.411815664477935,1.53285121918,-46.1705322266,32.0993347168,0
4.3,21.292599222638707,-1.8501393544997597,393.27770381633235,0.6430170783958626,9.810251951951493,1.53285121918,-46.1705322266,32.0993347168,0
4.4,21.32029092100951,-1.6495177634122287,393.2434447438483,0.6342422337599214,48.07394391371775,1.592527107348904,-46.40204039522087,28.53449785958887,0
4.5,21.295225044994464,-1.0337892833072404,393.2503902893351,0.6226658510824292,128.64554813918127,1.72396457195,-46.9478034973,20.7861804962,0
4.6000000000000005,21.27015916897942,-0.4180608032022466,393.25733583482184,0.6110894684049369,209.2171523646455,1.72396457195,-46.9478034973,20.7861804962,0
4.7,21.245093292964373,0.19766767690274145,393.26428138030866,0.5995130857274448,289.788756590109,1.72396457195,-46.9478034973,20.7861804962,0
4.800000000000001,21.19817390100888,0.7732163401460359,393.2954831285313,0.5877169644028195,355.80974922662756,2.6966252327,-42.6097984314,8.80005836487,0
4.9,21.05049461298407,1.163508123805232,393.43852282875037,0.5749076952026823,354.74231016902905,2.6966252327,-42.6097984314,8.80005836487,0
5.0,20.90281532495926,1.5537999074644282,393.5815625289694,0.5620984260025449,353.67487111143055,2.6966252327,-42.6097984314,8.80005836487,0
5.1000000000000005,20.75513603693445,1.9440916911236277,393.72460222918846,0.5492891568024074,352.607432053832,2.6966252327,-42.6097984314,8.80005836487,0
5.2,20.60745674890964,2.3343834747828236,393.8676419294075,0.5364798876022702,351.5399929962335,5.18451166153,-30.7523975372,-3.36451387405,0
5.300000000000001,20.43902018826124,2.7226650665372047,394.0509287894266,0.5230669713037633,350.86133994868766,5.18451166153,-30.7523975372,-3.36451387405,0
5.4,20.24933257910062,3.1088886477589455,394.2754202123428,0.5090360482948216,350.580721388154,5.18451166153,-30.7523975372,-3.36451387405,0
5.5,20.05964496994,3.4951122289806866,394.4999116352589,0.49500512528588,350.3001028276204,5.18451166153,-30.7523975372,-3.36451387405,0
5.6000000000000005,19.86995736077938,3.8813358102024305,394.7244030581751,0.4809742022769382,350.01948426708674,5.18451166153,-30.7523975372,-3.36451387405,0
5.7,19.72216434624298,3.6828818229503852,394.97377571742066,0.4750782575556216,349.50782635907615,8.15944671631,-13.6981229782,-9.07053089142,0
5.800000000000001,19.577497253853277,3.4408027194664186,395.2250048645587,0.46978929588355745,348.978929687461,8.15944671631,-13.6981229782,-9.07053089142,0
5.9,19.432830161463574,3.198723615982454,395.4762340116967,0.4645003342114934,348.4500330158458,8.15944671631,-13.6981229782,-9.07053089142,0
6.0,19.29385167256626,2.966294306198538,395.71482269648556,0.4589208705784811,348.0,8.325433999762822,-5.409140337770658,-9.555972838713549,0
6.1000000000000005,19.187335023798642,2.7889312461180893,395.8812789732951,0.45168366647783115,348.0,8.43155288696,0.725924789906,-9.85511493683,0
6.2,19.08081837503103,2.6115681860376414,396.04773525010455,0.44444646237718133,348.0,8.43155288696,0.725924789906,-9.85511493683,0
6.300000000000001,18.974301726263413,2.4342051259571926,396.2141915269141,0.43720925827653145,348.0,8.43155288696,0.725924789906,-9.85511493683,0
6.4,18.867970190673212,2.256950306069756,396.3804508861292,0.42999090484846175,348.0027306858275,7.33147352415647,10.305724359329762,-11.227765367590655,0
6.5,18.80938052445921,2.1076113224730073,396.49592394153365,0.42763426013578143,348.7097226668416,7.18252372742,11.5625429153,-11.4071884155,0
6.6000000000000005,18.750790858245207,1.9582723388762573,396.611396996938,0.42527761542310105,349.41671464785577,7.18252372742,11.5625429153,-11.4071884155,0
6.7,18.692201192031206,1.8089333552795088,396.7268700523424,0.42292097071042073,350.1237066288699,7.18252372742,11.5625429153,-11.4071884155,0
6.800000000000001,18.6336115258172,1.659594371682759,396.84234310774684,0.4205643259977404,350.8306986098841,5.3972234726,16.5210857391,-11.8061008453,0
6.9,18.62353839048155,1.4820993175245678,396.8612695833274,0.42174445833270663,351.3488935820736,5.3972234726,16.5210857391,-11.8061008453,0
7.0,18.62874154277367,1.295738826687839,396.84979666109103,0.42403820745924875,351.8076424776815,5.3972234726,16.5210857391,-11.8061008453,0
7.1000000000000005,18.63394469506579,1.1093783358511085,396.83832373885474,0.42633195658579087,352.2663913732894,5.3972234726,16.5210857391,-11.8061008453,0
7.2,18.639147847357908,0.9230178450143797,396.8268508166184,0.42862570571233294,352.7251402688973,5.070852611197295,16.59526603181012,-11.513618931996778,0
7.300000000000001,18.65119919260215,0.6201060810159313,396.78618026216895,0.4309388373696053,353.1877662223937,0.90748488903,17.7477321625,-7.83254766464,0
7.4,18.673486554081624,0.1429847506893187,396.70186791207306,0.4332809401584772,353.6561872269012,0.90748488903,17.7477321625,-7.83254766464,0
7.5,18.6957739155611,-0.33413657963729404,396.61755556197716,0.435623042947349,354.1246082314087,0.90748488903,17.7477321625,-7.83254766464,0
7.6000000000000005,18.71806127704058,-0.8112579099639109,396.53324321188126,0.43796514573622086,354.59302923591616,0.90748488903,17.7477321625,-7.83254766464,0
7.7,18.741272542695796,-1.242957488146561,396.44235807527014,0.4403598693377074,355.0719744129835,-0.655590772629,18.839012146,-6.21794843674,0
7.800000000000001,18.770602612537125,-1.373839281913457,396.3079428900895,0.44310308844008794,355.6206187567017,-0.655590772629,18.839012146,-6.21794843674,0
7.9,18.799932682378454,-1.5047210756803517,396.17352770490885,0.44584630754246846,356.1692631004199,-0.655590772629,18.839012146,-6.21794843674,0
8.0,18.82926275221978,-1.6356028694472464,396.03911251972823,0.44858952664484897,356.7179074441381,-0.655590772629,18.839012146,-6.21794843674,0
8.1,18.858381991677305,-1.7807160896697665,395.90475852663525,0.4524619835335641,357.1230997066914,-1.64750790596,15.0699243546,-4.71939468384,0
8.200000000000001,18.887278108707854,-1.940890471157474,395.770469293312,0.4575295161555345,357.37647620186607,-1.64750790596,15.0699243546,-4.71939468384,0
8.3,18.916174225738402,-2.1010648526451785,395.6361800599887,0.46259704877750485,357.62985269704075,-1.64750790596,15.0699243546,-4.71939468384,0
8.4,18.94507034276895,-2.2612392341328826,395.50189082666543,0.4676645813994752,357.8832291922155,-1.64750790596,15.0699243546,-4.71939468384,0
8.5,18.956549031826405,-2.2229404509409285,395.3851195919594,0.47137198498629457,357.8628012513241,-2.33702993393,9.09715843201,-2.26670360565,0
8.6,18.953139269511126,-2.0149864198162533,395.28332277660866,0.47391674762338415,357.6083247449209,-2.33702993393,9.09715843201,-2.26670360565,0
8.700000000000001,18.949729507195848,-1.807032388691574,395.181525961258,0.47646151026047373,357.3538482385177,-2.33702993393,9.09715843201,-2.26670360565,0
8.8,18.946319744880572,-1.5990783575668985,395.07972914590727,0.4790062728975633,357.0993717321145,-2.33702993393,9.09715843201,-2.26670360565,0
8.9,18.921531093333396,-1.3428700796453583,394.99778116816935,0.48468872246163547,356.2966903986951,-1.32750368118,1.76129150391,-1.26223433018,0
9.0,18.88304552456752,-1.055746518115854,394.92854984201796,0.4923814092101988,355.14278800542155,-1.32750368118,1.76129150391,-1.26223433018,0
9.1,18.844397275705347,-0.7705761241033453,394.85941265971485,0.5000636350046878,353.98727298692535,-1.32750368118,1.76129150391,-1.26223433018,0
9.200000000000001,18.78902216205809,-0.6862315821956104,394.79995540419156,0.5066702592455331,352.6659468786736,-1.1397908407120283,0.40667658065739665,-1.4797883077753962,0
9.3,18.733647048410834,-0.6018870402878769,394.74049814866834,0.5132768834863783,351.3446207704219,0.0825668498874,-9.23113059998,-2.89901328087,0
9.4,18.678271934763576,-0.5175424983801435,394.6810408931451,0.5198835077272237,350.0232946621702,0.0825668498874,-9.23113059998,-2.89901328087,0
9.5,18.646100396286243,-0.6789160536229506,394.6064732216945,0.5261263383954975,348.36630636289067,0.8104941567433231,-15.556957345490783,-5.245321219689291,0
9.600000000000001,18.614345272562463,-0.8446993017738247,394.53163437650977,0.5323626403711128,346.7032942208399,0.836137115955,-15.9078073502,-5.31741714478,0
9.700000000000001,18.582590148838683,-1.0104825499246957,394.45679553132504,0.5385989423467279,345.0402820787891,0.836137115955,-15.9078073502,-5.31741714478,0
9.8,18.550835025114903,-1.1762657980755669,394.3819566861403,0.5448352443223431,343.37726993673834,1.0496520921107833,-19.801431658138092,-7.218617383144894,0
9.9,18.52464181243137,-1.27165941047527,394.30622145402134,0.5511004391098155,341.6148501165971,1.2924631834,-24.5505714417,-9.34366703033,0
10.0,18.52525686511474,-1.027776824344715,394.2261656603848,0.5575048964927991,339.373287894775,1.2924631834,-24.5505714417,-9.34366703033,0
10.100000000000001,18.525871917798113,-0.7838942382141555,394.1461098667483,0.5639093538757827,337.1317256729528,1.2924631834,-24.5505714417,-9.34366703033,0
10.200000000000001,18.526207370246237,-0.598847423555686,394.0678049169885,0.5703341953527897,334.849608728974,1.2924631834,-24.5505714417,-9.34366703033,0
10.3,18.52111629567967,-1.5556948674674431,394.02348063103943,0.5771546546546201,331.78039911619857,0.965267420473865,-31.438039271655274,-15.889466163149203,0
10.4,18.516025221113097,-2.5125423113792,393.97915634509036,0.5839751139564504,328.71118950342316,0.893683612347,-33.0583839417,-17.2883930206,0
10.5,18.51193958037948,-3.269188094752436,393.9326930417066,0.5910440655100276,325.6867728027972,0.893683612347,-33.0583839417,-17.2883930206,0
10.600000000000001,18.515467818260724,-2.5097608240114764,393.8700315375372,0.599994781710392,323.00156071686996,0.697549581528,-33.7427482605,-24.901473999,0
10.700000000000001,18.51899605614197,-1.7503335532705306,393.80737003336776,0.6089454979107563,320.3163486309428,0.697549581528,-33.7427482605,-24.901473999,0
10.8,18.522524294023214,-0.9909062825295849,393.74470852919836,0.6178962141111205,317.63113654501564,0.697549581528,-33.7427482605,-24.901473999,0
10.9,18.546244034203315,-0.8148553912730042,393.6531093640365,0.6241552505063039,314.7146126644732,0.1378864668363835,-37.66242074608625,-30.863181304290492,0
11.0,18.576167828102847,-0.8180530939742285,393.55261879492383,0.6295872396684649,311.7270157761629,-0.138728931546,-39.7016944885,-33.7866973877,0
11.100000000000001,18.606091622002378,-0.8212507966754529,393.4521282258112,0.6350192288306259,308.7394188878526,-0.138728931546,-39.7016944885,-33.7866973877,0
11.200000000000001,18.63549087253891,-0.8340637335846255,393.352837790564,0.6403863462480536,305.7102301724429,-0.20652352437991855,-40.61407980939606,-36.35612648035141,0
11.3,18.659100149776254,-0.9530107925827878,393.2667945785719,0.6450374014743017,302.22194582193947,-0.381812155247,-43.0795593262,-42.8714370728,0
11.4,18.682709427013595,-1.07195785158095,393.1807513665797,0.6496884567005496,298.7336614714361,-0.381812155247,-43.0795593262,-42.8714370728,0
11.5,18.70631870425094,-1.1909049105791123,393.09470815458764,0.6543395119267977,295.2453771209327,-0.381812155247,-43.0795593262,-42.8714370728,0
11.600000000000001,18.729927981488284,-1.3098519695772766,393.0086649425955,0.6589905671530458,291.7570927704292,-0.115210458636,-43.277507782,-53.7729263306,0
11.700000000000001,18.744630705220455,-1.0295111436033075,392.9350290301874,0.6657853362577647,288.3966080029811,-0.115210458636,-43.277507782,-53.7729263306,0
11.8,18.756864511240153,-0.6384867708441784,392.86483245059077,0.6731743479235326,285.0715495824436,-0.115210458636,-43.277507782,-53.7729263306,0
11.9,18.769185804241584,-0.32296926245189383,392.7965428782182,0.680000007153,281.75680509656996,-0.115210458636,-43.277507782,-53.7729263306,0
12.0,18.78256710211007,-0.9223037941753228,392.751358879942,0.680000007153,278.5670257280799,-0.12726676799151562,-43.54116617072599,-57.63472981635296,0
12.100000000000001,18.79594839997856,-1.5216383258987625,392.70617488166585,0.680000007153,275.37724635958983,-0.162489235401,-44.3538284302,-68.799331665,0
12.200000000000001,18.809329697847048,-2.1209728576221916,392.6609908833897,0.680000007153,272.18746699109977,-0.162489235401,-44.3538284302,-68.799331665,0
12.3,18.805180392751303,-2.4270728052674566,392.63238584493257,0.6784126361057017,268.9682078352875,0.983869671822,-45.9153900146,-77.7969284058,0
12.4,18.762771941920786,-2.0932116112674275,392.6399630667857,0.6733609540841803,265.6846113898969,0.983869671822,-45.9153900146,-77.7969284058,0
12.5,18.720363491090268,-1.7593504172673984,392.64754028863877,0.6683092720626589,262.4010149445062,0.983869671822,-45.9153900146,-77.7969284058,0
12.600000000000001,18.67795504025975,-1.4254892232673637,392.6551175104919,0.6632575900411375,259.1174184991155,0.983869671822,-45.9153900146,-77.7969284058,0
12.700000000000001,18.61198765603668,-0.9779145801844198,392.70694772916113,0.655226023473493,256.04519948743604,3.01174426079,-44.0209274292,-89.8309402466,0
12.8,18.503244534590863,-0.32387148050318215,392.8391277043997,0.6417839081269567,253.35677652494877,3.01174426079,-44.0209274292,-89.8309402466,0
12.9,18.394501413145047,0.3301716191780555,392.9713076796382,0.6283417927804205,250.66835356246153,3.01174426079,-44.0209274292,-89.8309402466,0
13.0,18.28575829169923,0.9842147188592929,393.10348765487674,0.6148996774338843,247.97993059997427,3.01174426079,-44.0209274292,-89.8309402466,0
13.100000000000001,18.177015170253416,1.638257818540542,393.2356676301153,0.6014575620873478,245.29150763748697,4.738966465,-38.8122520447,-103.006790161,0
13.200000000000001,17.999418364109097,1.9445812883077158,393.5081037314203,0.5845576831179979,243.23516238253208,4.738966465,-38.8122520447,-103.006790161,0
13.3,17.81344772233138,2.208615851676377,393.79759747824426,0.5672372784445644,241.25568904595877,4.738966465,-38.8122520447,-103.006790161,0
13.4,17.62747708055366,2.472650415045038,394.0870912250682,0.5499168737711309,239.27621570938544,4.738966465,-38.8122520447,-103.006790161,0
13.5,17.441506438775942,2.736684978413699,394.3765849718921,0.5325964690976973,237.2967423728121,5.769777506516044,-35.26908005860778,-110.47935766596416,0
13.600000000000001,17.243036015742153,3.4459907004687764,394.73000762098076,0.5155803194964637,235.7983617930967,6.36782646179,-32.9690933228,-114.694725037,0
13.700000000000001,17.042361310009923,4.233818077511434,395.0947038572071,0.4986178239694758,234.3848198532395,6.36782646179,-32.9690933228,-114.694725037,0
13.8,16.841686604277694,5.021645454554092,395.45940009343343,0.48165532844248793,232.9712779133823,6.36782646179,-32.9690933228,-114.694725037,0
13.9,16.650176876373,5.5333816444708495,395.8310660800232,0.4651179178621188,231.90235840436208,6.557279807316548,-31.529145739118135,-115.9352036634294,0
14.0,16.478794809791967,5.438780316339218,396.21803868027484,0.4495140573677763,231.59028126888066,7.55996847153,-22.5522899628,-122.433982849,0
14.100000000000001,16.307412743210932,5.344178988207585,396.6050112805265,0.43391019687343346,231.27820413339924,7.55996847153,-22.5522899628,-122.433982849,0
14.200000000000001,16.141031588343445,5.240290286966693,396.9906281664729,0.41784450405105505,231.0,7.55996847153,-22.5522899628,-122.433982849,0
14.3,16.015723684264188,5.060122973598393,397.36511036401714,0.3979857118663803,231.0,7.11398267746,-6.64738130569,-127.805450439,0
14.4,15.890415780184934,4.8799556602300935,397.7395925615613,0.37812691968170553,231.0,7.11398267746,-6.64738130569,-127.805450439,0
14.5,15.765107876105679,4.699788346861794,398.1140747591055,0.3582681274970308,231.0,7.11398267746,-6.64738130569,-127.805450439,0
14.600000000000001,15.666498801110034,4.581914071656445,398.42063792191925,0.34556910030271293,231.22154489814065,6.754649504260544,-3.679990064785229,-128.04482117129953,0
14.700000000000001,15.58693519084568,4.5084761969247635,398.67875141016145,0.33797745258114775,231.601127646208,6.04156208038,2.25886511803,-128.516723633,0
14.8,15.507371580581324,4.435038322193083,398.9368648984036,0.3303858048595826,231.98071039427535,6.04156208038,2.25886511803,-128.516723633,0
14.9,15.459137304147651,4.01837521910991,399.0719000148514,0.3270972827524107,231.7097275522072,5.9867235031555035,2.3369615766128358,-128.50445540282968,0
15.0,15.4125803577161,3.583336303246596,399.20034568235855,0.3240391441489203,231.40391431161927,3.5660674572,7.02466630936,-128.017944336,0
15.100000000000001,15.36602341128455,3.148297387383275,399.32879134986564,0.32098100554542985,231.09810107103135,3.5660674572,7.02466630936,-128.017944336,0
15.200000000000001,15.35164775082383,2.7364886831445374,399.36867312476664,0.319999992847,231.0,2.5987801835260127,8.155165604033117,-127.95231213813224,0
15.3,15.352471096890483,2.335651452775247,399.36672676442697,0.319999992847,231.0,1.16974127293,9.9445848465,-127.854431152,0
15.4,15.353294442957134,1.934814222405957,399.36478040408724,0.319999992847,231.0,1.16974127293,9.9445848465,-127.854431152,0
15.5,15.354117789023787,1.5339769920366668,399.36283404374757,0.319999992847,231.0,1.16974127293,9.9445848465,-127.854431152,0
15.600000000000001,15.35494113509044,1.1331397616673693,399.36088768340784,0.319999992847,231.0,-1.2269974947,12.5506916046,-128.523284912,0
15.700000000000001,15.366718988602619,0.6799175280612131,399.3260493366403,0.319999992847,231.15425375916308,-1.2269974947,12.5506916046,-128.523284912,0
15.8,15.387964583691055,0.18142008006641064,399.26278316425146,0.319999992847,231.44182567399724,-1.2269974947,12.5506916046,-128.523284912,0
15.9,15.409210178779492,-0.3170773679283918,399.19951699186265,0.319999992847,231.72939758883143,-1.2269974947,12.5506916046,-128.523284912,0
16.0,15.430245047434841,-0.8019277666305639,399.1319602266499,0.32032750584956216,232.0163756413434,-1.2269974947,12.5506916046,-128.523284912,0
16.1,15.447919589116912,-1.0691569245059624,398.99598397278396,0.32587767061194245,232.2938837305932,-4.55849838257,11.9710245132,-128.99256897,0
16.2,15.465594130798982,-1.3363860823813514,398.86000771891804,0.3314278353743226,232.571391819843,-4.55849838257,11.9710245132,-128.99256897,0
16.3,15.483268672481053,-1.6036152402567498,398.7240314650522,0.3369780001367029,232.84889990909278,-4.55849838257,11.9710245132,-128.99256897,0
16.400000000000002,15.50170957514734,-1.8243086041332075,398.5684639092901,0.3431357773288991,232.89547421238984,-5.9173635343154976,6.944953389604559,-128.30359320149796,0
16.5,15.521066537049602,-1.9893760361392552,398.3894781558165,0.3500198558199472,232.6660049384725,-6.54166603088,4.52139997482,-127.979286194,0
16.6,15.540423498951865,-2.154443468145309,398.21049240234294,0.3569039343109955,232.43653566455512,-6.54166603088,4.52139997482,-127.979286194,0
16.7,15.559780460854128,-2.3195109001513563,398.03150664886937,0.3637880128020436,232.20706639063778,-6.54166603088,4.52139997482,-127.979286194,0
16.8,15.579981211939872,-2.4681391284178007,397.84695386320567,0.3709910340344671,232.0,-7.40065002441,3.55753064156,-126.755851746,0
16.900000000000002,15.607980976148255,-2.4648223351065495,397.610945858685,0.3811419937733975,232.0,-7.40065002441,3.55753064156,-126.755851746,0
17.0,15.635980740356636,-2.4615055417952987,397.37493785416433,0.39129295351232757,232.0,-7.40065002441,3.55753064156,-126.755851746,0
17.1,15.66398050456502,-2.4581887484840474,397.13892984964366,0.40144391325125794,232.0,-7.40065002441,3.55753064156,-126.755851746,0
17.2,15.692084434669605,-2.484167124132118,396.91013247681906,0.41107961149808636,231.9640128322937,-6.94690752029,0.378701269627,-127.958442688,0
17.3,15.720747186748616,-2.6673061901366792,396.7200182007476,0.4179510706335023,231.73496420354735,-6.94690752029,0.378701269627,-127.958442688,0
17.400000000000002,15.749409938827625,-2.8504452561412403,396.5299039246761,0.4248225297689182,231.505915574801,-6.94690752029,0.378701269627,-127.958442688,0
17.5,15.778072690906635,-3.033584322145795,396.33978964860466,0.4316939889043339,231.2768669460547,-6.94690752029,0.378701269627,-127.958442688,0
17.6,15.806735442985646,-3.2167233881503563,396.1496753725332,0.43856544803974984,231.04781831730836,-6.150949381694503,-0.4373029007396142,-127.82391483519972,0
17.7,15.81554442389402,-3.297466051047979,395.97840295113144,0.44381396879774093,230.80930154321314,-5.99057865143,-0.610686182976,-127.797210693,0
17.8,15.819114910633992,-3.35119102768688,395.81210202582287,0.4486342709995324,230.56828656241606,-5.99057865143,-0.610686182976,-127.797210693,0
17.900000000000002,15.822685397373965,-3.4049160043257807,395.6458011005143,0.4534545732013239,230.32727158161896,-5.99057865143,-0.610686182976,-127.797210693,0
18.0,15.826255884113937,-3.4586409809646796,395.4795001752057,0.4582748754031152,230.08625660082188,-5.634758664437139,-0.8844285511820371,-127.96466611419153,0
18.1,15.817836330697867,-3.408478459321114,395.3111690690194,0.4635677575385313,229.82161237019514,-4.77351951599,-1.50120413303,-128.369338989,0
18.2,15.802733972074453,-3.3004128860226354,395.14170641505143,0.46912403826145915,229.54379806909725,-4.77351951599,-1.50120413303,-128.369338989,0
18.3,15.787631613451039,-3.1923473127241526,394.9722437610834,0.4746803189843872,229.26598376799936,-4.77351951599,-1.50120413303,-128.369338989,0
18.400000000000002,15.7710195457825,-3.0556292017424025,394.80737123593127,0.479999989271,228.9789894154499,-4.418011084393042,-1.4601003839797804,-128.77797025944494,0
18.5,15.720464958612913,-2.2747211905879103,394.74569775919707,0.479999989271,228.48560160157632,-3.66405153275,-1.37975668907,-129.629943848,0
18.6,15.669910371443326,-1.4938131794333902,394.6840242824629,0.479999989271,227.99221378770272,-3.66405153275,-1.37975668907,-129.629943848,0
18.7,15.619355784273738,-0.7129051682788976,394.6223508057287,0.479999989271,227.49882597382913,-3.66405153275,-1.37975668907,-129.629943848,0
18.8,15.56880119710415,0.06800284287562253,394.5606773289945,0.479999989271,227.00543815995553,-1.7805493409758832,-1.0690130779851055,-130.7261254522291,0
18.900000000000002,15.50647064664053,-0.03642661940850421,394.5800823194246,0.479999989271,226.71310486850498,-1.4365285635,-1.01082408428,-130.968154907,0
19.0,15.444008854005698,-0.1507230971859848,394.6003909229014,0.479999989271,226.4230123136631,-1.4365285635,-1.01082408428,-130.968154907,0
19.1,15.381547061370865,-0.26501957496346945,394.62069952637825,0.479999989271,226.13291975882123,-1.4365285635,-1.01082408428,-130.968154907,0
19.200000000000003,15.31545764059971,-0.21650861508822966,394.65949919333764,0.47865934752024875,225.73187139413548,0.8214122351553583,-2.180829033519945,-132.59469508287953,0
19.3,15.246300364136092,-0.030312725664143114,394.71393660270974,0.47618493591436245,225.23698860098852,0.859996080399,-2.21479773521,-132.632949829,0
19.400000000000002,15.177143087672471,0.15588316375995004,394.76837401208184,0.47371052430847604,224.7421058078415,0.859996080399,-2.21479773521,-132.632949829,0
19.5,15.107985811208854,0.34207905318403653,394.82281142145393,0.47123611270258975,224.24722301469455,1.0271767286041265,-1.7847129284796572,-132.76195772494373,0
19.6,15.049782381896824,0.5059368123257805,394.87991131228927,0.4687538989450908,224.0,1.71355628967,0.0893103256822,-133.284347534,0
19.700000000000003,15.002513481930821,0.6474958358975009,394.9396689891326,0.46626389679556945,224.0,1.71355628967,0.0893103256822,-133.284347534,0
19.8,14.955244581964822,0.7890548594692164,394.9994266659759,0.4637738946460482,224.0,1.71355628967,0.0893103256822,-133.284347534,0
19.900000000000002,14.90797568199882,0.9306138830409368,395.0591843428192,0.4612838924965268,224.0,1.736846219055692,0.44017921666368914,-133.52135831885423,0
20.0,14.865511065626494,0.9650966111376738,395.1067664896161,0.460000008345,224.11980037663054,1.92230594158,3.11550617218,-135.354385376,0
20.1,14.828160495786609,0.8855991490762968,395.1413880719499,0.460000008345,224.36712542759534,1.92230594158,3.11550617218,-135.354385376,0
20.200000000000003,14.790809925946723,0.8061016870149198,395.17600965428375,0.460000008345,224.61445047856014,1.92230594158,3.11550617218,-135.354385376,0
20.3,14.753459356106838,0.7266042249535457,395.2106312366176,0.460000008345,224.86177552952492,1.8759602959704094,3.403802453789005,-135.4127728860365,0
20.400000000000002,14.726617216125534,0.8027331043744409,395.2232873073059,0.460000008345,225.13389592323225,1.5230396986,5.78921031952,-135.847290039,0
20.5,14.713088682233282,1.076032049681372,395.2081142756898,0.460000008345,225.43743066052463,1.5230396986,5.78921031952,-135.847290039,0
20.6,14.69956014834103,1.3493309949883128,395.1929412440737,0.460000008345,225.740965397817,1.5230396986,5.78921031952,-135.847290039,0
20.700000000000003,14.688415401261963,1.4752207145859964,395.1718336671579,0.46047991167715685,226.0479903789841,1.3755847750581631,5.84997687990446,-135.7324559587805,0
20.8,14.691146640566402,0.7430435980755076,395.1161811933088,0.4637533249262153,226.37533201607567,0.458150953054,6.24107503891,-135.008651733,0
20.900000000000002,14.693877879870842,0.010866481564992592,395.06052871945974,0.46702673817527385,226.70267365316724,0.458150953054,6.24107503891,-135.008651733,0
21.0,14.697909283889818,-0.6542611587625667,395.00274205939803,0.4703146856042887,227.0,0.458150953054,6.24107503891,-135.008651733,0
21.1,14.714819897855497,-0.6552081218878495,394.92381451465394,0.47374660614145625,227.0,-0.639029562473,7.61517333984,-133.532653809,0
21.200000000000003,14.731730511821175,-0.6561550850131324,394.8448869699099,0.47717852667862376,227.0,-0.639029562473,7.61517333984,-133.532653809,0
21.3,14.747120113722685,-0.6945834740586815,394.77043751785,0.48050320809685054,227.05032178060293,-0.639029562473,7.61517333984,-133.532653809,0
21.400000000000002,14.755479782312293,-0.9062464684448821,394.7166852671307,0.48333224331190794,227.33322472877757,-0.9268736639164042,9.629332711007393,-132.8265217122658,0
21.5,14.7638394509019,-1.1179094628310753,394.66293301641144,0.4861612785269653,227.61612767695217,-0.957241594791,9.83909130096,-132.754165649,0
21.6,14.772199119491507,-1.3295724572172758,394.60918076569214,0.4889903137420227,227.8990306251268,-0.957241594791,9.83909130096,-132.754165649,0
21.700000000000003,14.775695843678156,-1.2106893103090146,394.5752480649852,0.490000009537,228.2106675726497,-0.7021406445628398,11.136430419716877,-132.62784402525088,0
21.8,14.77649373417787,-0.9083598832688762,394.552314805111,0.490000009537,228.5382512962357,-0.519283592701,12.1020545959,-132.537506104,0
21.900000000000002,14.777291624677586,-0.6060304562287271,394.5293815452368,0.490000009537,228.8658350198217,-0.519283592701,12.1020545959,-132.537506104,0
22.0,14.769657677600659,-0.27688519525027777,394.519989014,0.490000009537,229.12777527669408,-0.41956352082296555,11.971243081290988,-132.46493465827072,0
22.1,14.756174983388854,0.0708608784798962,394.519989014,0.490000009537,229.34418191952622,0.249296352267,11.0076169968,-131.975997925,0
22.200000000000003,14.742692289177048,0.41860695221007016,394.519989014,0.490000009537,229.5605885623584,0.249296352267,11.0076169968,-131.975997925,0
22.3,14.729209594965246,0.7663530259402317,394.519989014,0.490000009537,229.77699520519056,0.3095557644772997,10.735601892375783,-131.85639118448375,0
22.400000000000002,14.71572690075344,1.1140990996704057,394.519989014,0.490000009537,229.9934018480227,0.759039223194,8.4891204834,-130.90574646,0
22.5,14.697313499792457,0.5399152548459097,394.54329435513495,0.490000009537,229.7410412284225,0.759039223194,8.4891204834,-130.90574646,0
22.6,14.678745035743443,-0.06326185755442748,394.5673326131412,0.490000009537,229.47393860468836,0.759039223194,8.4891204834,-130.90574646,0
22.700000000000003,14.66017657169443,-0.6664389699547648,394.5913708711475,0.490000009537,229.20683598095425,0.759039223194,8.4891204834,-130.90574646,0
22.8,14.639609517736377,-1.0463884175109066,394.61728545364355,0.4892700424431021,229.0,1.0448324287836455,7.13000897546008,-130.1500270760253,0
22.900000000000002,14.612183274593486,-0.6602173230147941,394.6496396086548,0.4860348178308416,229.0,1.10759234428,6.777592659,-129.988647461,0
23.0,14.584757031450597,-0.2740462285186951,394.681993763666,0.4827995932185813,229.0,1.10759234428,6.777592659,-129.988647461,0
23.1,14.557160626442247,0.08025484517842685,394.7150773047814,0.479999989271,229.0,1.10759234428,6.777592659,-129.988647461,0
23.200000000000003,14.52847064193023,0.2297368107093627,394.75284839261326,0.479999989271,229.0,1.1468156809974646,6.192111465051192,-130.21851541265258,0
23.3,14.499780657418217,0.3792187762402932,394.7906194804451,0.479999989271,229.0,1.15886104107,6.0023431778,-130.288406372,0
23.400000000000002,14.4710906729062,0.528700741771229,394.8283905682769,0.479999989271,229.0,1.15886104107,6.0023431778,-130.288406372,0
23.5,14.442106026234368,0.6560766207449819,394.86387853929773,0.4796106946711738,229.0,1.21643102169,5.47631549835,-130.526123047,0
23.6,14.411614040052221,0.6703691716574977,394.88768726321695,0.4772299698455249,229.0,1.21643102169,5.47631549835,-130.526123047,0
23.700000000000003,14.381122053870074,0.6846617225700133,394.91149598713616,0.47484924501987597,229.0,1.21643102169,5.47631549835,-130.526123047,0
23.8,14.350630067687929,0.6989542734825286,394.9353047110554,0.47246852019422714,229.0,1.21643102169,5.47631549835,-130.526123047,0
23.900000000000002,14.320138081505783,0.7132468243950444,394.95911343497465,0.4700877953685782,229.0,0.981238543987,4.4454293251,-130.472640991,0
24.0,14.29979141816642,0.577527269865136,394.9668182132754,0.469999998808,229.4551357423862,0.981238543987,4.4454293251,-130.472640991,0
24.1,14.279833220731167,0.43606372974981283,394.9739063691295,0.469999998808,229.9276986993026,0.981238543987,4.4454293251,-130.472640991,0
24.200000000000003,14.259875023295912,0.2946001896344897,394.98099452498354,0.469999998808,230.40026165621902,0.981238543987,4.4454293251,-130.472640991,0
24.3,14.23991682586066,0.1531366495191715,394.98808268083764,0.469999998808,230.87282461313538,0.6014445403402338,2.8902380018743594,-130.3604599776765,0
24.400000000000002,14.23816791198066,0.2706084486586718,394.9953402861489,0.469999998808,231.0,0.541167736053,2.57903146744,-130.343612671,0
24.5,14.243123850508406,0.4834230012670097,395.0026602845576,0.469999998808,231.0,0.541167736053,2.57903146744,-130.343612671,0
24.6,14.24807978903615,0.6962375538753552,395.00998028296624,0.469999998808,231.0,0.541167736053,2.57903146744,-130.343612671,0
24.700000000000003,14.253035727563896,0.9090521064837007,395.0173002813749,0.469999998808,231.0,0.541167736053,2.57903146744,-130.343612671,0
24.8,14.269820403875134,0.8634110795413191,395.01690219564426,0.4715442547737054,230.69114851230725,-0.194207042456,0.484878212214,-128.570526123,0
24.900000000000002,14.293472384866822,0.6677208044353652,395.0120232907169,0.4739850456373186,230.20298987402774,-0.194207042456,0.484878212214,-128.570526123,0
25.0,14.317124365858511,0.47203052932941825,395.0071443857895,0.47642583650093173,229.7148312357482,-0.194207042456,0.484878212214,-128.570526123,0
25.1,14.340776346850198,0.2763402542234643,395.0022654808621,0.47886662736454494,229.22667259746868,-0.21822171230174414,0.4295639032485203,-128.5751639491489,0
25.200000000000003,14.364387522011194,0.07869462635122092,394.97680152130675,0.48136450064990477,228.86354913864085,-0.525947570801,-0.333678424358,-128.643554688,0
25.3,14.387963324103682,-0.12064602466308427,394.9334931376779,0.48391185657979496,228.60881406189793,-0.525947570801,-0.333678424358,-128.643554688,0
25.400000000000002,14.41153912619617,-0.3199866756773965,394.89018475404896,0.48645921250968516,228.354078985155,-0.525947570801,-0.333678424358,-128.643554688,0
25.5,14.435114928288657,-0.5193273266917018,394.84687637042003,0.48900656843957535,228.0993439084121,-0.547170532468888,-0.15133272262161085,-128.72609515227066,0
25.6,14.46135009916121,-0.6026478747941413,394.8056667004706,0.490000009537,228.44223837644284,-1.121957161685593,5.6256530022138,-130.88848869076483,0
25.700000000000003,14.489285444447527,-0.6117950280926879,394.76579876970624,0.490000009537,229.16720639085406,-1.15096080303,5.95734071732,-130.993331909,0
25.8,14.517220789733841,-0.6209421813912341,394.72593083894185,0.490000009537,229.89217440526525,-1.15096080303,5.95734071732,-130.993331909,0
25.900000000000002,14.552918313180877,-0.5867390256324451,394.67529779562307,0.49194354203196344,230.38870686970242,-1.156730665998605,5.961935590265611,-130.993331909,0
26.0,14.589972025167105,-0.5449618112657701,394.62278389850684,0.49422664370978353,230.84532764074567,-1.23527109623,6.0289607048,-131.448425293,0
26.1,14.627025737153335,-0.5031845968990938,394.57027000139067,0.49650974538760373,231.30194841178894,-1.23527109623,6.0289607048,-131.448425293,0
26.200000000000003,14.664079449139566,-0.4614073825324174,394.5177561042745,0.4987928470654239,231.75856918283222,-1.28115664842283,6.519563485867493,-130.90102965087667,0
26.3,14.691342011815614,-0.4532060582169794,394.4730190191271,0.5010606756417519,231.89393233466808,-1.42118895054,7.97080850601,-129.246047974,0
26.400000000000002,14.707619465120171,-0.48267496165249685,394.437007072095,0.5033113686719847,231.668862816996,-1.42118895054,7.97080850601,-129.246047974,0
26.5,14.723896918424728,-0.5121438650880132,394.4009951250629,0.5055620617022173,231.44379329932394,-1.42118895054,7.97080850601,-129.246047974,0
26.6,14.740174371729285,-0.5416127685235308,394.3649831780308,0.5078127547324499,231.21872378165187,-1.42118895054,7.97080850601,-129.246047974,0
26.700000000000003,14.755642553247828,-0.5750471641267648,394.32975391690456,0.509999990463,231.01551097099107,-0.51572573185,10.1903038025,-127.280479431,0
26.8,14.743216888432672,-0.7451634891822716,394.32150214438474,0.509999990463,231.56565152970325,-0.51572573185,10.1903038025,-127.280479431,0
26.900000000000002,14.730791223617514,-0.9152798142377844,394.31325037186485,0.509999990463,232.11579208841545,-0.51572573185,10.1903038025,-127.280479431,0
27.0,14.718365558802356,-1.0853961392932912,394.30499859934497,0.509999990463,232.66593264712762,-0.51572573185,10.1903038025,-127.280479431,0
27.1,14.698284593767193,-1.0496351072416383,394.304860484428,0.5090258098712338,233.09741815208432,0.3817608655994502,10.139860927537168,-127.61792738364308,0
27.200000000000003,14.66636789060799,-0.6955703621597553,394.31726676670723,0.5065454641339739,233.3454529623611,1.44141864777,10.0784597397,-128.015457153,0
27.3,14.63445118744879,-0.34150561707788507,394.3296730489865,0.5040651183967141,233.59348777263787,1.44141864777,10.0784597397,-128.015457153,0
27.400000000000002,14.602534484289587,0.012559128003997833,394.3420793312657,0.5015847726594541,233.84152258291468,1.44141864777,10.0784597397,-128.015457153,0
27.5,14.565994888327422,0.23406627247234751,394.3660783238277,0.5,233.8214125121733,2.3383243084,6.9150056839,-126.933982849,0
27.6,14.521274793974577,0.22100443930921565,394.4105913433969,0.5,233.32680327800094,2.3383243084,6.9150056839,-126.933982849,0
27.700000000000003,14.476554699621731,0.20794260614608379,394.4551043629661,0.5,232.83219404382854,2.3383243084,6.9150056839,-126.933982849,0
27.8,14.431834605268888,0.1948807729829524,394.4996173825353,0.5,232.33758480965616,2.3383243084,6.9150056839,-126.933982849,0
27.900000000000002,14.389771633554759,0.2007158144548897,394.5440401933754,0.49938945245893396,231.9389451876654,2.93058872223,2.67829799652,-125.82686615,0
28.0,14.353421175947833,0.2471770059441218,394.58826906561814,0.4974662965381728,231.74662941217775,2.93058872223,2.67829799652,-125.82686615,0
28.1,14.317070718340908,0.29363819743335556,394.6324979378609,0.49554314061741167,231.55431363669007,2.93058872223,2.67829799652,-125.82686615,0
28.200000000000003,14.28072026073398,0.34009938892258934,394.6767268101037,0.49361998469665047,231.3619978612024,2.93058872223,2.67829799652,-125.82686615,0
28.3,14.244369803127057,0.38656058041182145,394.7209556823464,0.4916968287758893,231.16968208571473,2.93080163002,-0.27620857954,-127.020210266,0
28.400000000000002,14.211120228166726,0.41203043197275313,394.7608172096323,0.490000009537,230.9441336174182,2.93080163002,-0.27620857954,-127.020210266,0
28.5,14.201117602347667,0.28013069966493725,394.76793727015985,0.490000009537,230.4694435956987,2.93080163002,-0.27620857954,-127.020210266,0
28.6,14.191114976528608,0.14823096735711672,394.7750573306874,0.490000009537,229.99475357397912,2.93080163002,-0.27620857954,-127.020210266,0
28.700000000000003,14.18111235070955,0.016331235049296178,394.78217739121493,0.490000009537,229.5200635522596,2.93080163002,-0.27620857954,-127.020210266,0
28.8,14.17110972489049,-0.11556849725851964,394.78929745174247,0.490000009537,229.04537353054008,1.7798465560265417,-0.959147036076,-128.9714888204752,0
28.900000000000002,14.169891517768711,0.014447648048451445,394.7922743566453,0.490000009537,229.0,1.77740931511,-0.959147036076,-128.998306274,0
29.0,14.169601716841958,0.1721451154477364,394.79481338039955,0.490000009537,229.0,1.77740931511,-0.959147036076,-128.998306274,0
29.1,14.169311915915207,0.32984258284702694,394.7973524041538,0.490000009537,229.0,1.77740931511,-0.959147036076,-128.998306274,0
29.200000000000003,14.169022114988454,0.4875400502463175,394.79989142790805,0.490000009537,229.0,1.5759949393864565,0.6578159255380099,-129.48917667745278,0
29.3,14.17600018980648,0.2595817398931926,394.79371447858705,0.490000009537,229.0,1.34941601753,2.71365761757,-130.024353027,0
29.400000000000002,14.183264988891514,0.016408960543037476,394.7871936762505,0.490000009537,229.0,1.34941601753,2.71365761757,-130.024353027,0
29.5,14.190529787976546,-0.226763818807109,394.780672873914,0.490000009537,229.0,1.34941601753,2.71365761757,-130.024353027,0
29.6,14.19779458706158,-0.46993659815726424,394.7741520715774,0.490000009537,229.0,1.1803957114132126,3.0193063402944396,-130.35237118635413,0
29.700000000000003,14.203698540640618,-0.556818735055071,394.7840568474941,0.490000009537,229.0,0.879411280155,3.60268354416,-130.927398682,0
29.8,14.207199656434218,-0.3677393028109274,394.82296418093887,0.490000009537,229.0,0.879411280155,3.60268354416,-130.927398682,0
29.900000000000002,14.210700772227819,-0.17865987056677718,394.8618715143836,0.490000009537,229.0,0.879411280155,3.60268354416,-130.927398682,0
30.0,14.214201888021417,0.010419561677366351,394.9007788478283,0.490000009537,229.0,0.9149144088622005,3.699007745084571,-130.904495279154,0
30.1,14.211811681275803,0.07303437745248963,394.9423291677931,0.4887587082033468,228.8758701181963,1.21097195148,4.55876255035,-130.718933105,0
30.200000000000003,14.203679416637941,0.012388729341598043,394.98645551062987,0.4863075555889135,228.63075535350254,1.21097195148,4.55876255035,-130.718933105,0
30.3,14.19554715200008,-0.048256918769291376,395.0305818534666,0.48385640297448024,228.3856405888088,1.21097195148,4.55876255035,-130.718933105,0
30.400000000000002,14.187414887362218,-0.10890256688018295,395.07470819630333,0.4814052503600469,228.14052582411506,1.21097195148,4.55876255035,-130.718933105,0
30.5,14.18354898696389,0.02311232320736939,395.1035284402892,0.479999989271,228.0,1.86718797684,4.72156047821,-130.669723511,0
30.6,14.185415378597767,0.41398614001306844,395.11178339177764,0.479999989271,228.0,1.86718797684,4.72156047821,-130.669723511,0
30.700000000000003,14.187281770231642,0.8048599568187673,395.12003834326606,0.479999989271,228.0,1.86718797684,4.72156047821,-130.669723511,0
30.8,14.18914816186552,1.1957337736244524,395.1282932947544,0.479999989271,228.0,1.8515474228623445,4.691169104072838,-130.669723511,0
30.900000000000002,14.195173002942536,0.9013527928331828,395.130004883,0.479999989271,228.0,1.47440361977,4.22250747681,-131.164428711,0
31.0,14.202285595520197,0.4277254500018568,395.130004883,0.479999989271,228.0,1.47440361977,4.22250747681,-131.164428711,0
31.1,14.209398188097857,-0.04590189282948609,395.130004883,0.479999989271,228.0,1.47440361977,4.22250747681,-131.164428711,0
31.200000000000003,14.217341991292631,-0.45361368919359274,395.1212511279743,0.48051487641074236,228.0,1.47440361977,4.1430634277431135,-131.164428711,0
31.3,14.22909818539711,-0.5590003889009227,395.07234781831244,0.48339132030959164,228.0,1.05809080601,3.24419784546,-131.147521973,0
31.400000000000002,14.240854379501592,-0.6643870886082565,395.0234445086506,0.486267764208441,228.0,1.05809080601,3.24419784546,-131.147521973,0
31.5,14.25261057360607,-0.7697737883155865,394.97454119898873,0.48914420810729026,228.0,1.05809080601,3.24419784546,-131.147521973,0
31.6,14.262582600703187,-0.7156864130005288,394.9296104386021,0.49202549112216826,227.7974516483128,0.149031206965,4.84018373489,-131.122848511,0
31.700000000000003,14.271798980673676,-0.5940570833367065,394.88636216950283,0.4949088236448039,227.50911812106557,0.149031206965,4.84018373489,-131.122848511,0
31.8,14.281015360644165,-0.4724277536728886,394.8431139004036,0.4977921561674394,227.22078459381834,0.149031206965,4.84018373489,-131.122848511,0
31.900000000000002,14.287623570272004,-0.38656269236543156,394.81173443081974,0.5,227.0,0.149031206965,4.84018373489,-131.122848511,0
32.0,14.285706940195054,-0.4175936212896915,394.81914829145,0.5,227.0,0.6065521489861148,7.078340438937301,-131.7176738107773,0
32.1,14.283790310118102,-0.44862455021395253,394.8265621520803,0.5,227.0,0.613729536533,7.13019323349,-131.725982666,0
32.2,14.28187368004115,-0.4796554791382136,394.8339760127106,0.5,227.0,0.613729536533,7.13019323349,-131.725982666,0
32.300000000000004,14.277571350904,-0.4770726721744388,394.84417785617893,0.4995818740991206,227.08362525992928,1.5319607693654131,6.850130035738787,-131.9688626259053,0
32.4,14.262962369352678,-0.3292724327526835,394.86642429090705,0.497357368509529,227.5285268021502,1.7105897665,6.80284643173,-132.023956299,0
32.5,14.248353387801357,-0.18147219333091769,394.88867072563517,0.49513286291993724,227.97342834437117,1.7105897665,6.80284643173,-132.023956299,0
32.6,14.233744406250036,-0.0336719539091519,394.9109171603632,0.4929083573303455,228.41832988659212,1.7105897665,6.80284643173,-132.023956299,0
32.7,14.219135424698713,0.11412828551261389,394.93316359509134,0.49068385174075374,228.86323142881307,2.097246180260219,5.733962742529676,-132.0391280115293,0
32.800000000000004,14.21568158069582,0.20247474694213058,394.94445525439295,0.490000009537,229.0,2.35387539864,5.04114294052,-132.049087524,0
32.9,14.217179080324778,0.2644319250684691,394.9508845032303,0.490000009537,229.0,2.35387539864,5.04114294052,-132.049087524,0
33.0,14.218676579953735,0.32638910319481196,394.95731375206765,0.490000009537,229.0,2.35387539864,5.04114294052,-132.049087524,0
33.1,14.218259931761873,0.4054745936691902,394.96944387152604,0.490000009537,228.88182495774385,2.32476265803395,5.063122915836861,-131.97246614938226,0
33.2,14.216477041662609,0.49678558620691626,394.9856430436807,0.490000009537,228.67930131221712,1.69885110855,5.66044378281,-130.412155151,0
33.300000000000004,14.214694151563345,0.5880965787446423,395.00184221583527,0.490000009537,228.4767776666904,1.69885110855,5.66044378281,-130.412155151,0
33.4,14.21291126146408,0.6794075712823618,395.0180413879899,0.490000009537,228.2742540211637,1.6991162390164696,5.669317341207864,-130.4129229706273,0
33.5,14.211128371364818,0.770718563820088,395.03424056014455,0.490000009537,228.07173037563697,1.71530008316,6.81120491028,-130.562637329,0
33.6,14.213633043608882,0.636108908329041,395.0709872487813,0.4884496399325791,228.0,1.71530008316,6.81120491028,-130.562637329,0
33.7,14.21848912474205,0.3775985891347937,395.1190027211783,0.4860490079698963,228.0,1.71530008316,6.81120491028,-130.562637329,0
33.800000000000004,14.22334520587522,0.11908826994054633,395.1670181935752,0.4836483760072135,228.0,1.71530008316,6.81120491028,-130.562637329,0
33.9,14.228201287008387,-0.13942204925368262,395.2150336659721,0.4812477440445308,228.0,1.71530008316,6.81120491028,-130.562637329,0
34.0,14.243629620265486,-0.2536840905788138,395.25303452166725,0.48108705967188203,228.2174136395659,1.78600788116,6.83336257935,-131.513137817,0
34.1,14.270500263404966,-0.21182674730828818,395.2801965942619,0.48335066239956126,228.67013326762017,1.78600788116,6.83336257935,-131.513137817,0
34.2,14.297370906544446,-0.1699694040377626,395.30735866685654,0.48561426512724054,229.12285289567444,1.78600788116,6.83336257935,-131.513137817,0
34.300000000000004,14.324241549683926,-0.128112060767237,395.3345207394512,0.4878778678549198,229.57557252372868,1.7388029531562497,7.204704305113344,-131.46347997540605,0
34.4,14.351507482682232,-0.08980639191980147,395.36227159275313,0.4898367233795101,230.0,1.46477520466,9.59371948242,-131.176040649,0
34.5,14.384703395077835,-0.1047815135719722,395.39885509730027,0.4872238839937869,230.0,1.46477520466,9.59371948242,-131.176040649,0
34.6,14.417899307473437,-0.11975663522414293,395.4354386018474,0.48461104460806376,230.0,1.46477520466,9.59371948242,-131.176040649,0
34.7,14.45109521986904,-0.13473175687631367,395.4720221063945,0.4819982052223406,230.0,1.46477520466,9.59371948242,-131.176040649,0
34.800000000000004,14.482196883190952,-0.007636401718083025,395.50882799749627,0.479999989271,230.26482376004594,0.666819095612,16.7994346619,-129.557525635,0
34.9,14.506489886655407,0.5813474482422515,395.54635689448423,0.479999989271,231.39062195096324,0.666819095612,16.7994346619,-129.557525635,0
35.0,14.530782890119864,1.170331298202628,395.5838857914722,0.479999989271,232.51642014188062,0.666819095612,16.7994346619,-129.557525635,0
35.1,14.56720048381236,1.174739259271342,395.6089055447692,0.479999989271,233.53409685124015,0.7774890293505183,16.82377003790256,-129.5330407364758,0
35.2,14.612747694837156,0.7389711758807698,395.6245061182915,0.479999989271,234.47035986055226,1.569201231,17.004535675,-129.357559204,0
35.300000000000004,14.658294905861949,0.3032030924901976,395.64010669181374,0.479999989271,235.40662286986438,1.569201231,17.004535675,-129.357559204,0
35.4,14.705209621371553,0.021416449849874748,395.65504086958674,0.479999989271,236.50458956572479,1.569201231,17.004535675,-129.357559204,0
35.5,14.75449085570251,0.006100580593328006,395.66882182402423,0.479999989271,237.88239067671748,1.22680795193,19.2726345062,-126.936645508,0
35.6,14.803772090033469,-0.009215288663218739,395.6826027784618,0.479999989271,239.26019178771017,1.22680795193,19.2726345062,-126.936645508,0
35.7,14.856932076376799,-0.08561859679953443,395.6883952819606,0.479999989271,240.64223647184392,1.22680795193,19.2726345062,-126.936645508,0
35.800000000000004,14.914589812770364,-0.2328580992616626,395.68492448234116,0.479999989271,242.02920194783215,0.751159548759,20.3967761993,-123.413047791,0
35.9,14.972247549163924,-0.38009760172378027,395.6814536827217,0.479999989271,243.4161674238203,0.751159548759,20.3967761993,-123.413047791,0
36.0,15.03864588845885,-0.3487093681394725,395.65786949983396,0.4826025117063445,244.78075631176662,0.751159548759,20.3967761993,-123.413047791,0
36.1,15.111398155865155,-0.18746878840175107,395.619664015326,0.4870969219953116,246.12907867514923,-0.103538841009,21.741065979,-119.964553833,0
36.2,15.184150423271458,-0.02622820866402964,395.58145853081805,0.4915913322842788,247.47740103853187,-0.103538841009,21.741065979,-119.964553833,0
36.300000000000004,15.256902690677762,0.1350123710736918,395.5432530463101,0.496085742573246,248.82572340191447,-0.1583083367282451,21.961601202989296,-119.47302598017895,0
36.4,15.330728111717294,0.2474823067205187,395.5068116261879,0.5,250.1759861502388,-0.565994799137,23.7212104797,-115.715782166,0
36.5,15.411794037548809,0.030899559403444743,395.4822722452922,0.5,251.53934056226745,-0.565994799137,23.7212104797,-115.715782166,0
36.6,15.492859963380322,-0.18568318791362926,395.45773286439646,0.5,252.90269497429614,-0.565994799137,23.7212104797,-115.715782166,0
36.7,15.573925889211838,-0.40226593523070325,395.4331934835007,0.5,254.2660493863248,-0.565994799137,23.7212104797,-115.715782166,0
36.800000000000004,15.650042890137097,-0.47355786469142724,395.42551155381256,0.5,255.77372677953682,-0.258325219154,26.623046875,-109.44270407377293,0
36.9,15.720388927363883,-0.37542551484846964,395.4374871741601,0.5,257.44969985333415,-0.258325219154,26.623046875,-109.112968445,0
37.0,15.790734964590674,-0.2772931650055051,395.44946279450767,0.5,259.1256729271316,-0.258325219154,26.623046875,-109.112968445,0
37.1,15.861081001817466,-0.17916081516254057,395.4614384148552,0.5,260.80164600092905,-0.005546338723055544,26.31462707501272,-108.31767578230509,0
37.2,15.94194682441085,-0.09461858901000204,395.4621194749558,0.5019705148154445,262.3941033389321,1.07045018673,24.9180355072,-104.340415955,0
37.300000000000004,16.049206958978992,-0.044174203446466734,395.43446230035033,0.5088850832381884,263.77701834232084,1.07045018673,24.9180355072,-104.340415955,0
37.4,16.156467093547125,0.006270182117064982,395.4068051257449,0.5157996516609318,265.1599333457095,1.07045018673,24.9180355072,-104.340415955,0
37.5,16.26372722811527,0.05671456768060029,395.37914795113943,0.5227142200836756,266.54284834909816,1.07045018673,24.9180355072,-104.340415955,0
37.6,16.370987362683408,0.1071589532441356,395.351490776534,0.5296287885064195,267.92576335248685,0.854985713959,27.8152999878,-97.6577758789,0
37.7,16.508968329748313,-0.12863522431265106,395.3119744332938,0.5350700458547784,269.77452246651393,0.854985713959,27.8152999878,-97.6577758789,0
37.800000000000004,16.648691979882084,-0.38066669288874827,395.2717853617872,0.5404277275296991,271.64970725258047,0.854985713959,27.8152999878,-97.6577758789,0
37.9,16.78841563001584,-0.6326981614648275,395.23159629028055,0.5457854092046195,273.52489203864684,0.854985713959,27.8152999878,-97.6577758789,0
38.0,16.941045699930118,-0.8019798868909267,395.1815488136799,0.5527107587304377,275.650579079154,0.9152308278855646,31.546194244885662,-94.61534854585318,0
38.1,17.141262536672077,-0.6661581987215455,395.0951527886453,0.5654161964412516,278.6998834027342,0.97738546133,35.4311180115,-91.5066375732,0
38.2,17.341479373414035,-0.5303365105521642,395.0087567636107,0.5781216341520656,281.7491877263144,0.97738546133,35.4311180115,-91.5066375732,0
38.300000000000004,17.541696210155994,-0.3945148223827829,394.92236073857606,0.5908270718628795,284.7984920498946,0.97738546133,35.4311180115,-91.5066375732,0
38.400000000000006,17.74804151577306,-0.4565415637260224,394.82740438814676,0.6016290953365978,287.73308287171017,-0.147269546986,38.6704177856,-84.1788635254,0
38.5,17.970300870296942,-1.0323295148543838,394.7102190862836,0.6074884442407903,290.36979239322665,-0.147269546986,38.6704177856,-84.1788635254,0
38.6,18.19256022482084,-1.6081174659827862,394.59303378442047,0.6133477931449832,293.00650191474335,-0.147269546986,38.6704177856,-84.1788635254,0
38.7,18.414819579344744,-2.1839054171111885,394.4758484825573,0.6192071420491762,295.64321143626,-0.147269546986,38.6704177856,-84.1788635254,0
38.800000000000004,18.636950530381498,-2.212938182221327,394.3470806975419,0.620000004768,298.37703803521134,-1.7036388522645964,43.53525418621671,-75.5141838756228,0
38.900000000000006,18.85906138734631,-2.1564083330349235,394.21650035077334,0.620000004768,301.12606264462636,-2.18676877022,45.1013908386,-72.8493118286,0
39.0,19.081172244311105,-2.099878483848524,394.0859200040048,0.620000004768,303.87508725404115,-2.18676877022,45.1013908386,-72.8493118286,0
39.1,19.303283101275913,-2.04334863466212,393.9553396572362,0.620000004768,306.6241118634561,-1.81863798693954,45.05215125206195,-70.90609248812933,0
39.2,19.500075678373893,-1.8013831209251432,393.8601007262488,0.6233205150150832,309.4942310361609,-0.411617189646,44.8411865234,-63.6927566528,0
39.300000000000004,19.671499239649556,-1.3736103433159963,393.80027403261914,0.629968189565567,312.48568743668096,-0.411617189646,44.8411865234,-63.6927566528,0
39.400000000000006,19.84292280092522,-0.9458375657068496,393.7404473389895,0.6366158641160509,315.4771438372011,-0.411617189646,44.8411865234,-63.6927566528,0
39.5,20.003941672601364,-0.6540985441371497,393.7086829715028,0.6386927800627136,318.4379275668667,-0.411617189646,44.8411865234,-63.6927566528,0
39.6,20.154171464123753,-0.5034189057899217,393.7060176639316,0.6360300754307383,321.3669054554056,1.45271086693,42.3769035339,-51.0403022766,0
39.7,20.304401255646138,-0.35273926744269346,393.70335235636037,0.6333673707987632,324.29588334394447,1.45271086693,42.3769035339,-51.0403022766,0
39.800000000000004,20.454631047168526,-0.20205962909546527,393.7006870487892,0.630704666166788,327.22486123248336,1.45271086693,42.3769035339,-51.0403022766,0
39.900000000000006,20.52434820333419,-0.0816325802831031,393.7655422191569,0.6225499745582708,329.78800453539895,1.95699179173,45.2405471802,-42.0412406921,0
40.0,20.565089906165937,0.027906953887437136,393.8546971338932,0.6124187880599253,332.2194887152874,1.95699179173,45.2405471802,-42.0412406921,0
40.1,20.60583160899769,0.13744648805798515,393.9438520486295,0.6022876015615791,334.65097289517604,1.95699179173,45.2405471802,-42.0412406921,0
40.2,20.646573311829442,0.24698602222853322,394.0330069633657,0.592156415063233,337.08245707506467,1.95699179173,45.2405471802,-42.0412406921,0
40.300000000000004,20.687315014661195,0.35652555639908123,394.122161878102,0.5820252285648868,339.5139412549533,2.41931056976,42.0004806519,-31.435136795,0
40.400000000000006,20.648750610016847,0.903740185280993,394.24514385752417,0.57321543786201,341.5265241818307,2.41931056976,42.0004806519,-31.435136795,0
40.5,20.590371810852933,1.5603066317466037,394.3765774282103,0.5647357939591873,343.4344458795031,2.41931056976,42.0004806519,-31.435136795,0
