t_sec,airspeed,climb,altitude,throttle,heading,pitch,roll,yaw,is_boundary
0.0,20.3390674591,2.83780050278,401.100006104,0.419999986887,279.0,-0.561371147633,-1.5184623003,-84.7684860229,0
0.1,20.211874664321765,4.2713343019038295,401.1479961033485,0.4273845238443815,279.0,-0.561371147633,-1.5184623003,-84.7684860229,0
0.2,20.08468186954353,5.7048681010276585,401.195986102697,0.43476906080176303,279.0,-1.9089449855822371,11.41058360870472,-81.13844951459619,0
0.30000000000000004,19.951697854240617,6.313590948640933,401.2514282612875,0.4305629703389917,278.9142088308499,-2.18193817139,14.2209310532,-80.4045944214,0
0.4,19.804647388980243,4.918908482237761,401.32497116817564,0.39820409586699673,278.6200372032974,-2.18193817139,14.2209310532,-80.4045944214,0
0.5,19.657596923719865,3.5242260158345875,401.39851407506376,0.3658452213950017,278.3258655757449,-1.47332894802,27.9854393005,-80.3796615601,0
0.6000000000000001,19.51054645845949,2.129543549431413,401.4720569819519,0.3334863469230066,278.0316939481924,-1.47332894802,27.9854393005,-80.3796615601,0
0.7000000000000001,19.40330056399856,1.884911856633197,401.50027369454983,0.3137664207482346,278.81167948519385,-1.47332894802,27.9854393005,-80.3796615601,0
0.8,19.300861036341143,1.779147780030664,401.5230173091796,0.29557263642870785,279.72136855206077,-0.6385650475393259,34.67040752100274,-81.17560399626177,0
0.9,19.19842150868373,1.6733837034281311,401.5457609238093,0.2773788521091811,280.6310576189277,-0.179027363658,38.5702133179,-81.618522644,0
1.0,19.095981981026313,1.5676196268255984,401.56850453843913,0.25918506778965444,281.54074668579466,-0.179027363658,38.5702133179,-81.618522644,0
1.1,18.99707384073617,1.257579218782525,401.4978627544274,0.25782125564912683,283.042834045115,-0.179027363658,38.5702133179,-81.618522644,0
1.2000000000000002,18.90176621692941,0.7392636423642883,401.332007494196,0.273616872917829,285.14891626392694,-0.179027363658,38.5702133179,-81.618522644,0
1.3,18.80645859312265,0.22094806594605276,401.1661522339646,0.28941249018653115,287.25499848273887,-5.3615527153,41.8600692749,-77.9072265625,0
1.4000000000000001,18.711150969315888,-0.297367510472184,401.00029697373327,0.3052081074552333,289.36108070155086,-5.3615527153,41.8600692749,-77.9072265625,0
1.5,18.66671433527335,-0.8425343801833585,400.73113545042116,0.3230657800127167,291.6332225442798,-5.3615527153,41.8600692749,-77.9072265625,0
1.6,18.644430971764347,-1.3993944362715012,400.4169861727044,0.3418214352687717,293.9776799403405,-5.3615527153,41.867397860326065,-77.9072265625,0
1.7000000000000002,18.660989052566137,-2.021486201009534,400.1229690959355,0.3593054161979962,296.04685982118116,-12.7886314392,42.0561676025,-69.1414794922,0
1.8,18.707580615194516,-2.694017267658642,399.8445188988754,0.37580609672575754,297.9031860762792,-12.7886314392,42.0561676025,-69.1414794922,0
1.9000000000000001,18.754172177822895,-3.3665483343077516,399.5660687018152,0.39230677725351887,299.7595123313773,-14.1652708054,43.3619537354,-63.8873405457,0
2.0,18.800763740451277,-4.03907940095686,399.287618504755,0.4088074577812802,301.6158385864754,-14.1652708054,43.3619537354,-63.8873405457,0
2.1,18.847355303079656,-4.71161046760597,399.00916830769484,0.4253081383090415,303.47216484157343,-14.1652708054,43.3619537354,-63.8873405457,0
2.2,18.91440854219661,-4.825077850154459,398.71460750999563,0.4386849581669079,305.9106899063989,-14.1652708054,43.3619537354,-63.8873405457,0
2.3000000000000003,18.98959160038279,-4.716418438622712,398.41364565965716,0.45082060787637984,308.5805337973257,-13.6932510616715,43.59565778640275,-60.255561586477306,0
2.4000000000000004,19.06477465856897,-4.607759027090965,398.11268380931864,0.4629562575858518,311.25037768825246,-13.0158405304,43.9450187683,-55.0482177734,0
2.5,19.139957716755152,-4.499099615559219,397.8117219589801,0.4750919072953237,313.92022157917927,-13.0158405304,43.9450187683,-55.0482177734,0
2.6,19.22503464922977,-4.509737743976728,397.50976802708607,0.486879175738097,316.51342156399113,-13.0158405304,43.9450187683,-55.0482177734,0
2.7,19.316830293704502,-4.601388202839734,397.20714039447,0.49842986613985774,319.05457436114557,-13.0158405304,43.9450187683,-55.0482177734,0
2.8000000000000003,19.408625938179235,-4.693038661702741,396.9045127618539,0.5099805565416184,321.5957271583,-12.962264061,41.8565826416,-44.4487876892,0
2.9000000000000004,19.500421582653967,-4.784689120565748,396.6018851292378,0.5215312469433792,324.13687995545445,-12.962264061,41.8565826416,-44.4487876892,0
3.0,19.591250168595995,-4.766447169868663,396.3225882137471,0.5323434838940136,326.82022893641346,-12.962264061,41.8565826416,-44.4487876892,0
3.1,19.679421440227475,-4.446239347748644,396.10740018763204,0.5411265748757208,329.8943091309975,-12.962264061,41.8565826416,-44.4487876892,0
3.2,19.767592711858953,-4.126031525628625,395.8922121615169,0.5499096658574278,332.9683893255815,-11.4553117752,41.092250824,-33.4921913147,0
3.3000000000000003,19.85576398349043,-3.805823703508606,395.67702413540184,0.5586927568391349,336.0424695201655,-11.4553117752,41.092250824,-33.4921913147,0
3.4000000000000004,19.94393525512191,-3.485615881388588,395.4618361092867,0.5674758478208419,339.1165497147495,-11.4553117752,41.092250824,-33.4921913147,0
3.5,20.006319647769235,-3.453304044121435,395.3266802229915,0.569999992847,341.71072198517845,-11.4553117752,41.092250824,-33.4921913147,0
3.6,20.058304554178736,-3.53709661538859,395.2238001750074,0.569999992847,344.111354127865,-9.904146989726499,40.816527641575256,-24.183644644968194,0
3.7,20.11028946058824,-3.620889186655745,395.1209201270233,0.569999992847,346.5119862705516,-9.17580032349,40.6755065918,-19.8251399994,0
3.8000000000000003,20.087239280313046,-3.229350086875295,395.0922658004707,0.5684525003402428,293.30195880370115,-9.17580032349,40.6755065918,-19.8251399994,0
3.9000000000000004,20.045043539041977,-2.7165278393915013,395.08255052150145,0.5665101577241856,225.90260574775408,-8.024461775855977,39.503572191479975,-16.69832889828709,0
4.0,20.002847797770908,-2.2037055919077098,395.0728352425321,0.5645678151081284,158.50325269180732,-6.46895694733,37.8558731079,-12.4627456665,0
4.1000000000000005,19.96065205649984,-1.6908833444239135,395.0631199635628,0.5626254724920713,91.10389963585996,-6.46895694733,37.8558731079,-12.4627456665,0
4.2,19.91845631522877,-1.1780610969401217,395.05340468459354,0.5606831298760141,23.7045465799132,-6.46895694733,37.8558731079,-12.4627456665,0
4.3,19.8492495620114,-0.6871580284829202,395.07953195673366,0.560000002384,0.9848455327938093,-6.46895694733,37.8558731079,-12.4627456665,0
4.4,19.76538926430007,-0.20814617186834472,395.1251039064187,0.560000002384,2.5039723380984764,-6.46895694733,37.8558731079,-12.4627456665,0
4.5,19.68132861969282,0.2684519359891164,395.17068712242633,0.5599061036629427,4.028169643182584,-4.18184232712,35.1002006531,0.494616091251,0
4.6000000000000005,19.584292407418907,0.5887223893315745,395.21700000748945,0.5537308069581017,5.8807604214507,-4.18184232712,35.1002006531,0.494616091251,0
4.7,19.48725619514499,0.9089928426740299,395.26331289255256,0.5475555102532608,7.733351199718799,-2.21366214752,35.4660873413,4.528028965,0
4.800000000000001,19.390219982871074,1.229263296016488,395.3096257776157,0.5413802135484198,9.585941977986915,-2.21366214752,35.4660873413,4.528028965,0
4.9,19.274720094225128,1.4310040950340799,395.39830005708643,0.5319671649994469,11.20492782239943,-2.21366214752,35.4660873413,4.528028965,0
5.0,19.153905739652387,1.5986280802313073,395.4991673680344,0.52162218277116,12.75667432420806,-0.5929962050348068,29.850829919993004,8.658987637097894,0
5.1000000000000005,19.033091385079647,1.7662520654285363,395.60003467898247,0.511277200542873,14.308420826016704,0.0114865638316,27.6236686707,10.2000589371,0
5.2,18.912277030506907,1.9338760506257637,395.7009019899305,0.500932218314586,15.860167327825334,0.0114865638316,27.6236686707,10.2000589371,0
5.300000000000001,18.75457588763144,1.6412542354403374,395.86466917510506,0.49346424276679873,16.653575697351386,0.0114865638316,27.6236686707,10.2000589371,0
5.4,18.593221562764235,1.3030507432616671,396.0346658179901,0.4862811992903284,17.37188001645779,0.1553471933494239,23.13825587114961,13.32142877097013,0
5.5,18.431867237897027,0.9648472510829967,396.2046624608751,0.4790981558138581,18.090184335564192,0.297242790461,18.5101470947,16.3953380585,0
5.6000000000000005,18.27051291302982,0.6266437589043234,396.37465910376017,0.4719151123373878,18.808488654670604,0.297242790461,18.5101470947,16.3953380585,0
5.7,18.10631632622165,1.0585115630052728,396.58323253710444,0.46326806530060993,19.336596745592,0.297242790461,18.5101470947,16.3953380585,0
5.800000000000001,17.94108645796291,1.770332588373925,396.805830252106,0.45408879155360976,19.79556052869333,0.8855220096674679,17.71403119524217,16.960473785521614,0
5.9,17.775856589704173,2.4821536137425704,397.0284279671075,0.44490951780660964,20.254524311794654,3.61038470268,13.6654520035,19.5806522369,0
6.0,17.61062672144544,3.193974639111216,397.25102568210906,0.43573024405960953,20.71348809489598,3.61038470268,13.6654520035,19.5806522369,0
6.1000000000000005,17.46619989343517,3.3893045925425715,397.45387917852554,0.427588866435937,21.241113942360727,3.61038470268,13.6654520035,19.5806522369,0
6.2,17.356335279317626,2.726535215839151,397.6239295895406,0.421171851568113,21.88281508490255,3.61038470268,13.6654520035,19.5806522369,0
6.300000000000001,17.246470665200086,2.0637658391357245,397.7939800005556,0.4147548367002889,22.52451622744438,2.08528232574,2.94806599617,21.5367794037,0
6.4,17.142779681481525,1.5931569616331602,397.95238649317076,0.4088826638104496,22.888266798584233,2.08528232574,2.94806599617,21.5367794037,0
6.5,17.05674907268477,1.6722451410854722,398.0774842272094,0.404569073631673,22.456908012109,2.08528232574,2.94806599617,21.5367794037,0
6.6000000000000005,16.970718463888012,1.7513333205377848,398.2025819612481,0.4002554834528964,22.025549225633764,0.382291018963,-4.91501188278,23.3965606689,0
6.7,16.884687855091254,1.8304214999900967,398.32767969528675,0.3959418932741199,21.594190439158528,0.382291018963,-4.91501188278,23.3965606689,0
6.800000000000001,16.7986572462945,1.9095096794424093,398.45277742932535,0.3916283030953433,21.16283165268329,0.382291018963,-4.91501188278,23.3965606689,0
6.9,16.738148022257132,1.7600929181651639,398.5345876147436,0.38866958790273487,20.60088028167998,0.382291018963,-4.91501188278,23.3965606689,0
7.0,16.69311466168449,1.4721134849527977,398.59014874673124,0.38653245274958686,19.95973912427927,0.30978208265235213,-5.00837096128257,23.327676310914782,0
7.1000000000000005,16.648081301111848,1.1841340517404286,398.64570987871883,0.3843953175964389,19.318597966878553,-1.1421293546699112,-7.118874130065535,21.934004854542877,0
7.2,16.603047940539202,0.8961546185280622,398.7012710107065,0.38225818244329096,18.677456809477842,-1.20471048355,-7.1658987999,21.8680667877,0
7.300000000000001,16.55801457996656,0.6081751853156934,398.7568321426941,0.38012104729014295,18.03631565207713,-1.20471048355,-7.1658987999,21.8680667877,0
7.4,16.5357471875674,0.4207481753540139,398.75761168085376,0.379999995232,17.525501892286698,-1.20471048355,-7.1658987999,21.8680667877,0
7.5,16.51484673649613,0.23935865353749874,398.7551019574262,0.379999995232,17.02251340505186,-3.94723415375,-8.41767692566,18.5273532867,0
7.6000000000000005,16.493946285424855,0.05796913172098195,398.75259223399854,0.379999995232,16.519524917817023,-3.94723415375,-8.41767692566,18.5273532867,0
7.7,16.473045834353584,-0.12342039009553318,398.7500825105709,0.379999995232,16.016536430582185,-3.94723415375,-8.41767692566,18.5273532867,0
7.800000000000001,16.467429295257656,-0.22187188780784878,398.7360193427312,0.379999995232,15.533959130944794,-3.94723415375,-8.41767692566,18.5273532867,0
7.9,16.462332316817186,-0.3175039938463772,398.72156342759223,0.379999995232,15.052075688352906,-4.8388229081925065,-7.598691997126723,16.49922384084744,0
8.0,16.45723533837672,-0.4131360998849055,398.7071075124532,0.379999995232,14.570192245761016,-4.9749712944,-7.4611749649,16.1900653839,0
8.1,16.45213835993625,-0.508768205923434,398.6926515973142,0.379999995232,14.088308803169127,-4.9749712944,-7.4611749649,16.1900653839,0
8.200000000000001,16.440712127383996,-0.5553952387840166,398.67474714474275,0.379999995232,13.56417999187512,-4.9749712944,-7.4611749649,16.1900653839,0
8.3,16.42786576050504,-0.5910266969096336,398.6560689222613,0.379999995232,13.030572323012981,-4.980189350819417,-2.8147090823245913,15.414521330547604,0
8.4,16.41501939362608,-0.6266581550352506,398.6373906997798,0.379999995232,12.496964654150842,-4.98434257507,1.02492833138,14.7960557938,0
8.5,16.40301287014218,-0.6460228190201588,398.6167815178201,0.38029213914730026,12.029214375859432,-4.98434257507,1.02492833138,14.7960557938,0
8.6,16.402396579848844,-0.44477185440647815,398.5699840263865,0.3845464352210223,12.454643755031315,-4.98434257507,1.02492833138,14.7960557938,0
8.700000000000001,16.401780289555507,-0.24352088979279396,398.52318653495297,0.38880073129474435,12.880073134203204,-5.28671789169,7.33302354813,12.2047920227,0
8.8,16.40116399926217,-0.04226992517911332,398.4763890435195,0.39305502736846637,13.305502513375087,-5.28671789169,7.33302354813,12.2047920227,0
8.9,16.400547708968837,0.15898103943456732,398.4295915520859,0.3973093234421884,13.73093189254697,-5.28671789169,7.33302354813,12.2047920227,0
9.0,16.40587128215206,0.16215399845561293,398.36416047090626,0.40398132130795283,14.298598713384152,-5.28671789169,7.33302354813,12.2047920227,0
9.1,16.421416234367307,-0.17552774079358358,398.2666645141156,0.41481372563766783,15.11102920758578,-5.28671789169,7.33302354813,12.2047920227,0
9.200000000000001,16.436961186582558,-0.513209480042786,398.16916855732484,0.4256461299673831,15.923459701787424,-6.29909706116,20.2196960449,14.964261055,0
9.3,16.452506138797805,-0.8508912192919826,398.07167260053416,0.4364785342970981,16.735890195989054,-6.29909706116,20.2196960449,14.964261055,0
9.4,16.503377372084497,-1.2159236723724849,397.9366791218206,0.44449143730392343,17.89828790189271,-6.29909706116,20.2196960449,14.964261055,0
9.5,16.571264226589083,-1.594130152621347,397.78362419960666,0.45114627019754905,19.229254427734098,-6.30070063139398,20.439907234602366,14.98973474901874,0
9.600000000000001,16.639151081093665,-1.9723366328702152,397.6305692773928,0.4578011030911747,20.560220953575506,-6.42826843262,29.5279636383,18.037569046,0
9.700000000000001,16.707037935598247,-2.3505431131190773,397.47751435517887,0.46445593598480034,21.89118747941689,-6.42826843262,29.5279636383,18.037569046,0
9.8,16.78100746613278,-2.6519631524817657,397.3201336117203,0.47226877011317636,23.37812872365495,-6.42826843262,29.5279636383,18.037569046,0
9.9,16.885336779435207,-2.570127589648045,397.14116187892813,0.4858614067098859,25.643569191670657,-6.42826843262,29.5279636383,18.037569046,0
10.0,16.989666092737632,-2.488292026814324,396.96219014613604,0.4994540433065955,27.90900965968637,-6.33091163635,31.4810752869,23.9581985474,0
10.100000000000001,17.093995406040058,-2.406456463980602,396.7832184133439,0.5130466799033053,30.174450127702116,-6.33091163635,31.4810752869,23.9581985474,0
10.200000000000001,17.198324719342484,-2.324620901146881,396.6042466805518,0.5266393165000149,32.43989059571783,-6.33091163635,31.4810752869,23.9581985474,0
10.3,17.328540529714363,-2.46559089808719,396.4136509045578,0.5368868270140967,34.721712982454285,-6.33091163635,31.4810752869,23.9581985474,0
10.4,17.467258660111295,-2.679740520972135,396.2192372564499,0.5460356437805332,37.00891594715055,-6.329980588169207,32.07607083979355,25.118717154896473,0
10.5,17.605976790508226,-2.89389014385708,396.02482360834205,0.5551844605469696,39.296118911846804,-6.32358980179,36.4719772339,33.1243972778,0
10.600000000000001,17.74469492090516,-3.1080397667420283,395.8304099602342,0.5643332773134061,41.5833218765431,-6.32358980179,36.4719772339,33.1243972778,0
10.700000000000001,17.886533272960683,-3.079328401912437,395.6438697854857,0.5741981637989713,43.839633739972726,-6.32358980179,36.4719772339,33.1243972778,0
10.8,18.033449423551822,-2.655388972313909,395.47014277463046,0.58522837062682,46.04567392211222,-6.32358980179,36.4719772339,33.1243972778,0
10.9,18.180365574142964,-2.231449542715381,395.2964157637752,0.5962585774546687,48.25171410425172,-5.69183492661,40.1997718811,43.0573196411,0
11.0,18.327281724734107,-1.8075101131168532,395.12268875291994,0.6072887842825174,50.457754286391214,-5.69183492661,40.1997718811,43.0573196411,0
11.100000000000001,18.489857997152395,-1.7386898809566333,394.97274694591187,0.6134593810283367,53.42155901565554,-5.69183492661,40.1997718811,43.0573196411,0
11.200000000000001,18.65753804536509,-1.7856062173890266,394.8305569526509,0.6180461867551141,56.6323260863477,-5.344021691356492,40.64664406311682,47.95237621034235,0
11.3,18.825218093577785,-1.8325225538214198,394.68836695938995,0.6226329924818915,59.84309315703987,-5.07066106796,41.0177497864,51.8261756897,0
11.4,18.99289814179048,-1.8794388902538128,394.546176966129,0.6272197982086689,63.05386022773203,-5.07066106796,41.0177497864,51.8261756897,0
11.5,19.154127955062638,-2.039916782372165,394.43905838126636,0.6290484980686329,66.14179768485877,-5.07066106796,41.0177497864,51.8261756897,0
11.600000000000001,19.3054314771865,-2.3751549856086345,394.3859113205346,0.6266327382919755,69.04071218125254,-5.07066106796,41.0177497864,51.8261756897,0
11.700000000000001,19.45673499931036,-2.7103931888450976,394.33276425980284,0.6242169785153181,71.93962667764626,-5.51592159271,41.9083938599,65.0313873291,0
11.8,19.608038521434217,-3.045631392081561,394.279617199071,0.6218012187386608,74.83854117403997,-5.51592159271,41.9083938599,65.0313873291,0
11.9,19.733447523113703,-2.9220402330306747,394.25198890090877,0.6180001474962021,77.59995775371905,-5.51592159271,41.9083938599,65.0313873291,0
12.0,19.78296051910436,-1.453634986181976,394.2991552742024,0.6101387729507685,79.95837236656918,-5.51592159271,41.9083938599,65.0313873291,0
12.100000000000001,19.83247351509502,0.014770260666749024,394.3463216474961,0.6022773984053347,82.31678697941935,-2.72688627243,38.0729980469,77.5649032593,0
12.200000000000001,19.82942066136895,0.8409368815450355,394.4245172402357,0.5930858556654454,84.15236017217899,-2.72688627243,38.0729980469,77.5649032593,0
12.3,19.80492938904891,1.4051733600406537,394.515367767666,0.5833518180794384,85.77469809370136,-2.024188881491464,37.15790069443543,79.24830251126318,0
12.4,19.78043811672887,1.969409838536272,394.60621829509637,0.5736177804934313,87.39703601522373,-0.44679787755,35.5108146667,83.018951416,0
12.5,19.713921182784873,2.036769615266658,394.7444507859067,0.5640305706054691,89.19388380787706,-0.44679787755,35.5108146667,83.018951416,0
12.600000000000001,19.62254589266539,1.8102247263596332,394.91070990798187,0.5545302099204313,91.09395492563895,-0.44679787755,35.5108146667,83.018951416,0
12.700000000000001,19.531170602545906,1.583679837452612,395.07696903005706,0.5450298492353939,92.99402604340081,1.56609201431,29.8599510193,88.9389953613,0
12.8,19.43979531242642,1.3571349485455908,395.24322815213225,0.5355294885503563,94.89409716116268,1.56609201431,29.8599510193,88.9389953613,0
12.9,19.3374862419195,1.461008916904294,395.4183511864832,0.5259295354573552,96.10176099536304,1.56609201431,29.8599510193,88.9389953613,0
13.0,19.219951558541126,2.0250009256742736,395.6058174810842,0.5161908969879466,96.34522718928588,1.56609201431,29.8599510193,88.9389953613,0
13.100000000000001,19.10241687516275,2.588992934444263,395.7932837756852,0.5064522585185378,96.58869338320872,4.08286094666,16.7109127045,96.8603363037,0
13.200000000000001,18.984882191784376,3.1529849432142427,395.9807500702862,0.4967136200491292,96.83215957713155,4.08286094666,16.7109127045,96.8603363037,0
13.3,18.858499177619468,3.555633619546399,396.1710632651426,0.48802973769991215,96.9014864609932,4.08286094666,16.7109127045,96.8603363037,0
13.4,18.71247857748108,3.600204186183756,396.3676947419296,0.4816867334768659,96.58433641997603,4.08286094666,16.7109127045,96.8603363037,0
13.5,18.566457977342687,3.644774752821114,396.5643262187166,0.4753437292538196,96.26718637895885,4.81795215607,8.49791812897,97.7120132446,0
13.600000000000001,18.420988427964243,3.616199172982088,396.7661322309572,0.46879497271655346,96.0,4.81795215607,8.49791812897,97.7120132446,0
13.700000000000001,18.278465685347136,3.1964662358420104,396.9956096614583,0.46114593222222616,96.0,4.81795215607,8.49791812897,97.7120132446,0
13.8,18.13594294273003,2.776733298701932,397.2250870919593,0.4534968917278989,96.0,5.40307283401,0.462765365839,96.8795089722,0
13.9,17.993420200112922,2.3570003615618544,397.45456452246043,0.4458478512335716,96.0,5.40307283401,0.462765365839,96.8795089722,0
14.0,17.85586087116606,2.111326618441677,397.68164104562095,0.43760940423869643,95.85656443155969,5.40307283401,0.462765365839,96.8795089722,0
14.100000000000001,17.73441609255354,2.430765080255122,397.90092262264994,0.4274573507319537,95.24744136638225,5.40307283401,0.462765365839,96.8795089722,0
14.200000000000001,17.612971313941024,2.7502035420685615,398.120204199679,0.41730529722521115,94.63831830120482,4.30318880081,-6.77824401855,96.4209365845,0
14.3,17.491526535328507,3.0696420038820014,398.33948577670805,0.4071532437184686,94.02919523602739,4.30318880081,-6.77824401855,96.4209365845,0
14.4,17.370081756715994,3.3890804656954407,398.5587673537371,0.3970011902117261,93.42007217084996,4.30318880081,-6.77824401855,96.4209365845,0
14.5,17.2579718487732,3.475340870986006,398.7565977083083,0.38801674791689167,92.70251404958627,4.30318880081,-6.77824401855,96.4209365845,0
14.600000000000001,17.166604076966728,3.0434782980881296,398.9067633236181,0.3816267444277546,91.74401261214082,4.30318880081,-6.77824401855,96.4209365845,0
14.700000000000001,17.075236305160256,2.6116157251902608,399.056928938928,0.3752367409386177,90.78551117469539,2.67184400558,-8.37949466705,93.4945068359,0
14.8,16.98721256360375,2.197439841605423,399.19208145928707,0.3693637617968895,89.8727512844208,2.67184400558,-8.37949466705,93.4945068359,0
14.9,16.914373336413014,1.863575369067025,399.2590627793535,0.3658384778145473,89.16769381553905,2.67184400558,-8.37949466705,93.4945068359,0
15.0,16.841534109222277,1.5297108965286272,399.32604409941985,0.36231319383220506,88.46263634665729,1.1233948385693162,-8.260881979529698,91.34338745101478,0
15.100000000000001,16.78401158752367,1.2928313479976687,399.35715046758406,0.36085635829689094,87.9143655191413,0.520669460297,-8.21574211121,90.5058670044,0
15.200000000000001,16.755719458815094,1.2410377792358036,399.31979309573967,0.3633469487284279,87.66530623845978,0.520669460297,-8.21574211121,90.5058670044,0
15.3,16.727427330106515,1.1892442104739385,399.28243572389533,0.3658375391599648,87.41624695777824,-1.57498157024,-9.29331207275,88.7636184692,0
15.4,16.69913520139794,1.1374506417120733,399.24507835205094,0.36832812959150174,87.1671876770967,-1.57498157024,-9.29331207275,88.7636184692,0
15.5,16.688578974666505,0.9815199271717485,399.17709770525954,0.37225805561560205,86.84946328280786,-1.57498157024,-9.29331207275,88.7636184692,0
15.600000000000001,16.714240729786386,0.6129337040075316,399.0465821381867,0.37912720798616084,86.3915198096329,-1.57498157024,-9.29331207275,88.7636184692,0
15.700000000000001,16.739902484906263,0.24434748084332114,398.91606657111384,0.3859963603567195,85.93357633645793,-4.6128578186,-7.77450561523,87.6610412598,0
15.8,16.765564240026144,-0.12423874232088927,398.785551004041,0.3928655127272782,85.47563286328297,-4.6128578186,-7.77450561523,87.6610412598,0
15.9,16.79122599514602,-0.4928249654850996,398.6550354369682,0.3997346650978369,85.01768939010802,-4.6128578186,-7.77450561523,87.6610412598,0
16.0,16.844586454985517,-0.8899210929085357,398.4899430752747,0.40470742925960596,84.52925722111556,-4.6128578186,-7.77450561523,87.6610412598,0
16.1,16.89905984758843,-1.2881627470579784,398.3234614194617,0.40960399662477115,84.03960001763744,-6.356574649126685,-3.2091572350443256,85.65128546737662,0
16.2,16.953533240191337,-1.686404401207407,398.1569797636486,0.4145005639899362,83.54994281415935,-6.88561153412,-1.73672950268,85.024055481,0
16.3,17.00800663279425,-2.08464605535685,397.9904981078356,0.41939713135510137,83.06028561068123,-6.88561153412,-1.73672950268,85.024055481,0
16.400000000000002,17.078315483830423,-2.2746091810124756,397.80202902800977,0.4274652191845275,83.0,-6.88561153412,-1.73672950268,85.024055481,0
16.5,17.150847701055884,-2.4353291091844187,397.6104728196777,0.4359786020711569,83.0,-6.991423056368245,-1.7510239377546835,84.59920465265182,0
16.6,17.223379918281346,-2.596049037356367,397.4189166113456,0.4444919849577865,83.0,-7.2741317749,-1.79047942162,83.4554977417,0
16.7,17.295912135506807,-2.7567689655283103,397.22736040301356,0.4530053678444159,83.0,-7.2741317749,-1.79047942162,83.4554977417,0
16.8,17.36342413798806,-2.8608574144280103,397.0469612541896,0.4607802006742759,82.8829710389981,-7.2741317749,-1.79047942162,83.4554977417,0
16.900000000000002,17.407815302008387,-2.7041268843058335,396.9179464751051,0.4651536059899934,82.22695961600238,-7.2741317749,-1.79047942162,83.4554977417,0
17.0,17.452206466028713,-2.5473963541836624,396.78893169602054,0.4695270113057107,81.57094819300669,-4.92267131805,0.800799489021,83.4299240112,0
17.1,17.496597630049042,-2.390665824061485,396.659916916936,0.4739004166214282,80.91493677001097,-4.92267131805,0.800799489021,83.4299240112,0
17.2,17.540988794069367,-2.233935293939314,396.53090213785146,0.4782738219371455,80.25892534701528,-4.92267131805,0.800799489021,83.4299240112,0
17.3,17.57507870545927,-2.1783583653048044,396.44443585664646,0.479999989271,80.0,-4.92267131805,0.800799489021,83.4299240112,0
17.400000000000002,17.602451545731938,-2.1887400107713186,396.3857138990148,0.479999989271,80.0,-4.92267131805,0.800799489021,83.4299240112,0
17.5,17.629824386004604,-2.1991216562378324,396.3269919413831,0.479999989271,80.0,-2.83673977852,3.58276844025,80.8070220947,0
17.6,17.638670901309414,-2.020776724826827,396.29123348332047,0.479999989271,80.50019393282552,-2.83673977852,3.58276844025,80.8070220947,0
17.7,17.63174433391158,-1.6817523326787072,396.2750258632397,0.479999989271,81.42624676014339,-2.83673977852,3.58276844025,80.8070220947,0
17.8,17.62481776651375,-1.3427279405305754,396.2588182431589,0.479999989271,82.35229958746129,-2.09054517746,6.38824796677,80.9265518188,0
17.900000000000002,17.617891199115917,-1.0037035483824437,396.2426106230781,0.479999989271,83.27835241477918,-2.09054517746,6.38824796677,80.9265518188,0
18.0,17.613062341115633,-0.6863796989951548,396.2104798364469,0.4813605217462953,84.13605324212368,-2.09054517746,6.38824796677,80.9265518188,0
18.1,17.61563939357881,-0.4456690720510482,396.1221327093136,0.4875243800332899,84.75243904633207,-2.09054517746,6.38824796677,80.9265518188,0
18.2,17.618216446041988,-0.20495844510695027,396.03378558218026,0.4936882383202843,85.36882485054045,-1.64736604691,5.2896156311,84.6586990356,0
18.3,17.62079349850517,0.03575218183715634,395.94543845504694,0.499852096607279,85.98521065474885,-1.64736604691,5.2896156311,84.6586990356,0
18.400000000000002,17.623370550968346,0.27646280878126295,395.8570913279136,0.5060159548942735,86.60159645895726,-1.64736604691,5.2896156311,84.6586990356,0
18.5,17.627226183863804,0.17069420665378038,395.7716269220649,0.509999990463,87.0,-1.64736604691,5.2896156311,84.6586990356,0
18.6,17.633418662722462,-0.5683302840732005,395.69143123097746,0.509999990463,87.0,-1.64736604691,5.2896156311,84.6586990356,0
18.7,17.639611141581124,-1.3073547748001553,395.61123553989006,0.509999990463,87.0,-1.81673598289,9.26552295685,87.6835632324,0
18.8,17.639763879226702,-1.818922121581436,395.55698748463806,0.509999990463,87.0,-1.81673598289,9.26552295685,87.6835632324,0
18.900000000000002,17.62039362602715,-1.5952520496977267,395.58661313175116,0.509999990463,87.0,-1.81673598289,9.26552295685,87.6835632324,0
19.0,17.601023372827598,-1.3715819778140257,395.6162387788643,0.509999990463,87.0,-0.298959821463,5.52916479111,87.2166519165,0
19.1,17.581653119628047,-1.1479119059303167,395.6458644259774,0.509999990463,87.0,-0.298959821463,5.52916479111,87.2166519165,0
19.200000000000003,17.55922949241658,-0.9107593038409032,395.6917613550288,0.5089110526355958,87.0,-0.298959821463,5.52916479111,87.2166519165,0
19.3,17.523433689529273,-0.6145602954606033,395.80891795934485,0.5030531386292814,87.0,-0.298959821463,5.52916479111,87.2166519165,0
19.400000000000002,17.487637886641963,-0.3183612870802929,395.92607456366096,0.4971952246229668,87.0,0.5458225131352861,-0.18564524759569956,87.37109270227324,0
19.5,17.451842083754652,-0.022162278699992877,396.04323116797707,0.4913373106166524,87.0,0.579754054546,-0.440629333258,87.3775787354,0
19.6,17.39961091046645,0.5616002922059548,396.17869903193485,0.48637597029088864,87.0,0.579754054546,-0.440629333258,87.3775787354,0
19.700000000000003,17.342517777320552,1.2304307662641791,396.31958378685107,0.48167985704172694,87.0,0.5888036458610291,-0.3242995102396896,87.52331911515773,0
19.8,17.285424644174658,1.8992612403223796,396.4604685417672,0.4769837437925655,87.0,0.612688541412,-0.0162479002029,87.9061737061,0
19.900000000000002,17.22833151102876,2.5680917143806044,396.6013532966834,0.4722876305434038,87.0,0.612688541412,-0.0162479002029,87.9061737061,0
20.0,17.174876143308143,2.582184301885093,396.7346121278163,0.46676848687887246,87.0,0.612688541412,-0.0162479002029,87.9061737061,0
20.1,17.12487600976112,1.9743916230523357,396.86062767924847,0.4604676097915815,87.0,0.612688541412,-0.0162479002029,87.9061737061,0
20.200000000000003,17.0748758762141,1.366598944219578,396.9866432306806,0.45416673270429053,87.0,0.969512403011,4.56769132614,87.6970291138,0
20.3,17.028834211465135,1.0802152019071898,397.09676493743865,0.44913593391860146,87.0,0.969512403011,4.56769132614,87.6970291138,0
20.400000000000002,16.990521180661037,1.421359967132409,397.175855022191,0.4465848743389486,87.0,0.969512403011,4.56769132614,87.6970291138,0
20.5,16.952208149856943,1.7625047323576164,397.2549451069433,0.4440338147592959,87.0,-0.161189898849,3.33807086945,87.59815979,0
20.6,16.913895119052846,2.1036494975828357,397.33403519169565,0.4414827551796431,87.0,-0.161189898849,3.33807086945,87.59815979,0
20.700000000000003,16.87697692956581,2.009667932194745,397.40220819244524,0.439999997616,87.0,-0.161189898849,3.33807086945,87.59815979,0
20.8,16.84199472024352,1.3117496071747943,397.45522874694325,0.439999997616,87.0,-0.161189898849,3.33807086945,87.59815979,0
20.900000000000002,16.80701251092123,0.6138312821548191,397.50824930144125,0.439999997616,87.0,-0.22358122468,4.81089925766,87.4213256836,0
21.0,16.779289068420415,0.5239539099260421,397.5603361440832,0.4377584013063637,86.77584015525512,-0.22358122468,4.81089925766,87.4213256836,0
21.1,16.753629920929377,0.6069951525887504,397.6121574517145,0.43487932535456036,86.48793228549705,-0.009821794426074337,4.53432735538201,87.37335023193184,0
21.200000000000003,16.727970773438344,0.6900363952514587,397.66397875934587,0.432000249402757,86.20002441573898,0.329768270254,4.08758115768,87.2965774536,0
21.3,16.709933128477942,0.7375360011631739,397.69775683079513,0.4307416560324659,86.07416495867771,0.329768270254,4.08758115768,87.2965774536,0
21.400000000000002,16.709242168485254,0.7041421646758157,397.6904681529269,0.43317131189179436,86.31713077632706,0.329768270254,4.08758115768,87.2965774536,0
21.5,16.708551208492565,0.6707483281884586,397.68317947505864,0.4356009677511227,86.5600965939764,-0.616869091988,3.17434310913,86.7064437866,0
21.6,16.707860248499873,0.6373544917011004,397.67589079719045,0.4380306236104512,86.80306241162575,-0.616869091988,3.17434310913,86.7064437866,0
21.700000000000003,16.709735146515264,0.5518424702672431,397.65384551302867,0.44055650121553247,87.0,-0.616869091988,3.17434310913,86.7064437866,0
21.8,16.7225883918662,0.2433362164795182,397.5686622263453,0.4434940757043775,87.0,-0.616869091988,3.17434310913,86.7064437866,0
21.900000000000002,16.735441637217136,-0.06517003730821758,397.48347893966195,0.44643165019322256,87.0,-2.02482008934,0.570410788059,87.2164459229,0
22.0,16.748294882568068,-0.37367629109594247,397.39829565297856,0.4493692246820675,87.0,-2.02482008934,0.570410788059,87.2164459229,0
22.1,16.76987823326726,-0.6515637813142192,397.28810920982505,0.4540841316219057,86.59158586480319,-2.02482008934,0.570410788059,87.2164459229,0
22.200000000000003,16.793848702237366,-0.9210790231994381,397.17108602309753,0.45928502385035164,86.07149692096031,-2.2608113609896683,0.9679969226060645,87.20349760045289,0
22.3,16.81781917120747,-1.1905942650846475,397.05406283637,0.46448591607879736,85.55140797711745,-3.02232599258,2.36700248718,87.1610488892,0
22.400000000000002,16.841789640177574,-1.4601095069698664,396.9370396496425,0.4696868083072433,85.03131903327457,-3.02232599258,2.36700248718,87.1610488892,0
22.5,16.864741963470124,-1.506979451315399,396.846042316385,0.47233184822854546,84.06725934222705,-3.02232599258,2.36700248718,87.1610488892,0
22.6,16.887629046784387,-1.5395828965755767,396.75671264832795,0.4748131161546378,83.07475122523512,-2.17105221748,7.8139591217,85.9418792725,0
22.700000000000003,16.91051613009865,-1.5721863418357547,396.6673829802709,0.47729438408073016,82.08224310824319,-2.17105221748,7.8139591217,85.9418792725,0
22.8,16.933403213412912,-1.6047897870959316,396.57805331221374,0.47977565200682243,81.08973499125129,-2.17105221748,7.8139591217,85.9418792725,0
22.900000000000002,16.941137521213868,-1.606350307664691,396.5154833987993,0.4821797300164813,81.21797363280277,-2.17105221748,7.8139591217,85.9418792725,0
23.0,16.94736565416386,-1.6048251841262298,396.45557338550844,0.4845761354046603,81.45761368596614,-0.4022204199912198,9.307683282620802,81.501223160441,0
23.1,16.953593787113853,-1.6033000605877683,396.3956633722176,0.48697254079283947,81.69725373912952,-0.275041162968,9.42806243896,81.1795425415,0
23.200000000000003,16.959821920063845,-1.601774937049307,396.33575335892675,0.4893689461810186,81.9368937922929,-0.275041162968,9.42806243896,81.1795425415,0
23.3,16.968140013831057,-1.1492037964288635,396.27556387316474,0.49233787560391706,82.46757365930841,-0.275041162968,9.42806243896,81.1795425415,0
23.400000000000002,16.977205213633884,-0.5353955651764739,396.2152744833431,0.49551146731442924,83.10229260674231,-0.5532503383486694,8.219690062589533,81.45841437681933,0
23.5,16.986270413436714,0.07841266607589392,396.1549850935215,0.4986850590249413,83.73701155417618,-1.53959190845,3.46101212502,82.4476776123,0
23.6,16.981033139023637,0.1432238720214611,396.1145567588516,0.5,84.0,-1.53959190845,3.46101212502,82.4476776123,0
23.700000000000003,16.96567728287141,-0.18036424310560079,396.0881795391809,0.5,84.0,-0.8652606248665633,2.971244066053971,83.68100530583848,0
23.8,16.950321426719185,-0.5039523582326513,396.0618023195101,0.5,84.0,-0.27043685317,2.52488040924,84.7744140625,0
23.900000000000002,16.93496557056696,-0.8275404733597129,396.03542509983936,0.5,84.0,-0.27043685317,2.52488040924,84.7744140625,0
24.0,16.886657747976074,-0.7219821169886121,396.0662546059476,0.4979857073534243,83.39571162971747,-0.27043685317,2.52488040924,84.7744140625,0
24.1,16.829815306244374,-0.5052740452681264,396.1119007579069,0.4954497092538929,82.63491147428294,0.9794792295918192,2.2281433754744175,84.42657458741618,0
24.200000000000003,16.772972864512678,-0.28856597354764046,396.1575469098662,0.49291371115436156,81.87411131884842,1.80869936943,2.04671835899,84.1955947876,0
24.3,16.71613042278098,-0.07185790182716223,396.2031930618255,0.49037771305483024,81.11331116341393,1.80869936943,2.04671835899,84.1955947876,0
24.400000000000002,16.67050331129249,0.26360508529028204,396.24822492351996,0.48808844890890785,81.0,1.80869936943,2.04671835899,84.1955947876,0
24.5,16.626838892812827,0.6198502907783444,396.29314928385855,0.4858423634296219,81.0,2.726720404923702,-0.13453584918621697,81.87724852761166,0
24.6,16.583174474333163,0.9760954962664194,396.3380736441971,0.48359627795033583,81.0,2.8987801075,-0.419743150473,81.4419784546,0
24.700000000000003,16.539510055853498,1.3323407017544946,396.38299800453564,0.48135019247104976,81.0,2.8987801075,-0.419743150473,81.4419784546,0
24.8,16.505523884912854,1.5149873050011142,396.4146155593527,0.479999989271,81.11536080439078,2.8987801075,-0.419743150473,81.4419784546,0
24.900000000000002,16.48612400627972,1.435999769808937,396.42617814510294,0.479999989271,81.40458432585808,2.8987801075,-0.419743150473,81.4419784546,0
25.0,16.466724127646586,1.3570122346167626,396.4377407308532,0.479999989271,81.69380784732537,1.79761576653,0.553868174553,81.5668640137,0
25.1,16.447324249013455,1.2780246994245854,396.44930331660345,0.479999989271,81.9830313687927,1.79761576653,0.553868174553,81.5668640137,0
25.200000000000003,16.46243095753264,0.7964735759493585,396.41048364853395,0.4843888413900975,82.0,1.79761576653,0.553868174553,81.5668640137,0
25.3,16.479688332844443,0.2898321664537846,396.3685238426192,0.4890512342818189,82.0,-0.0731758698821,2.74807071686,82.0436859131,0
25.400000000000002,16.49694570815625,-0.21680924304180715,396.3265640367044,0.49371362717354045,82.0,-0.0731758698821,2.74807071686,82.0436859131,0
25.5,16.514203083468054,-0.7234506525373812,396.2846042307896,0.4983760200652618,82.0,-0.0731758698821,2.74807071686,82.0436859131,0
25.6,16.54506571722777,-0.8986473578582446,396.2445193189197,0.5,82.0,-0.0731758698821,2.74807071686,82.0436859131,0
25.700000000000003,16.583200129721703,-0.8966925183840274,396.20543650595846,0.5,82.0,-0.0731758698821,2.74807071686,82.0436859131,0
25.8,16.62133454221563,-0.8947376789098103,396.1663536929973,0.5,82.0,-1.9110250473,4.3572769165,82.3446655273,0
25.900000000000002,16.646326903453193,-0.8103945213742779,396.1448786983145,0.5,81.93008492490719,-1.9110250473,4.3572769165,82.3446655273,0
26.0,16.644060294002717,-0.5551632198755319,396.1599254758399,0.5,81.71515344823219,-1.9110250473,4.3572769165,82.3446655273,0
26.1,16.641793684552244,-0.2999319183767768,396.1749722533653,0.5,81.5002219715572,-0.668022334576,5.70629405975,82.8701095581,0
26.200000000000003,16.639527075101768,-0.04470061687802174,396.19001903089065,0.5,81.28529049488219,-0.668022334576,5.70629405975,82.8701095581,0
26.3,16.63726046565129,0.21053068462072422,396.20506580841607,0.5,81.0703590182072,-0.668022334576,5.70629405975,82.8701095581,0
26.400000000000002,16.62029578532612,0.24715272783657385,396.26572661954793,0.49662197197241925,81.16890131077193,-0.668022334576,5.70629405975,82.8701095581,0
26.5,16.596178000964102,0.177384294285273,396.34858639343554,0.49159996045022364,81.42000175217888,-0.40954227950782573,5.730096884028812,82.79732021194083,0
26.6,16.57206021660208,0.10761586073396964,396.4314461673231,0.48657794892802786,81.67110219358584,2.48403573036,6.04673147202,81.8852996826,0
26.700000000000003,16.547942432240056,0.037847427182666316,396.51430594121064,0.4815559374058321,81.9222026349928,2.48403573036,6.04673147202,81.8852996826,0
26.8,16.5321574881513,0.13647509399167762,396.57557088670313,0.479999989271,82.15474417186473,2.48403573036,6.04673147202,81.8852996826,0
26.900000000000002,16.520113233666866,0.310697338564007,396.62714171261143,0.479999989271,82.37895444364759,2.0361007626065875,5.626541918552762,81.96461326652977,0
27.0,16.508068979182433,0.48491958313633016,396.67871253851973,0.479999989271,82.60316471543044,1.09098339081,4.68268251419,82.131362915,0
27.1,16.496024724697996,0.6591418277086594,396.73028336442803,0.479999989271,82.82737498721329,1.09098339081,4.68268251419,82.131362915,0
27.200000000000003,16.483475879990937,0.7440691257912528,396.7778203396135,0.4794406679245064,82.88813562401623,1.09098339081,4.68268251419,82.131362915,0
27.3,16.469238473564342,0.5301796382349022,396.8118584287577,0.4770096325172661,82.40192807887203,1.09098339081,4.68268251419,82.131362915,0
27.400000000000002,16.45500106713775,0.3162901506785438,396.84589651790185,0.4745785971100257,81.91572053372781,1.25618517399,4.21037960052,83.3130493164,0
27.5,16.440763660711156,0.10240066312219309,396.87993460704604,0.4721475617027854,81.42951298858362,1.25618517399,4.21037960052,83.3130493164,0
27.6,16.427515811939315,-0.08803319523232656,396.91362328052634,0.469999998808,81.0,1.25618517399,4.21037960052,83.3130493164,0
27.700000000000003,16.421764765179024,-0.10076926373248264,396.94466481157997,0.469999998808,81.0,1.25618517399,4.21037960052,83.3130493164,0
27.8,16.416013718418736,-0.11350533223263827,396.97570634263354,0.469999998808,81.0,1.0933722143344946,3.9631072549465345,82.22592974840423,0
27.900000000000002,16.410262671658444,-0.12624140073279436,397.0067478736872,0.469999998808,81.0,1.0372518301,3.8753824234,81.8398208618,0
28.0,16.404511624898156,-0.13897746923294999,397.03778940474075,0.469999998808,81.0,1.0372518301,3.8753824234,81.8398208618,0
28.1,16.41413150624502,0.09769464305459055,397.04826079015015,0.469999998808,81.27610333320753,1.0372518301,3.8753824234,81.8398208618,0
28.200000000000003,16.424917341279283,0.3532854820467869,397.0571718379536,0.469999998808,81.57315033990125,-0.419035732746,3.02312254906,81.8507461548,0
28.3,16.43570317631354,0.6088763210389742,397.06608288575706,0.469999998808,81.87019734659495,-0.419035732746,3.02312254906,81.8507461548,0
28.400000000000002,16.45008531994153,0.6542773832837611,397.0502759168454,0.4714073634303382,81.85926340354568,-0.419035732746,3.02312254906,81.8507461548,0
28.5,16.467258651365988,0.5365447420345913,397.01528465804034,0.4739070200116916,81.60929750701787,-0.419035732746,3.02312254906,81.8507461548,0
28.6,16.48443198279045,0.4188121007854175,396.9802933992353,0.4764066765930451,81.35933161049005,-0.749631881714,4.76911115646,82.6586227417,0
28.700000000000003,16.50160531421491,0.3010794595362436,396.94530214043016,0.47890633317439857,81.10936571396222,-0.749631881714,4.76911115646,82.6586227417,0
28.8,16.51690965516118,0.22955406890421615,396.912893141379,0.48122125928788717,81.12212675418664,-0.749631881714,4.76911115646,82.6586227417,0
28.900000000000002,16.530760203699028,0.19397094279675575,396.88249275054216,0.48339249298832226,81.33924968420881,-0.749631881714,4.76911115646,82.6586227417,0
29.0,16.544610752236878,0.1583878166892966,396.85209235970524,0.4855637266887573,81.556372614231,-0.42424800992,6.99904727936,81.4349517822,0
29.1,16.55846130077473,0.12280469058183621,396.8216919688683,0.4877349603891924,81.77349554425317,-0.42424800992,6.99904727936,81.4349517822,0
29.200000000000003,16.57231184931258,0.08722156447437582,396.79129157803146,0.48990619408962754,81.99061847427535,-0.42424800992,6.99904727936,81.4349517822,0
29.3,16.613190423675725,-0.1076863288543803,396.74118022133194,0.4918074074969165,82.7229598734534,-0.42424800992,6.99904727936,81.4349517822,0
29.400000000000002,16.65528957378507,-0.30978927031191994,396.690178724634,0.4936964268866725,83.47856834997962,-0.9338862973675566,8.039073143297916,82.19665347650766,0
29.5,16.69738872389441,-0.5118922117694523,396.63917722793605,0.4955854462764285,84.23417682650582,-1.25825357437,8.66695404053,82.6812286377,0
29.6,16.739487874003753,-0.7139951532269919,396.5881757312381,0.4974744656661845,84.98978530303204,-1.25825357437,8.66695404053,82.6812286377,0
29.700000000000003,16.781587024113094,-0.9160980946845316,396.53717423454015,0.4993634850559405,85.74539377955826,-1.25825357437,8.66695404053,82.6812286377,0
29.8,16.838625944841276,-0.9827560026024729,396.47777238823056,0.503377326840764,86.33773300615549,-1.25825357437,8.66695404053,82.6812286377,0
29.900000000000002,16.90325716377837,-0.9805815896110498,396.41410153666385,0.5084709901085211,86.84709981868886,-1.5460577876577501,11.657972423251083,84.41010960546632,0
30.0,16.96788838271546,-0.9784071766196268,396.3504306850972,0.513564653376278,87.3564666312222,-1.82153892517,14.3116569519,86.0650253296,0
30.1,17.032519601652556,-0.9762327636282038,396.28675983353054,0.5186583166440352,87.86583344375558,-1.82153892517,14.3116569519,86.0650253296,0
30.200000000000003,17.099916143279906,-0.8270379481599646,396.229520869352,0.523237439059699,88.48561773577623,-1.82153892517,14.3116569519,86.0650253296,0
30.3,17.168301527041653,-0.6252706177017855,396.17458186144086,0.5276325685995177,89.14488583070927,-1.6454989941424139,15.582088902832364,86.73616747466038,0
30.400000000000002,17.236686910803403,-0.4235032872435993,396.1196428535298,0.5320276981393364,89.80415392564232,-1.27180695534,18.37449646,88.1632614136,0
30.5,17.30507229456515,-0.22173595678542035,396.0647038456187,0.5364228276791551,90.46342202057536,-1.27180695534,18.37449646,88.1632614136,0
30.6,17.377001641752518,-0.11596873159246271,396.0032338713896,0.5409308997027888,91.2792637397705,-1.27180695534,18.37449646,88.1632614136,0
30.700000000000003,17.4644303038292,-0.43005230117873433,395.9132011014042,0.5459329190139083,92.77987096423543,-1.27180695534,18.37449646,88.1632614136,0
30.8,17.55185896590588,-0.7441358707649948,395.82316833141874,0.5509349383250275,94.28047818870029,-1.8681790699161218,25.4598483407906,91.61696690085131,0
30.900000000000002,17.63928762798256,-1.0582194403512664,395.7331355614333,0.5559369576361468,95.78108541316521,-1.89749336243,25.8638515472,91.8188705444,0
31.0,17.728397100590367,-1.277197450184035,395.64347368693,0.5613774382746884,97.32140201433769,-1.89749336243,25.8638515472,91.8188705444,0
31.1,17.824779622615917,-1.0846433907092012,395.55541671739405,0.5687151886191572,99.03354539419445,-1.89749336243,25.8638515472,91.8188705444,0
31.200000000000003,17.92116214464147,-0.8920893312343676,395.4673597478581,0.5760529389636257,100.74568877405119,-0.997808456421,30.695224762,97.809387207,0
31.3,18.017544666667018,-0.6995352717595406,395.37930277832214,0.5833906893080941,102.45783215390789,-0.997808456421,30.695224762,97.809387207,0
31.400000000000002,18.11580351173043,-0.5532129871197473,395.29216808990174,0.5908378036250791,104.251348695647,-0.997808456421,30.695224762,97.809387207,0
31.5,18.231086013044745,-0.8263461090274307,395.2134011485919,0.5992771642859941,106.78315427822875,-0.997808456421,30.695224762,97.809387207,0
31.6,18.346368514359064,-1.0994792309351236,395.1346342072821,0.6077165249469093,109.3149598608106,-0.03386592594426474,35.205009453391554,104.78910009626662,0
31.700000000000003,18.461651015673386,-1.3726123528428165,395.05586726597227,0.6161558856078246,111.84676544339244,-0.0297567863017,35.2627258301,104.81893158,0
31.8,18.57937271048073,-1.5033927019244544,394.99900541089323,0.6223316088712405,114.16580316338842,-0.0297567863017,35.2627258301,104.81893158,0
31.900000000000002,18.699134896618165,-1.5150887718802573,394.9604681121343,0.6266137011056855,116.30685132242148,-0.0297567863017,35.2627258301,104.81893158,0
32.0,18.818897082755598,-1.5267848418360594,394.9219308133754,0.6308957933401302,118.44789948145446,0.608620107174,38.047492981,113.129928589,0
32.1,18.938659268893034,-1.5384809117918623,394.88339351461644,0.6351778855745752,120.58894764048752,0.608620107174,38.047492981,113.129928589,0
32.2,19.05842145503047,-1.550176981747665,394.84485621585753,0.6394599778090202,122.72999579952057,0.608620107174,38.047492981,113.129928589,0
32.300000000000004,19.159689137553773,-1.1285697550267022,394.8349199763513,0.6425356878587614,125.02856366565027,0.608620107174,38.047492981,113.129928589,0
32.4,19.258287939082173,-0.6444339545384582,394.82911106164727,0.6454373088627777,127.3498626826862,2.87867975235,40.7218971252,123.455055237,0
32.5,19.35688674061058,-0.16029815405017955,394.82330214694326,0.6483389298667942,129.6711616997223,2.87867975235,40.7218971252,123.455055237,0
32.6,19.456064528843083,0.025390543400758497,394.81522829311206,0.6518998493974757,132.04492816411246,2.87867975235,40.7218971252,123.455055237,0
32.7,19.556017541419244,-0.18852140270656426,394.80412183777895,0.6563435254128779,134.48894501966132,2.87867975235,40.7218971252,123.455055237,0
32.800000000000004,19.65597055399541,-0.4024333488138871,394.7930153824459,0.6607872014282801,136.93296187521017,2.45576429367,41.7899742126,131.188400269,0
32.9,19.755923566571564,-0.6163452949211947,394.78190892711285,0.665230877443682,139.37697873075885,2.45576429367,41.7899742126,131.188400269,0
33.0,19.855876579147726,-0.8302572410285175,394.77080247177975,0.6696745534590842,141.8209955863077,2.45576429367,41.7899742126,131.188400269,0
33.1,19.954019161935033,-0.33372474582296474,394.76344392582797,0.670000016689,144.3999632615848,2.45576429367,41.7899742126,131.188400269,0
33.2,20.052018666072133,0.21895432426582628,394.75638157794947,0.670000016689,146.98959612876823,1.8548858408131856,43.29155386491981,141.738037536018,0
33.300000000000004,20.150018170209236,0.7716333943546174,394.74931923007097,0.670000016689,149.5792289959517,1.78044986725,43.5004920959,143.03968811,0
33.4,20.24801767434633,1.324312464443369,394.7422568821925,0.670000016689,152.16886186313496,1.78044986725,43.5004920959,143.03968811,0
33.5,20.323239124406804,0.7459099515471809,394.7477834010635,0.670000016689,154.5586967997003,1.78044986725,43.5004920959,143.03968811,0
33.6,20.387694713699968,-0.36708901098083047,394.7592599447341,0.670000016689,156.8540988801755,1.7899911089694842,43.502497152856144,143.32777505979473,0
33.7,20.450655130764595,-1.356254641424737,394.7713340130218,0.6696157706785447,159.1729103542934,2.12249970436,43.6554832458,153.589599609,0
33.800000000000004,20.492154202393177,-0.5679461684632119,394.7919848070995,0.6637161491110679,161.8277346795237,2.12249970436,43.6554832458,153.589599609,0
33.9,20.53365327402176,0.22036230449825744,394.8126356011772,0.6578165275435917,164.4825590047538,2.626014815414936,43.21244944283972,158.58373256593762,0
34.0,20.57515234565034,1.0086707774597827,394.8332863952549,0.6519169059761148,167.1373833299841,2.76491785049,43.0863609314,159.974365234,0
34.1,20.545827253215677,1.3228312553830566,394.8955091862381,0.6445841420626547,169.89554374110352,2.76491785049,43.0863609314,159.974365234,0
34.2,20.48241341867395,1.4087771269326714,394.97774120853563,0.6365615850470647,172.7034413743818,2.8187604038392773,42.857089881998306,160.83860777510284,0
34.300000000000004,20.418999584132226,1.4947229984822863,395.0599732308331,0.6285390280314747,175.51133900766007,3.27685499191,40.5610122681,168.843139648,0
34.4,20.355585749590507,1.5806688700318952,395.14220525313067,0.6205164710158853,178.31923664093813,3.27685499191,40.5610122681,168.843139648,0
34.5,20.292171915048783,1.66661474158151,395.22443727542816,0.6124939140002953,181.12713427421642,3.27685499191,40.5610122681,168.843139648,0
34.6,20.141251977100197,1.96236879311416,395.40608193299454,0.5995944811192815,183.21397882343172,3.27685499191,40.5610122681,168.843139648,0
34.7,19.950859264483203,2.3527643689477378,395.63257023458556,0.5844951580063071,184.97556644995166,4.370060507898011,38.999775240961135,84.04374496919803,0
34.800000000000004,19.760466551866205,2.7431599447813158,395.8590585361766,0.5693958348933327,186.7371540764716,7.73015785217,33.9139900208,-177.96711731,0
34.9,19.570073839249222,3.133555520614866,396.0855468377676,0.5542965117803593,188.4987417029914,7.73015785217,33.9139900208,-177.96711731,0
35.0,19.368506427568946,3.4454232176582114,396.3858403355554,0.5375141131118727,189.55492881391203,7.73015785217,33.9139900208,-177.96711731,0
35.1,19.162494613548038,3.72605879951675,396.71548764277196,0.5200623214784378,190.3305639668017,8.757785215958126,30.002012740530656,-175.1617304199591,0
35.2,18.956482799527134,4.006694381375288,397.04513494998855,0.5026105298450029,191.10619911969133,10.3126163483,23.8413581848,-170.917022705,0
35.300000000000004,18.750470985506226,4.287329963233826,397.37478225720514,0.485158738211568,191.881834272581,10.3126163483,23.8413581848,-170.917022705,0
35.4,18.544459171485336,4.567965545092344,397.7044295644217,0.46770694657813433,192.65746942547057,10.3126163483,23.8413581848,-170.917022705,0
35.5,18.381918798132318,4.687931753599494,398.0153479722866,0.453110629230671,193.2296459613492,10.3126163483,23.8413581848,-170.917022705,0
35.6,18.253758799154397,4.680828945723352,398.31145420550416,0.4407726284575348,193.64091263743924,10.3126163483,23.8413581848,-170.917022705,0
35.7,18.125598800176476,4.673726137847211,398.60756043872175,0.42843462768439855,194.05217931352925,9.4177646637,8.73554992676,-166.285430908,0
35.800000000000004,17.997438801198555,4.66662332997107,398.9036666719394,0.4160966269112623,194.4634459896193,9.4177646637,8.73554992676,-166.285430908,0
35.9,17.86927880222064,4.65952052209493,399.1997729051569,0.40375862613812696,194.87471266570927,9.4177646637,8.73554992676,-166.285430908,0
36.0,17.781221607707838,4.185567750853191,399.43100738325234,0.39537621044688764,195.0,9.4177646637,8.73554992676,-166.285430908,0
36.1,17.710733421632515,3.5070883622138656,399.63382159427925,0.3887267336013459,195.0,8.89825610230229,7.216969435288355,-166.08261380078793,0
36.2,17.64024523555719,2.82860897357454,399.8366358053061,0.3820772567558042,195.0,6.18558597565,-1.84825539589,-164.997772217,0
36.300000000000004,17.60290979495821,2.541009762321414,399.95626818339633,0.37824146568167916,194.64829375454875,6.18558597565,-1.84825539589,-164.997772217,0
36.4,17.580636401472166,2.430996315466098,400.038109160846,0.375683996117316,194.13679935391508,4.735580648306903,-3.0302033910786412,-164.9620075924637,0
36.5,17.558363007986117,2.3209828686107747,400.1199501382956,0.3731265265529527,193.62530495328136,2.42652726173,-5.02260875702,-164.904968262,0
36.6,17.53608961450007,2.2109694217554514,400.20179111574527,0.3705690569885894,193.11381055264764,2.42652726173,-5.02260875702,-164.904968262,0
36.7,17.533178546034858,1.773451871473809,400.2242685431349,0.370000004768,192.35954984847902,2.42652726173,-5.02260875702,-164.904968262,0
36.800000000000004,17.535808655372882,1.2422080529666144,400.2297571024232,0.370000004768,191.53581343563016,1.1310468564319924,-6.251044771631252,-165.68561582920393,0
36.9,17.538438764710904,0.7109642344594578,400.23524566171153,0.370000004768,190.71207702278136,-0.309156030416,-7.74986124039,-167.104736328,0
37.0,17.544502076847618,0.23379043535145028,400.23422414594614,0.37033915930755906,189.86433805480914,-0.309156030416,-7.74986124039,-167.104736328,0
37.1,17.572459694747774,0.10143330067473613,400.19168641860614,0.3728411785613712,188.86352939891313,-0.309156030416,-7.74986124039,-167.104736328,0
37.2,17.60041731264793,-0.030923834001978012,400.1491486912661,0.3753431978151834,187.86272074301715,-1.4453400558845018,-9.24347716987213,-169.2681355158457,0
37.300000000000004,17.62837493054809,-0.16328096867869213,400.106610963926,0.3778452170689956,186.86191208712114,-1.67523944378,-9.55858039856,-169.706710815,0
37.4,17.65915839863348,-0.3279089702161729,400.05947006659414,0.3803502338293944,185.92995221371655,-1.67523944378,-9.55858039856,-169.706710815,0
37.5,17.707477464988376,-0.692791380156505,399.9837645481916,0.38287385138879976,185.4252282204802,-1.67523944378,-9.55858039856,-169.706710815,0
37.6,17.75579653134327,-1.0576737900968372,399.908059029789,0.3853974689482051,184.92050422724387,-3.21450805664,-9.79393100739,-173.125961304,0
37.7,17.804115597698168,-1.4225562000371692,399.83235351138643,0.38792108650761037,184.41578023400754,-3.21450805664,-9.79393100739,-173.125961304,0
37.800000000000004,17.852769336798325,-1.6849789070776442,399.754467696443,0.389999985695,183.88913296295814,-3.21450805664,-9.79393100739,-173.125961304,0
37.9,17.902987551175276,-1.4684391819315419,399.6663897756809,0.389999985695,183.26000221630179,-3.21450805664,-9.79393100739,-173.125961304,0
38.0,17.953205765552234,-1.251899456785424,399.57831185491875,0.389999985695,182.63087146964537,-3.434357201503308,-8.457014276440827,-174.85052257241307,0
38.1,18.003423979929188,-1.0353597316393062,399.4902339341566,0.389999985695,182.00174072298898,-3.52465844154,-7.89370107651,-175.558258057,0
38.2,18.064120146972957,-1.2652790300940864,399.3790283297561,0.3947217591307972,181.29173436457953,-3.52465844154,-7.89370107651,-175.558258057,0
38.300000000000004,18.124845385586873,-1.4964370500087247,399.2677585565147,0.3994566333480196,180.58150361299943,-4.29687070847,-5.30458068848,-177.917190552,0
38.400000000000006,18.18557062420079,-1.727595069923363,399.1564887832733,0.4041915075652421,179.87127286141936,-4.29687070847,-5.30458068848,-177.917190552,0
38.5,18.2462958628147,-1.9587530898379848,399.04521901003193,0.40892638178246415,179.16104210983934,-4.29687070847,-5.30458068848,-177.917190552,0
38.6,18.310086546223012,-1.7474151315278896,398.92708849782076,0.41357317060708754,179.0,-4.29687070847,-5.30458068848,-177.917190552,0
38.7,18.37477612968089,-1.4063212378021253,398.80694616709263,0.41819412958675056,179.0,-4.375840279879068,-4.798509085949882,-95.37024843479739,0
38.800000000000004,18.43946571313877,-1.0652273440763609,398.68680383636456,0.4228150885664136,179.0,-4.63849020004,-2.96744370461,179.562545776,0
38.900000000000006,18.50415529659665,-0.7241334503505967,398.56666150563643,0.42743604754607656,179.0,-4.63849020004,-2.96744370461,179.562545776,0
39.0,18.571335301311194,-0.817909680807295,398.4389619499311,0.4323475340522117,179.0,-4.63849020004,-2.96744370461,179.562545776,0
39.1,18.641619507024025,-1.4537324706544652,398.3018426443519,0.4376211503929241,179.0,-4.63849020004,-2.96744370461,179.562545776,0
39.2,18.71190371273686,-2.089555260501635,398.1647233387726,0.4428947667336365,179.0,-5.1075220108,0.539077162743,179.306625366,0
39.300000000000004,18.78218791844969,-2.725378050348805,398.02760403319337,0.44816838307434886,179.0,-5.1075220108,0.539077162743,179.306625366,0
39.400000000000006,18.842599661758612,-2.7364054609356225,397.8993501533093,0.4517918494122045,179.0,-5.1075220108,0.539077162743,179.306625366,0
39.5,18.8977579501013,-2.414959142703872,397.77581385174966,0.45453721782749,179.0,-4.886538619999953,2.3724273754371,179.26199080573025,0
39.6,18.952916238443997,-2.093512824472098,397.65227755019004,0.4572825862427757,179.0,-4.63580131531,4.56584644318,179.211364746,0
39.7,19.007766571550263,-1.7736046724487162,397.52922100278903,0.4600204758574967,178.99795324679835,-4.63580131531,4.56584644318,179.211364746,0
39.800000000000004,19.032672190156067,-1.6032635435382472,397.45281442139327,0.46203114761317576,178.79688587947248,-4.63580131531,4.56584644318,179.211364746,0
39.900000000000006,19.057577808761867,-1.4329224146277781,397.3764078399975,0.4640418193688548,178.59581851214662,-2.6300981977470386,7.010361260447754,179.06843742224746,0
40.0,19.08248342736767,-1.2625812857173213,397.30000125860175,0.46605249112453373,178.3947511448208,-2.61725926399,7.04394102097,179.067459106,0
40.1,19.10738904597347,-1.0922401568068523,397.223594677206,0.4680631628802128,178.19368377749493,-2.61725926399,7.04394102097,179.067459106,0
40.2,19.131815915039322,-0.9245351910274183,397.1477869620494,0.4700848776142198,178.00848788871687,-2.61725926399,7.04394102097,179.067459106,0
40.300000000000004,19.14368439157596,-0.8259811457356887,397.08768849917766,0.47239626794049566,178.23962714178197,-2.61725926399,7.04394102097,179.067459106,0
40.400000000000006,19.155552868112597,-0.7274271004439592,397.0275900363059,0.4747076582667716,178.47076639484706,-1.5764824533668904,8.660284655052346,178.13885359373546,0
40.5,19.167421344649235,-0.6288730551522367,396.9674915734342,0.47701904859304733,178.70190564791216,-1.5500357151,8.71531772614,178.115447998,0
40.6,19.17928982118587,-0.5303190098605072,396.90739311056245,0.47933043891932325,178.93304490097725,-1.5500357151,8.71531772614,178.115447998,0
40.7,19.18633812363655,-0.5273095286529352,396.8521933369605,0.4822232051593687,179.4446422765617,-1.5500357151,8.71531772614,178.115447998,0
