t_sec,airspeed,climb,altitude,throttle,heading,pitch,roll,yaw,is_boundary
0.0,18.0187587738,-0.829057693481,420.639984131,0.469999998808,288.0,-1.68626523018,9.61367321014,-72.0391235352,0
0.1,18.018227203175375,-0.8534350699542529,420.5860304833045,0.469999998808,289.0791717520837,-1.5683824418113472,18.873959475754035,-71.6999222027134,0
0.2,18.017695632550748,-0.8778124464275058,420.532076835609,0.469999998808,290.15834350416736,-1.50390613079,23.8746452332,-71.524810791,0
0.30000000000000004,18.017164061926124,-0.9021898229007587,420.4781231879135,0.469999998808,291.2375152562511,-1.50390613079,23.8746452332,-71.524810791,0
0.4,18.020452849989333,-0.8861349564696398,420.40563958425184,0.4619147752366045,292.4042611625071,-1.50390613079,23.8746452332,-71.524810791,0
0.5,18.032939884707616,-0.7727317064333814,420.28854155576465,0.43436282438957674,293.781858650122,-2.73645973206,30.8074798584,-67.9273910522,0
0.6000000000000001,18.045426919425903,-0.6593284563971229,420.1714435272775,0.40681087354254897,295.1594561377368,-2.73645973206,30.8074798584,-67.9273910522,0
0.7000000000000001,18.057913954144187,-0.5459252063608646,420.0543454987903,0.3792589226955212,296.5370536253517,-2.73645973206,30.8074798584,-67.9273910522,0
0.8,18.070400988862474,-0.43252195632460627,419.93724747030313,0.3517069718484934,297.9146511129665,-2.73645973206,30.8074798584,-67.9273910522,0
0.9,18.0531519397164,-0.5323428131153537,419.76627107280063,0.3310178503165183,299.1863842302122,-3.8346784755921255,31.84504045195149,-64.1904217606357,0
1.0,18.033938917336837,-0.6462464402013873,419.59173618134537,0.31078199671122303,300.45112534438397,-4.77596521378,32.6370697021,-61.1800041199,0
1.1,18.014725894957273,-0.7601500672874211,419.41720128989016,0.2905461431059277,301.7158664585557,-4.77596521378,32.6370697021,-61.1800041199,0
1.2000000000000002,17.99551287257771,-0.8740536943734548,419.2426663984349,0.2703102895006324,302.9806075727275,-4.77596521378,32.6370697021,-61.1800041199,0
1.3,17.966812811220297,-0.7577878456757711,419.00823685043366,0.24849714566072756,303.95568285395075,-6.253819290535239,31.03893777733623,-58.24884308171336,0
1.4000000000000001,17.93796501877733,-0.6379378242347848,418.77287462969326,0.22665944043774652,304.9262474919639,-7.08789110184,30.1643619537,-56.8058929443,0
1.5,17.909117226334363,-0.518087802793799,418.53751240895286,0.20482173521476554,305.8968121299771,-7.08789110184,30.1643619537,-56.8058929443,0
1.6,17.880269433891396,-0.39823778135281274,418.3021501882124,0.18298402999178448,306.86737676799027,-7.08789110184,30.1643619537,-56.8058929443,0
1.7000000000000002,17.845853270179532,-1.003954269435509,417.9688793744944,0.16427035439130105,307.8988372011672,-10.785209018878636,25.184510111803405,-52.2258605957,0
1.8,17.810555785423716,-1.7245081134975666,417.620112305371,0.1460511273315646,308.9399357750454,-10.8417844772,25.1092643738,-52.2258605957,0
1.9000000000000001,17.775258300667897,-2.445061957559626,417.2713452362475,0.12783190027182811,309.98103434892363,-10.8417844772,25.1092643738,-52.2258605957,0
2.0,17.740148516917728,-3.149838292158447,416.92069184516,0.10978700287253977,311.0141997681998,-10.8417844772,25.1092643738,-52.2258605957,0
2.1,17.713680198153394,-3.1282424098320663,416.4831950983384,0.09976797433617682,311.6821349774158,-13.82168610421912,20.53489858461943,-49.71308371251715,0
2.2,17.687211879389064,-3.1066465275056854,416.0456983515168,0.08974894579981388,312.3500701866318,-14.8353691101,19.018705368,-48.9685325623,0
2.3000000000000003,17.661763167779128,-3.097747243847568,415.60605664945876,0.07994068575047408,313.0059312473799,-14.8353691101,19.018705368,-48.9685325623,0
2.4000000000000004,17.67311859494881,-3.5471493534290537,415.0889898039435,0.07774040747464366,313.22595912086297,-16.97663997284235,15.106158183856634,-47.20884578372095,0
2.5,17.684474022118494,-3.9965514630105368,414.5719229584282,0.07554012919881324,313.445986994346,-17.4035148621,14.3551845551,-46.9417266846,0
2.6,17.695829449288176,-4.445953572592023,414.0548561129129,0.07333985092298281,313.66601486782906,-17.4035148621,14.3551845551,-46.9417266846,0
2.7,17.70718487645786,-4.895355682173507,413.5377892673976,0.07113957264715239,313.8860427413121,-17.4035148621,14.3551845551,-46.9417266846,0
2.8000000000000003,17.747202702139607,-5.2704417565861625,412.9753528875862,0.07119771203944066,314.23954239825906,-17.4035148621,14.3551845551,-46.9417266846,0
2.9000000000000004,17.818014055021706,-5.565686192852923,412.3641736229871,0.07368218870645826,314.73643783532,-20.219789505,9.95656871796,-45.0629386902,0
3.0,17.88882540790381,-5.860930629119682,411.752994358388,0.07616666537347586,315.23333327238083,-20.219789505,9.95656871796,-45.0629386902,0
3.1,17.95963676078591,-6.156175065386442,411.14181509378886,0.07865114204049346,315.7302287094417,-20.219789505,9.95656871796,-45.0629386902,0
3.2,18.042994461063365,-6.4414676573490315,410.50416177142546,0.08228236144700422,316.0,-20.219789505,9.95656871796,-45.0629386902,0
3.3000000000000003,18.14125433876562,-6.714939745315402,409.83506335245147,0.0872756476946463,316.0,-20.563094629799966,6.9025459983832995,-43.940245874468204,0
3.4000000000000004,18.239514216467878,-6.988411833281772,409.1659649334774,0.09226893394228838,316.0,-20.5726299286,6.81786203384,-43.9283218384,0
3.5,18.337774094170133,-7.261883921248142,408.4968665145034,0.09726222018993044,316.0,-20.5726299286,6.81786203384,-43.9283218384,0
3.6,18.43835089708359,-7.315325982415594,407.84171339837945,0.10131040978485262,316.0,-20.581071571146694,6.4832730921506005,-43.82666772440154,0
3.7,18.541740034558195,-7.1016907784800765,407.2034873962518,0.10421142036544383,316.0,-20.6469669342,3.86937761307,-43.1757392883,0
3.8000000000000003,18.6451291720328,-6.88805557454456,406.56526139412415,0.10711243094603504,316.0,-20.6469669342,3.86937761307,-43.1757392883,0
3.9000000000000004,18.74847378412682,-6.6758347722246105,405.927000556987,0.11003116708590421,316.0,-20.6469669342,3.86937761307,-43.1757392883,0
4.0,18.84225368028035,-6.7674485357368415,405.28125664017506,0.11675761777310006,316.0,-20.50240366961333,2.0771100268848333,-43.11532976454819,0
4.1000000000000005,18.936033576433886,-6.859062299249074,404.6355127233631,0.12348406846029597,316.0,-20.4779338837,1.7733900547,-43.1074256897,0
4.2,19.029984669586813,-6.953994683899686,403.9898451430621,0.13021027386206183,316.0,-20.4779338837,1.7733900547,-43.1074256897,0
4.3,19.129234481932606,-7.151641728166056,403.34654025449754,0.13692888743324513,316.0,-20.374139328178366,0.8830442039010287,-43.2595868349796,0
4.4,19.228484294278402,-7.349288772432429,402.703235365933,0.1436475010044285,316.0,-20.3264102936,0.473585426807,-43.3242416382,0
4.5,19.3277341066242,-7.546935816698799,402.0599304773684,0.1503661145756118,316.0,-20.3264102936,0.473585426807,-43.3242416382,0
4.6000000000000005,19.42698391896999,-7.744582860965171,401.41662558880387,0.15708472814679517,316.0,-20.3264102936,0.473585426807,-43.3242416382,0
4.7,19.526233731315788,-7.942229905231541,400.7733207002393,0.16380334171797845,316.0,-20.3264102936,0.473585426807,-43.3242416382,0
4.800000000000001,19.628609866223126,-8.116927811929468,400.12787810302274,0.17358175492695957,316.0,-20.3264102936,0.473585426807,-43.3242416382,0
4.9,19.768101870915828,-8.01917232173424,399.45705651358605,0.21968627418868952,316.0,-19.5581798553,1.10742914677,-43.494972229,0
5.0,19.90759387560853,-7.9214168315390125,398.78623492414937,0.2657907934504195,316.0,-19.5581798553,1.10742914677,-43.494972229,0
5.1000000000000005,20.047085880301232,-7.823661341343784,398.1154133347127,0.3118953127121499,316.0,-19.5581798553,1.10742914677,-43.494972229,0
5.2,20.186577884993934,-7.725905851148555,397.444591745276,0.35799983197387986,316.0,-19.5581798553,1.10742914677,-43.494972229,0
5.300000000000001,20.34506008946763,-7.712686800946943,396.9227852514116,0.3879589215747381,316.0,-17.97375090897379,1.5149722644894272,-43.41988207466349,0
5.4,20.51022430671595,-7.729213281517679,396.45341215918114,0.41223697735341785,316.0,-16.5797176361,1.8735243082,-43.3575782776,0
5.5,20.675388523964273,-7.745739762088416,395.9840390669507,0.4365150331320976,316.0,-16.5797176361,1.8735243082,-43.3575782776,0
5.6000000000000005,20.839418849346,-7.751399143850089,395.5188484913512,0.4606151915509145,315.9923102111865,-16.5797176361,1.8735243082,-43.3575782776,0
5.7,20.969871977744035,-7.435258248086641,395.17751204059556,0.4794473920003806,315.7569077441536,-12.2068338394,2.69878172874,-43.6718444824,0
5.800000000000001,21.100325106142073,-7.119117352323191,394.8361755898399,0.49827959244984693,315.5215052771207,-12.2068338394,2.69878172874,-43.6718444824,0
5.9,21.230778234540107,-6.802976456559743,394.49483913908426,0.517111792899313,315.28610281008775,-12.2068338394,2.69878172874,-43.6718444824,0
6.0,21.361231362938142,-6.486835560796296,394.1535026883286,0.5359439933487791,315.0507003430548,-12.2068338394,2.69878172874,-43.6718444824,0
6.1000000000000005,21.39591177354039,-5.827806545598453,394.0126904238951,0.5480117860231252,315.0,-9.153472783112827,2.572614135355214,-43.982016790782254,0
6.2,21.404302775320694,-5.074655465584428,393.9269216252234,0.5582227630454641,315.0,-6.45837783813,2.47381687164,-44.2238044739,0
6.300000000000001,21.412693777101,-4.321504385570396,393.8411528265517,0.5684337400678032,315.0,-6.45837783813,2.47381687164,-44.2238044739,0
6.4,21.421084778881305,-3.568353305556371,393.75538402788004,0.5786447170901423,315.0,-6.45837783813,2.47381687164,-44.2238044739,0
6.5,21.429475780661612,-2.8152022255423454,393.6696152292083,0.5888556941124813,315.0,-6.45837783813,2.47381687164,-44.2238044739,0
6.6000000000000005,21.324752028627564,-1.8132721664578457,393.7990611358596,0.587720290486778,315.0,1.42256331444,2.41514492035,-44.2002639771,0
6.7,21.20575241548815,-0.7799444865380243,393.95566862079676,0.5851528954654526,315.0,1.42256331444,2.41514492035,-44.2002639771,0
6.800000000000001,21.086752802348734,0.25338319338180604,394.11227610573394,0.5825855004441272,315.0,1.42256331444,2.41514492035,-44.2002639771,0
6.9,20.967753189209322,1.2867108733016273,394.2688835906711,0.5800181054228017,315.0,1.42256331444,2.41514492035,-44.2002639771,0
7.0,20.829967656723177,1.9053437480743525,394.5411130570648,0.5775352353084069,315.2464750352979,3.8690702835182544,2.8244403330852936,-44.07881624248389,0
7.1000000000000005,20.692048580068644,2.5210286663554915,394.8141644497681,0.5750529660593834,315.49470219690966,5.26527452469,3.05099225044,-44.0151786804,0
7.2,20.55412950341411,3.1367135846366248,395.08721584247144,0.57257069681036,315.74292935852145,5.26527452469,3.05099225044,-44.0151786804,0
7.300000000000001,20.416210426759577,3.752398502917764,395.3602672351748,0.5700884275613365,315.9911565201332,5.26527452469,3.05099225044,-44.0151786804,0
7.4,20.254271825367155,3.3967622829120465,395.6658231089678,0.5626653697317487,316.0,6.538908165099016,3.7608549298378526,-43.745800286174834,0
7.5,20.09144587784537,3.005242836163334,395.9725797860988,0.5550597858251127,316.0,6.6797952652,3.83946967125,-43.7254867554,0
7.6000000000000005,19.92861993032358,2.613723389414618,396.2793364632298,0.5474542019184766,316.0,6.6797952652,3.83946967125,-43.7254867554,0
7.7,19.765660106535456,2.2458005312165046,396.5865057154181,0.539793721633343,316.0,6.6797952652,3.83946967125,-43.7254867554,0
7.800000000000001,19.596109033512317,3.039629494193277,396.91398764217627,0.5294304791434671,316.0,7.819524712475734,4.603179060523125,-43.288821050392144,0
7.9,19.426557960489184,3.8334584571700425,397.2414695689344,0.5190672366535911,316.0,7.87554788589,4.64063692093,-43.2831420898,0
8.0,19.257006887466048,4.627287420146807,397.56895149569254,0.5087039941637151,316.0,7.87554788589,4.64063692093,-43.2831420898,0
8.1,19.08745581444291,5.421116383123573,397.8964334224506,0.4983407516738391,316.0,7.87554788589,4.64063692093,-43.2831420898,0
8.200000000000001,18.92695261695997,5.928587299817498,398.2153393999529,0.48866123108614806,316.0,7.87554788589,4.64063692093,-43.2831420898,0
8.3,18.803762637570486,5.2551246165405825,398.49887837185,0.4818013629503697,316.0,7.51976776123,6.54494142532,-43.7811965942,0
8.4,18.680572658181006,4.581661933263666,398.78241734374717,0.4749414948145913,316.0,7.51976776123,6.54494142532,-43.7811965942,0
8.5,18.557382678791527,3.908199249986749,399.0659563156443,0.4680816266788129,316.0,7.51976776123,6.54494142532,-43.7811965942,0
8.6,18.434192699402047,3.2347365667098327,399.34949528754146,0.4612217585430345,316.0,7.51976776123,6.54494142532,-43.7811965942,0
8.700000000000001,18.34396327505692,3.2853414873093882,399.5417805444246,0.45791488389037355,316.2085120228922,6.9374503319014496,6.891062902541632,-43.69877676944132,0
8.8,18.260876227848538,3.4928480102156936,399.714291606156,0.45537792404608407,316.4622074931819,5.30307531357,7.86165428162,-43.4565658569,0
8.9,18.177789180640158,3.7003545331219994,399.88680266788737,0.45284096420179465,316.7159029634716,5.30307531357,7.86165428162,-43.4565658569,0
9.0,18.094702133431774,3.907861056028305,400.05931372961874,0.4503040043575052,316.9695984337613,5.30307531357,7.86165428162,-43.4565658569,0
9.1,18.02419745738951,3.474993851197265,400.17160884053277,0.449999988079,317.2476310208515,3.3783955574,11.0602750778,-42.6434745789,0
9.200000000000001,17.955405876884146,2.9549394731019993,400.2757055224517,0.449999988079,317.52897711742423,3.3783955574,11.0602750778,-42.6434745789,0
9.3,17.88661429637878,2.4348850950067433,400.37980220437066,0.449999988079,317.810323213997,3.3783955574,11.0602750778,-42.6434745789,0
9.4,17.82969612797935,2.0086970643918733,400.45816278758906,0.45102240906042185,318.20448378187757,3.3783955574,11.0602750778,-42.6434745789,0
9.5,17.797345730769052,1.7767318002979928,400.48327173778614,0.4541603638501914,318.8320734679582,0.797057330608,17.5275821686,-41.4440803528,0
9.600000000000001,17.764995333558755,1.5447665362041079,400.5083806879832,0.4572983186399609,319.4596631540388,0.797057330608,17.5275821686,-41.4440803528,0
9.700000000000001,17.737649668094704,1.298081018403055,400.52219205058054,0.4609007509070651,320.1200990035034,0.797057330608,17.5275821686,-41.4440803528,0
9.8,17.741297159563373,0.9602363423557991,400.46604004187407,0.46737958576208954,320.98394361651657,-0.95149230957,21.5471725464,-39.6343460083,0
9.9,17.744944651032043,0.6223916663085435,400.40988803316753,0.4738584206171139,321.8477882295297,-0.95149230957,21.5471725464,-39.6343460083,0
10.0,17.748592142500712,0.2845469902612878,400.353736024461,0.48033725547213835,322.7116328425429,-0.95149230957,21.5471725464,-39.6343460083,0
10.100000000000001,17.752239633969385,-0.053297685785973936,400.29758401575447,0.4868160903271629,323.5754774555561,-0.95149230957,21.5471725464,-39.6343460083,0
10.200000000000001,17.77729213796161,-0.43485959779464145,400.21307894701215,0.49371160105219125,324.4948793406421,-0.95149230957,21.5471725464,-39.6343460083,0
10.3,17.823028579844653,-0.8586660351166756,400.10117595303376,0.5010097510097957,325.4679669296572,-3.13953995705,27.2383460999,-35.4436264038,0
10.4,17.868765021727697,-1.2824724724387098,399.98927295905537,0.5083079009674002,326.44105451867233,-3.13953995705,27.2383460999,-35.4436264038,0
10.5,17.91450146361074,-1.7062789097607438,399.87736996507704,0.5156060509250046,327.4141421076875,-3.13953995705,27.2383460999,-35.4436264038,0
10.600000000000001,17.969370811905588,-1.9255082330322013,399.75115345046055,0.5246701131875383,328.6538183606051,-3.13953995705,27.2383460999,-35.4436264038,0
10.700000000000001,18.038057760830412,-1.83522328641775,399.60328134200915,0.536405906646786,330.296829053206,-3.17706298828,32.133769989,-31.5769786835,0
10.8,18.106744709755237,-1.7449383398032985,399.45540923355776,0.5481417001060336,331.9398397458069,-3.17706298828,32.133769989,-31.5769786835,0
10.9,18.17543165868006,-1.6546533931888472,399.3075371251063,0.5598774935652813,333.58285043840783,-3.17706298828,32.133769989,-31.5769786835,0
11.0,18.249479153499426,-1.6174997819224095,399.15895301368056,0.5713149423494239,335.2958634793294,-3.17706298828,32.133769989,-31.5769786835,0
11.100000000000001,18.357161011302857,-1.9137149457920763,399.0059014903611,0.5808804487429476,337.4481012633043,-3.21515321732,38.6381721497,-24.6104278564,0
11.200000000000001,18.464842869106285,-2.209930109661738,398.8528499670416,0.5904459551364712,339.60033904727914,-3.21515321732,38.6381721497,-24.6104278564,0
11.3,18.572524726909712,-2.5061452735313994,398.69979844372216,0.6000114615299948,341.75257683125403,-3.21515321732,38.6381721497,-24.6104278564,0
11.4,18.68020658471314,-2.8023604374010613,398.5467469204027,0.6095769679235185,343.9048146152289,-3.21515321732,38.6381721497,-24.6104278564,0
11.5,18.820066144970063,-2.996560736222451,398.4108992414595,0.617902947066863,346.63431343287795,-3.15931344032,41.4902915955,-15.0179691315,0
11.600000000000001,18.961414654653005,-3.1860405309936057,398.2758476309816,0.6261715699278456,349.3905236817113,-3.15931344032,41.4902915955,-15.0179691315,0
11.700000000000001,19.102763164335943,-3.375520325764757,398.14079602050367,0.634440192788828,352.1467339305446,-3.15931344032,41.4902915955,-15.0179691315,0
11.8,19.23626590805958,-3.30086574984288,398.02523083651903,0.6415972245075914,326.04837742501206,-3.027528874846413,41.70634858670352,-13.68215967427458,0
11.9,19.353665450529636,-2.6840832349385315,397.94966096327425,0.6464727484720205,240.72688095578144,-2.06091117859,43.2080192566,-5.19731616974,0
12.0,19.471064992999693,-2.0673007200341833,397.8740910900294,0.6513482724364495,155.40538448655082,-2.06091117859,43.2080192566,-5.19731616974,0
12.100000000000001,19.588464535469754,-1.450518205129824,397.7985212167846,0.6562237964008787,70.08388801731871,-2.06091117859,43.2080192566,-5.19731616974,0
12.200000000000001,19.69562689641865,-0.9452949989121281,397.7452092144091,0.660000026226,4.616699620869618,-2.06091117859,43.2080192566,-5.19731616974,0
12.3,19.767623100464604,-0.8232936927017356,397.7683561258178,0.660000026226,7.351849088961297,0.30066215992,44.1675872803,4.98620462418,0
12.4,19.839619304510556,-0.701292386491343,397.7915030372264,0.660000026226,10.086998557052976,0.30066215992,44.1675872803,4.98620462418,0
12.5,19.911615508556512,-0.5792910802809503,397.814649948635,0.660000026226,12.822148025144655,0.30066215992,44.1675872803,4.98620462418,0
12.600000000000001,19.983611712602467,-0.4572897740705556,397.8377968600436,0.660000026226,15.557297493236382,0.30066215992,44.1675872803,4.98620462418,0
12.700000000000001,20.033536952551515,-0.22586319610963387,397.9064780129763,0.6580526699889488,18.363146603451032,0.30066215992,44.1675872803,4.98620462418,0
12.8,20.05882533220219,0.12771006839350396,398.0259870655104,0.6539315644153149,21.247914658868112,2.26697874069,44.9714050293,17.9237823486,0
12.9,20.08411371185286,0.4812833328966418,398.14549611804443,0.649810458841681,24.132682714285195,2.26697874069,44.9714050293,17.9237823486,0
13.0,20.109402091503537,0.8348565973997796,398.26500517057843,0.645689353268047,27.017450769702275,2.26697874069,44.9714050293,17.9237823486,0
13.100000000000001,20.13469047115421,1.1884298619029239,398.3845142231125,0.6415682476944129,29.90221882511941,2.26697874069,44.9714050293,17.9237823486,0
13.200000000000001,20.145216762090254,1.5715414765228928,398.54214283715356,0.6368407912170443,32.57959874536224,2.8726856408126515,45.447890490864985,23.1579420991345,0
13.3,20.146674411689673,1.9727990803767357,398.72318904730184,0.6317408414579723,35.12957605668411,3.91922998428,46.2333717346,31.3629608154,0
13.4,20.14813206128909,2.374056684230579,398.90423525745007,0.6266408916989001,37.679553368005976,3.91922998428,46.2333717346,31.3629608154,0
13.5,20.149589710888506,2.775314288084422,399.0852814675983,0.6215409419398281,40.22953067932785,3.91922998428,46.2333717346,31.3629608154,0
13.600000000000001,20.148994606875334,2.9337305370920275,399.2637068752019,0.6137089722282021,42.4679060760768,3.996909590186203,46.24059898830041,32.71893487288758,0
13.700000000000001,20.14751072703777,2.987004345221256,399.44099756019295,0.6046941263688056,44.57136793677944,4.74318361282,46.3092155457,41.7746620178,0
13.8,20.1460268472002,3.040278153350484,399.618288245184,0.595679280509409,46.674829797482076,4.74318361282,46.3092155457,41.7746620178,0
13.9,20.145542370539435,2.937901956883385,399.79185251429874,0.5888750660179044,48.78743618024483,4.728417228131767,46.30358606304208,42.09394011190838,0
14.0,20.14675954299216,2.57050589807584,399.959071944394,0.5858348168556884,50.91561262343788,4.12310838699,46.083366394,48.5590934753,0
14.100000000000001,20.147976715444887,2.203109839268289,400.12629137448926,0.5827945676934724,53.043789066630964,4.12310838699,46.083366394,48.5590934753,0
14.200000000000001,20.15119482768584,1.8618469687881614,400.2883427337225,0.5797860272522158,55.17116501025031,4.12310838699,46.083366394,48.5590934753,0
14.3,20.177174831510374,1.8178648075746977,400.39160418365907,0.5771381925518217,57.28943479054761,3.290399417273633,46.725598193770004,53.87890641208109,0
14.4,20.20315483533491,1.7738826463612343,400.4948656335957,0.5744903578514277,59.4077045708449,2.94135737419,46.994594574,55.9134483337,0
14.5,20.229134839159446,1.7299004851477706,400.5981270835323,0.5718425231510337,61.525974351142196,2.94135737419,46.994594574,55.9134483337,0
14.600000000000001,20.261658342339146,1.9014859016060406,400.6861934104043,0.569999992847,63.66743847333168,2.94135737419,46.994594574,55.9134483337,0
14.700000000000001,20.30915332203232,2.5662882882216866,400.7394934118389,0.569999992847,65.86197107249896,1.36713933945,47.2744789124,63.4899673462,0
14.8,20.356648301725492,3.2310906748373327,400.7927934132735,0.569999992847,68.05650367166625,1.36713933945,47.2744789124,63.4899673462,0
14.9,20.404671147293538,3.6716596457453337,400.841078842485,0.5697294247839552,70.27056832108588,1.36713933945,47.2744789124,63.4899673462,0
15.0,20.456780674783122,2.3762371654158576,400.8505419825051,0.5673641473175796,72.63584804322869,-0.0778094083071,47.2455291748,70.7256011963,0
15.100000000000001,20.50889020227271,1.0808146850863585,400.8600051225252,0.5649988698512041,75.00112776537155,-0.0778094083071,47.2455291748,70.7256011963,0
15.200000000000001,20.560999729762294,-0.21460779524311713,400.8694682625453,0.5626335923848285,77.36640748751438,-0.0778094083071,47.2455291748,70.7256011963,0
15.3,20.613109257251875,-1.5100302755725932,400.8789314025654,0.560268314918453,79.7316872096572,-0.0778094083071,47.2455291748,70.7256011963,0
15.4,20.67110776999476,-0.00019028528681874768,400.83267448447276,0.554741751784548,82.36621502641269,-1.50230967999,46.4641265869,80.992149353,0
15.5,20.729859794889713,1.8685908927308115,400.77928802893075,0.548810693298016,85.03519389075718,-1.50230967999,46.4641265869,80.992149353,0
15.600000000000001,20.788611819784666,3.737372070748475,400.7259015733888,0.542879634811484,87.70417275510174,-1.50230967999,46.4641265869,80.992149353,0
15.700000000000001,20.83990323978058,3.7054384342844564,400.6661379373905,0.5371795883402425,90.12817096080812,-1.50230967999,46.4641265869,80.992149353,0
15.8,20.88415417352961,1.8798222892709675,400.60035623021645,0.53169754522644,92.32098376248435,-2.9753305912,43.248085022,89.1942596436,0
15.9,20.92840510727864,0.054206144257479494,400.53457452304235,0.5262155021126375,94.51379656416056,-2.9753305912,43.248085022,89.1942596436,0
16.0,20.97265604102767,-1.7714100007560099,400.4687928158683,0.520733458998835,96.70660936583677,-2.9753305912,43.248085022,89.1942596436,0
16.1,21.000889875228157,-1.8287869746639467,400.4152473435551,0.515290139459787,98.64844608556517,-3.2829902226327876,40.25009885933296,93.93147869807316,0
16.2,21.02664965859657,-1.6130362465601769,400.3635919179977,0.5098528012840972,100.55151626191949,-3.51079916954,38.0449867249,97.2253189087,0
16.3,21.05240944196498,-1.3972855184563997,400.31193649244034,0.5044154631084071,102.45458643827386,-3.51079916954,38.0449867249,97.2253189087,0
16.400000000000002,21.068321927514848,-1.1370738241622587,400.27359548313086,0.49819715094438494,104.27042741476018,-3.51079916954,38.0449867249,97.2253189087,0
16.5,21.041684808296615,-0.684748864496395,400.29278529694733,0.4886042953116836,105.70935605986188,-2.19699072838,30.6040592194,104.320068359,0
16.6,21.015047689078383,-0.23242390483051545,400.31197511076374,0.47901143967898185,107.14828470496361,-2.19699072838,30.6040592194,104.320068359,0
16.7,20.988410569860154,0.21990105483534816,400.3311649245802,0.46941858404628045,108.58721335006531,-2.19699072838,30.6040592194,104.320068359,0
16.8,20.960865005984733,0.6603105156282216,400.3517604957992,0.459805067885841,110.00974701772915,-2.19699072838,30.6040592194,104.320068359,0
16.900000000000002,20.884224548024992,0.4567730386484422,400.44832713497476,0.4490749989304846,110.54625017768986,-0.191266000271,18.0656833649,110.061561584,0
17.0,20.80758409006525,0.25323556166867006,400.5448937741503,0.4383449299751286,111.08275333765054,-0.191266000271,18.0656833649,110.061561584,0
17.1,20.73094363210551,0.04969808468889059,400.64146041332583,0.4276148610197722,111.61925649761125,-0.191266000271,18.0656833649,110.061561584,0
17.2,20.644208886718115,0.012870365199722358,400.7506735325061,0.41788660249947784,112.0,-0.191266000271,18.0656833649,110.061561584,0
17.3,20.53279936732802,0.38355289540434334,400.8908000805225,0.4106071989633364,112.0,0.338920295238,5.73978948593,112.737167358,0
17.400000000000002,20.421389847937927,0.7542354256089643,401.03092662853896,0.403327795427195,112.0,0.338920295238,5.73978948593,112.737167358,0
17.5,20.309980328547837,1.124917955813572,401.1710531765554,0.39604839189105384,112.0,0.338920295238,5.73978948593,112.737167358,0
17.6,20.19857080915774,1.4956004860181928,401.31117972457184,0.38876898835491247,112.0,0.338920295238,5.73978948593,112.737167358,0
17.7,20.08716128976765,1.8662830162228006,401.4513062725883,0.38148958481877127,112.0,0.338920295238,5.73978948593,112.737167358,0
17.8,19.97406180968029,1.8035744356540477,401.60471787360495,0.37501050380603396,111.50105038158009,1.2382031873077566,-7.944354116520005,112.33210945790276,0
17.900000000000002,19.86052754051702,1.6293640190586833,401.76154742151635,0.36873732787199975,110.87373218993467,1.2892999649,-8.71877670288,112.319664001,0
18.0,19.746993271353755,1.4551536024633251,401.9183769694277,0.3624641519379657,110.24641399828928,1.2892999649,-8.71877670288,112.319664001,0
18.1,19.64501080780711,1.2989909372070514,402.03686254960525,0.3570830925221212,109.7083079781903,1.2892999649,-8.71877670288,112.319664001,0
18.2,19.550501421898108,1.154503697543795,402.1305427047852,0.3522791598536884,109.22791496905386,0.646421790123,-13.8961772919,110.780708313,0
18.3,19.4559920359891,1.0100164578805337,402.22422285996527,0.3474752271852554,108.74752195991738,0.646421790123,-13.8961772919,110.780708313,0
18.400000000000002,19.361482650080095,0.8655292182172725,402.31790301514525,0.34267129451682243,108.26712895078091,0.646421790123,-13.8961772919,110.780708313,0
18.5,19.277919677473747,0.7523276842203471,402.37102223247774,0.340000003576,107.6921659873751,0.646421790123,-13.8961772919,110.780708313,0
18.6,19.208067894286277,0.6783138023460047,402.37333588579037,0.340000003576,106.99874718638385,-1.00283801556,-16.9449920654,108.564506531,0
18.7,19.138216111098814,0.6042999204716649,402.37564953910305,0.340000003576,106.30532838539263,-1.00283801556,-16.9449920654,108.564506531,0
18.8,19.068364327911343,0.5302860385973225,402.3779631924157,0.340000003576,105.61190958440137,-1.00283801556,-16.9449920654,108.564506531,0
18.900000000000002,19.00263900275396,0.42359988550428823,402.3705109868893,0.3405584242440273,104.88831592630746,-1.00283801556,-16.9449920654,108.564506531,0
19.0,18.967892005249286,0.07163501744740092,402.2897440953245,0.34530904517098954,103.93819225060886,-3.391540485889386,-16.683985429894808,105.59135500626874,0
19.1,18.933145007744617,-0.28032985060949883,402.2089772037598,0.3500596660979519,102.98806857491023,-4.04490709305,-16.6128463745,104.880973816,0
19.200000000000003,18.898398010239944,-0.6322947186663985,402.12821031219505,0.3548102870249143,102.03794489921161,-4.04490709305,-16.6128463745,104.880973816,0
19.3,18.863651012735275,-0.984259586723286,402.0474434206303,0.3595609079518765,101.087821223513,-4.04490709305,-16.6128463745,104.880973816,0
19.400000000000002,18.854670669819125,-1.093707317011131,401.90489365179934,0.36264883279909516,100.20535369391727,-5.136581515604954,-16.189841532756002,102.11982619644337,0
19.5,18.84831453274405,-1.178455880889591,401.75605160366433,0.3655674203057051,99.32977660689642,-5.61770153046,-16.0032367706,101.027503967,0
19.6,18.84195839566898,-1.2632044447680542,401.6072095555293,0.36848600781231516,98.45419951987554,-5.61770153046,-16.0032367706,101.027503967,0
19.700000000000003,18.844746142425382,-1.4549167369103175,401.4576369625771,0.37321599519179083,97.51760097639155,-5.620811104888979,-15.970604654329724,100.91504373346208,0
19.8,18.857390008657227,-1.7619243788991308,401.3072769211911,0.37989847605147664,96.51522789152558,-6.33728170395,-15.0081644058,98.2471694946,0
19.900000000000002,18.870033874889067,-2.068932020887955,401.1569168798051,0.3865809569111627,95.51285480665959,-6.33728170395,-15.0081644058,98.2471694946,0
20.0,18.886686947989297,-2.1422315842575967,401.0014992504608,0.3916018029384376,94.51945580079155,-6.403072863418588,-14.433620941195768,97.53292426464775,0
20.1,18.90754035661302,-1.9706816357475383,400.8407829256234,0.39488179995423683,93.53545869012193,-6.60813951492,-12.656416893,95.655632019,0
20.200000000000003,18.928393765236738,-1.7991316872374798,400.68006660078595,0.39816179697003606,92.5514615794523,-6.60813951492,-12.656416893,95.655632019,0
20.3,18.94580614833629,-1.7756447065149341,400.5278213413822,0.40218155467724453,91.67276738034793,-6.60813951492,-12.656416893,95.655632019,0
20.400000000000002,18.95883139273037,-1.9409307448428803,400.3863762747639,0.40714447096879713,90.9283292266816,-6.03408002853,-10.3562631607,92.7654190063,0
20.5,18.971856637124453,-2.1062167831708205,400.2449312081456,0.41210738726034957,90.18389107301529,-6.03408002853,-10.3562631607,92.7654190063,0
20.6,18.984881881518536,-2.2715028214987667,400.10348614152736,0.4170703035519022,89.43945291934895,-6.03408002853,-10.3562631607,92.7654190063,0
20.700000000000003,18.992833044521003,-2.238925077441862,399.9724280325007,0.4209512084447274,88.80975607400288,-6.03408002853,-10.3562631607,92.7654190063,0
20.8,18.993472968716933,-1.9212456070766049,399.8563364802879,0.4232730441944057,88.34538986515176,-5.35430192947,-7.28148269653,89.3922424316,0
20.900000000000002,18.994112892912863,-1.6035661367113367,399.74024492807513,0.4255948799440841,87.88102365630064,-5.35430192947,-7.28148269653,89.3922424316,0
21.0,18.994752817108793,-1.28588666634608,399.62415337586236,0.42791671569376244,87.41665744744954,-5.35430192947,-7.28148269653,89.3922424316,0
21.1,18.993782258470485,-1.0118419996796144,399.5106206290757,0.4302839088858652,86.9432195992755,-5.35430192947,-7.28148269653,89.3922424316,0
21.200000000000003,18.978746784978757,-1.118875470340293,399.4194348329543,0.43304722462712164,86.39055592394887,-4.395955107391215,-4.644957252172954,87.64967108360068,0
21.3,18.963711311487025,-1.2259089410009678,399.32824903683303,0.43581054036837796,85.83789224862224,-4.05524969101,-3.76945710182,87.070274353,0
21.400000000000002,18.948675837995296,-1.3329424116616466,399.23706324071173,0.4385738561096344,85.28522857329561,-4.05524969101,-3.76945710182,87.070274353,0
21.5,18.930276823376616,-1.3223121458770304,399.15909583181553,0.4412362608043538,85.0,-4.05524969101,-3.76945710182,87.070274353,0
21.6,18.908290478487615,-1.1861895291629847,399.0952262795613,0.44379104045802636,85.0,-2.96042513847,-0.0821871310472,85.8850860596,0
21.700000000000003,18.886304133598614,-1.0500669124489388,399.0313567273071,0.4463458201116989,85.0,-2.96042513847,-0.0821871310472,85.8850860596,0
21.8,18.864317788709613,-0.913944295734898,398.9674871750529,0.44890059976537133,85.0,-2.96042513847,-0.0821871310472,85.8850860596,0
21.900000000000002,18.83732932449078,-0.907375586852273,398.92486129363255,0.449999988079,85.11646599061916,-2.96042513847,-0.0821871310472,85.8850860596,0
22.0,18.80656230849465,-0.9986706265958359,398.89828267236186,0.449999988079,85.3209092458399,-1.91446399689,2.43045592308,85.681312561,0
22.1,18.77579529249852,-1.0899656663394022,398.8717040510912,0.449999988079,85.52535250106065,-1.91446399689,2.43045592308,85.681312561,0
22.200000000000003,18.745028276502385,-1.1812607060829685,398.84512542982054,0.449999988079,85.7297957562814,-1.91446399689,2.43045592308,85.681312561,0
22.3,18.714261260506255,-1.2725557458265313,398.81854680854985,0.449999988079,85.93423901150214,-1.91446399689,2.43045592308,85.681312561,0
22.400000000000002,18.685302473885827,-1.0535526674655737,398.79517593060984,0.449999988079,86.0,-1.6330057742664703,3.3975374321829945,85.88952327360028,0
22.5,18.657201121701593,-0.6874110150261513,398.77332611500356,0.449999988079,86.0,-1.03044605255,5.46690368652,86.2797622681,0
22.6,18.629099769517357,-0.3212693625867159,398.7514762993973,0.449999988079,86.0,-1.03044605255,5.46690368652,86.2797622681,0
22.700000000000003,18.607634423930264,-0.35686003528393173,398.72129051006283,0.4517942937693181,86.17943020539856,-1.4127260266882602,6.060339081367523,86.50683855002491,0
22.8,18.586649934590042,-0.4215609108244179,398.69050068199175,0.45371861788070855,86.37186222655487,-1.55709266663,6.27785682678,86.5777664185,0
22.900000000000002,18.565665445249824,-0.4862617863649063,398.65971085392067,0.4556429419920991,86.56429424771119,-1.55709266663,6.27785682678,86.5777664185,0
23.0,18.5446809559096,-0.5509626619053924,398.6289210258496,0.4575672661034895,86.7567262688675,-1.55709266663,6.27785682678,86.5777664185,0
23.1,18.523696466569383,-0.6156635374458809,398.5981311977785,0.45949159021488006,86.94915829002382,-1.55709266663,6.27785682678,86.5777664185,0
23.200000000000003,18.502759412584258,-0.4379094091960529,398.5879130507829,0.460000008345,87.0,-1.283553416578336,6.1637952452726585,87.02371807716096,0
23.3,18.48183939150588,-0.1730954610882245,398.585081704722,0.460000008345,87.0,-0.837265014648,5.98725938797,87.645401001,0
23.400000000000002,18.460919370427497,0.09171848701961338,398.582250358661,0.460000008345,87.0,-0.837265014648,5.98725938797,87.645401001,0
23.5,18.441792030145677,0.29075595351628664,398.5746354984788,0.460000008345,87.0,-0.837265014648,5.98725938797,87.645401001,0
23.6,18.429815037254674,0.22743511586422688,398.5479409517283,0.460000008345,87.0,-0.444209396839,5.65832471848,87.7035446167,0
23.700000000000003,18.41783804436367,0.16411427821216706,398.52124640497783,0.460000008345,87.0,-0.444209396839,5.65832471848,87.7035446167,0
23.8,18.405861051472666,0.10079344056010955,398.4945518582274,0.460000008345,87.0,-0.444209396839,5.65832471848,87.7035446167,0
23.900000000000002,18.394411063370367,0.04148675293209512,398.4664170950324,0.46022401087748344,87.0,-0.444209396839,5.65832471848,87.7035446167,0
24.0,18.388995986370844,0.028147462693292713,398.4217899234235,0.4630131426067275,87.0,-0.8500584533338897,5.596018840242667,87.59081571794387,0
24.1,18.38358090937132,0.014808172454489836,398.37716275181464,0.46580227433597166,87.0,-1.00629651546,5.57202625275,87.5520095825,0
24.200000000000003,18.3781658323718,0.001468882215686959,398.33253558020573,0.46859140606521577,87.0,-1.00629651546,5.57202625275,87.5520095825,0
24.3,18.37894141207754,-0.04656989178229596,398.2766434719117,0.47128279890399716,87.0,-1.00629651546,5.57202625275,87.55042552377091,0
24.400000000000002,18.386033448032343,-0.13001327331467502,398.20925751359374,0.47387446671281297,87.0,-1.40461575985,3.87655162811,87.1952056885,0
24.5,18.39312548398714,-0.2134566548470511,398.14187155527577,0.4764661345216287,87.0,-1.40461575985,3.87655162811,87.1952056885,0
24.6,18.400217519941943,-0.2969000363794302,398.0744855969578,0.47905780233044454,87.0,-1.40461575985,3.87655162811,87.1952056885,0
24.700000000000003,18.41314199712667,-0.6537017593838169,398.0065243929265,0.479999989271,87.22875179837044,-1.4507331369416274,3.2168763001079075,87.52556735892199,0
24.8,18.42939797700666,-1.166646341867647,397.9382346073341,0.479999989271,87.588167105,-1.49017560482,2.65315842628,87.7766723633,0
24.900000000000002,18.445653956886648,-1.6795909243514953,397.86994482174174,0.479999989271,87.94758241162955,-1.49017560482,2.65315842628,87.7766723633,0
25.0,18.44555390723891,-1.5960628278641853,397.8360017819058,0.48184481372265975,87.81551792870539,-1.188647425679928,2.2146057703293294,87.96933860013309,0
25.1,18.442661186596673,-1.410691435805085,397.80792319471504,0.4840046282963022,87.59953690904828,-0.8614179492,1.74299037457,88.1539154053,0
25.200000000000003,18.43976846595444,-1.2253200437459846,397.77984460752424,0.48616444286994465,87.38355588939118,-0.8614179492,1.74299037457,88.1539154053,0
25.3,18.436875745312204,-1.0399486516868908,397.7517660203335,0.48832425744358704,87.16757486973407,-0.8614179492,1.74299037457,88.1539154053,0
25.400000000000002,18.4309413271395,-0.8229378891556528,397.73121067118086,0.490000009537,86.93854990005327,-0.8614179492,1.74299037457,88.1539154053,0
25.5,18.41447700588115,-0.4963963460569666,397.73669964978836,0.490000009537,86.66436872130583,-0.12355492264,-0.543358385563,87.643989563,0
25.6,18.3980126846228,-0.1698548029582687,397.7421886283959,0.490000009537,86.3901875425584,-0.12355492264,-0.543358385563,87.643989563,0
25.700000000000003,18.38154836336445,0.15668674014042916,397.7476776070035,0.490000009537,86.11600636381095,-0.12355492264,-0.543358385563,87.643989563,0
25.8,18.36188314358068,0.26416706734039036,397.7604247076301,0.4882624840558754,85.82624780401373,-0.12355492264,-0.543358385563,87.643989563,0
25.900000000000002,18.339870365501934,0.2109865768329225,397.77849495874597,0.4852506469014601,85.52506469894989,0.474906802177,2.82514262199,86.5111618042,0
26.0,18.31785758742319,0.15780608632545648,397.7965652098618,0.4822388097470449,85.22388159388605,0.474906802177,2.82514262199,86.5111618042,0
26.1,18.29212037775433,0.13711766542182516,397.81997409409075,0.479999989271,85.04988724288022,0.474906802177,2.82514262199,86.5111618042,0
26.200000000000003,18.2555964231951,0.2105331788492053,397.8588447936492,0.479999989271,85.24425853633628,1.19655835629,4.59102249146,85.3364486694,0
26.3,18.219072468635876,0.2839486922765828,397.89771549320767,0.479999989271,85.43862982979232,1.19655835629,4.59102249146,85.3364486694,0
26.400000000000002,18.18254851407665,0.357364205703963,397.9365861927661,0.479999989271,85.63300112324839,1.19655835629,4.59102249146,85.3364486694,0
26.5,18.146024559517425,0.4307797191313405,397.97545689232453,0.479999989271,85.82737241670443,1.19655835629,4.59102249146,85.3364486694,0
26.6,18.110580485640575,0.5072012931796763,398.0135115023541,0.4797282878622589,86.0,1.19655835629,4.59102249146,85.3364486694,0
26.700000000000003,18.083709796483724,0.607488572593157,398.045087017414,0.4772994956340225,86.0,1.095312953,4.10207033157,86.2135162354,0
26.8,18.056839107326873,0.7077758520066341,398.0766625324739,0.4748707034057862,86.0,1.095312953,4.10207033157,86.2135162354,0
26.900000000000002,18.02996841817002,0.8080631314201147,398.1082380475338,0.4724419111775498,86.0,1.095312953,4.10207033157,86.2135162354,0
27.0,18.00309772901317,0.9083504108335918,398.1398135625937,0.4700131189493135,86.0,1.095312953,4.10207033157,86.2135162354,0
27.1,17.98586805881207,1.0869732396098706,398.15169119143366,0.469999998808,86.0,0.5487550801602928,4.901014744191544,86.5674285889,0
27.200000000000003,17.96869075148414,1.266021529061494,398.1634618359473,0.469999998808,86.0,0.541586697102,4.91149377823,86.5674285889,0
27.3,17.95151344415621,1.4450698185131112,398.17523248046103,0.469999998808,86.0,0.541586697102,4.91149377823,86.5674285889,0
27.400000000000002,17.943414092603216,1.0643192021077172,398.19120582912774,0.469999998808,86.0,0.5335918899373269,4.949427049805086,86.55472308634872,0
27.5,17.941478803400408,0.3034570887070438,398.21003287427425,0.469999998808,86.0,-0.116755358875,7.78621864319,86.1641845703,0
27.6,17.939543514197595,-0.4574050246936565,398.2288599194208,0.469999998808,86.0,-0.116755358875,7.78621864319,86.1641845703,0
27.700000000000003,17.94750825417273,-0.27735483210247447,398.24395171671057,0.469999998808,86.0,-0.44015276432,8.26412963867,86.2138595581,0
27.8,17.95609951414372,-0.03775932267948118,398.25880713010395,0.469999998808,86.0,-0.44015276432,8.26412963867,86.2138595581,0
27.900000000000002,17.964690774114704,0.20183618674352066,398.2736625434973,0.469999998808,86.0,-0.44015276432,8.26412963867,86.2138595581,0
28.0,17.979915370529884,0.4480169665607925,398.27653688933816,0.469999998808,86.17292561258417,-0.7034210507511403,7.955272775022905,86.46501421061295,0
28.1,18.00007358641139,0.6990956161727905,398.27050017984476,0.469999998808,86.47446661738442,-1.15854227543,7.44919395447,86.9090652466,0
28.200000000000003,18.020231802292894,0.9501742657847886,398.2644634703514,0.469999998808,86.77600762218466,-1.15854227543,7.44919395447,86.9090652466,0
28.3,18.04167328231047,1.0241712509636633,398.25672405443703,0.4705425526239729,87.10851086668139,-1.15854227543,7.44919395447,86.9090652466,0
28.400000000000002,18.066821357742818,0.5866834474873707,398.24406652101646,0.47265222534401363,87.5304458130889,-1.65053224564,6.8880853653,87.9717254639,0
28.5,18.091969433175166,0.14919564401109353,398.23140898759584,0.47476189806405433,87.9523807594964,-1.65053224564,6.8880853653,87.9717254639,0
28.6,18.117117508607514,-0.28829215946519904,398.2187514541752,0.47687157078409514,88.37431570590392,-1.65053224564,6.8880853653,87.9717254639,0
28.700000000000003,18.142265584039862,-0.7257799629414918,398.2060939207546,0.47898124350413596,88.79625065231143,-1.65053224564,6.8880853653,87.9717254639,0
28.8,18.169367904890905,-0.9254061698008411,398.1890995958065,0.479999989271,89.0,-1.65053224564,6.8880853653,87.9717254639,0
28.900000000000002,18.198295168504533,-0.9029088935549113,398.1680554231601,0.479999989271,89.0,-1.7542630434,8.85563373566,89.3046112061,0
29.0,18.22722243211816,-0.8804116173089823,398.14701125051374,0.479999989271,89.0,-1.7542630434,8.85563373566,89.3046112061,0
29.1,18.25614969573179,-0.8579143410630525,398.12596707786736,0.479999989271,89.0,-1.7542630434,8.85563373566,89.3046112061,0
29.200000000000003,18.28594157808926,-0.8243497152067348,398.10051758381275,0.4805569739301605,89.1670950591133,-1.7542630434,8.85563373566,89.3046112061,0
29.3,18.318462990325674,-0.7558463817902827,398.06116085434866,0.4828723131011929,89.86169540274597,-1.34920871258,10.8067865372,89.4044189453,0
29.400000000000002,18.350984402562087,-0.6873430483738282,398.02180412488457,0.4851876522722254,90.55629574637865,-1.34920871258,10.8067865372,89.4044189453,0
29.5,18.383505814798497,-0.6188397149573761,397.9824473954205,0.48750299144325776,91.25089609001131,-1.34920871258,10.8067865372,89.4044189453,0
29.6,18.41602722703491,-0.5503363815409215,397.94309066595633,0.48981833061429025,91.945496433644,-1.34920871258,10.8067865372,89.4044189453,0
29.700000000000003,18.449492169856548,-0.3074668935999238,397.9214309844379,0.49309537532680553,92.61907374837175,-1.4242325289755366,13.87689244622642,91.3823609881405,0
29.8,18.483037453313674,-0.04975031126517554,397.9012781879113,0.4964543082531907,93.29086097433225,-1.45535469055,14.9824943542,92.1441879272,0
29.900000000000002,18.516582736770804,0.20796627106958188,397.88112539138467,0.499813241179576,93.96264820029279,-1.45535469055,14.9824943542,92.1441879272,0
30.0,18.55606301639951,0.05307789672522453,397.8818060802476,0.5036098822874238,94.90247143249782,-1.1768743048122623,19.94268267069187,94.35770271657776,0
30.1,18.5958927134458,-0.12610221332988694,397.88371332131936,0.5074322930601542,95.85807503699182,-1.14968979359,20.4264316559,94.4955444336,0
30.200000000000003,18.635722410492086,-0.3052823233849984,397.8856205623911,0.5112547038328847,96.81367864148582,-1.14968979359,20.4264316559,94.4955444336,0
30.3,18.675552107538376,-0.48446243344010353,397.88752780346294,0.515077114605615,97.76928224597978,-1.14968979359,20.4264316559,94.4955444336,0
30.400000000000002,18.715381804584666,-0.663642543495215,397.8894350445347,0.5188995253783455,98.72488585047378,-1.14968979359,20.4264316559,94.4955444336,0
30.5,18.765517443306102,-0.4464073516163045,397.88799111169976,0.5219971428369159,99.99858190730552,-1.0415024221760203,23.528553147541494,96.28015769128528,0
30.6,18.81981965706897,-0.06890596037955987,397.8851923373569,0.5248017345994205,101.40087912592865,-0.814738214016,30.0056400299,99.3502349854,0
30.700000000000003,18.874121870831836,0.30859543085718466,397.88239356301403,0.527606326361925,102.80317634455179,-0.814738214016,30.0056400299,99.3502349854,0
30.8,18.93210140287101,0.6430644480391056,397.87696607602106,0.5311048333109906,104.27621533207885,-0.814738214016,30.0056400299,99.3502349854,0
30.900000000000002,19.011500242745655,0.7268824207600942,397.85622710352885,0.5386451940991526,106.16130451791035,-1.0818759615961926,34.09721560309516,104.2542138766274,0
31.0,19.090899082620293,0.8107003934810798,397.8354881310367,0.5461855548873141,108.0463937037418,-1.13236856461,34.8414115906,105.014938354,0
31.1,19.17029792249494,0.8945183662020684,397.8147491585445,0.5537259156754761,109.93148288957332,-1.13236856461,34.8414115906,105.014938354,0
31.200000000000003,19.249696762369584,0.978336338923057,397.79401018605233,0.561266276463638,111.81657207540484,-1.13236856461,34.8414115906,105.014938354,0
31.3,19.329095602244223,1.0621543116440426,397.7732712135601,0.5688066372517997,113.70166126123628,-1.13236856461,34.8414115906,105.014938354,0
31.400000000000002,19.43912524662089,0.8408272269956547,397.76502029010214,0.574971442823896,115.98858188716952,-1.068018003716421,40.30973897175339,114.26355590256821,0
31.5,19.5549140547018,0.5621271687181895,397.7591173532512,0.5808776183076759,118.35105433365332,-1.06327068806,40.6847229004,114.552787781,0
31.6,19.670702862782715,0.28342711044071434,397.7532144164003,0.5867837937914561,120.71352678013723,-1.06327068806,40.6847229004,114.552787781,0
31.700000000000003,19.786018319607145,0.03826121173678343,397.75855698860755,0.5890491594812275,122.95081519956496,-1.06327068806,40.6847229004,114.552787781,0
31.8,19.900767833910425,-0.16681097948610274,397.7773447807454,0.5869615440695959,125.03843260215736,-0.606872677803,43.6553573608,122.636894226,0
31.900000000000002,20.015517348213713,-0.37188317070899624,397.7961325728832,0.5848739286579641,127.12605000474984,-0.606872677803,43.6553573608,122.636894226,0
32.0,20.130266862516997,-0.5769553619318825,397.81492036502107,0.5827863132463323,129.21366740734223,-0.606872677803,43.6553573608,122.636894226,0
32.1,20.245016376820285,-0.7820275531547759,397.8337081571589,0.5806986978347006,131.3012848099347,-0.606872677803,43.6553573608,122.636894226,0
32.2,20.34082486886475,-0.6044172825101648,397.85939022138274,0.579999983311,133.69724967935056,-0.5174806599080536,43.60228885467612,124.19760680478352,0
32.300000000000004,20.427104698741182,-0.23429090333990044,397.88854058782937,0.579999983311,136.24833494309252,0.468282788992,43.0211524963,132.830490112,0
32.4,20.513384528617607,0.13583547583033762,397.917690954276,0.579999983311,138.79942020683433,0.468282788992,43.0211524963,132.830490112,0
32.5,20.574522273600003,-0.020493411750867135,397.92923487468437,0.579999983311,140.84999773111048,0.5950393344786565,42.47975512285174,138.5508238770132,0
32.6,20.63351452509135,-0.2217472271137142,397.9392763534482,0.579999983311,142.85786455331993,0.612672328949,42.4043655396,139.18711853,0
32.7,20.692506776582693,-0.42300104247656123,397.949317832212,0.579999983311,144.8657313755294,0.612672328949,42.4043655396,139.18711853,0
32.800000000000004,20.75149902807404,-0.6242548578394084,397.9593593109758,0.579999983311,146.8735981977389,0.612672328949,42.4043655396,139.18711853,0
32.9,20.814095772230107,-0.04022614153361648,397.9213052916808,0.5855260110904161,149.21040663226688,0.15061581583516065,42.4523938456959,144.85819823891686,0
33.0,20.876934675748284,0.5965599347202806,397.8800200894667,0.5914232920492739,151.5693142353658,-0.123623862863,42.4808998108,147.90296936,0
33.1,20.93977357926646,1.2333460109741778,397.83873488725266,0.5973205730081317,153.92822183846468,-0.123623862863,42.4808998108,147.90296936,0
33.2,21.018116472692643,1.3470182329363318,397.7907239599086,0.600000023842,156.2318808579917,-0.12794293797057904,42.695133095016025,148.46827060262098,0
33.300000000000004,21.10936936356234,1.0250994514440261,397.7371125971443,0.600000023842,158.48953500542433,-0.212396577001,45.3282852173,155.341796875,0
33.4,21.20062225443203,0.7031806699517433,397.68350123438,0.600000023842,160.7471891528568,-0.212396577001,45.3282852173,155.341796875,0
33.5,21.291826685344397,0.3815718552532443,397.6299830792218,0.5999782191538027,163.00508775532288,-0.212396577001,45.3282852173,155.341796875,0
33.6,21.360490470209147,0.2041408766609956,397.61981947436857,0.5898141901239156,165.37669207870067,-0.437209278345,41.7457351685,163.545730591,0
33.7,21.4291542550739,0.026709898068746907,397.6096558695154,0.5796501610940284,167.74829640207847,-0.437209278345,41.7457351685,163.545730591,0
33.800000000000004,21.494582001843472,-0.11826068303106545,397.60146229546336,0.5697759194191994,170.10083313867486,-0.437209278345,41.7457351685,163.545730591,0
33.9,21.49923781754921,0.3463663304252636,397.63026537365175,0.5653438068685547,172.09528568857434,-0.452076464891,38.0575828552,170.376541138,0
34.0,21.503893633254954,0.8109933438816257,397.6590684518402,0.5609116943179098,174.08973823847396,-0.452076464891,38.0575828552,170.376541138,0
34.1,21.508549448960693,1.2756203573379876,397.68787153002864,0.5564795817672648,176.0841907883736,-0.452076464891,38.0575828552,170.376541138,0
34.2,21.513205264666436,1.7402473707943498,397.71667460821703,0.5520474692166198,178.07864333827322,-0.452076464891,38.0575828552,170.376541138,0
34.300000000000004,21.484832821656493,1.8511402663951753,397.7884272441215,0.5439119440682753,179.8523292961691,-0.452076464891,38.0575828552,170.376541138,0
34.4,21.428102422448674,1.658318191546185,397.8970562314836,0.5325966808316388,181.4364657716084,0.845414876938,33.3622131348,179.668151855,0
34.5,21.37137202324085,1.4654961166971814,398.0056852188456,0.5212814175950016,183.02060224704778,0.845414876938,33.3622131348,179.668151855,0
34.6,21.314641624033026,1.2726740418481777,398.11431420620767,0.5099661543583643,184.60473872248718,0.845414876938,33.3622131348,179.668151855,0
34.7,21.252569447299607,1.1323579733713824,398.2335398137424,0.49864141208502316,186.13585878609956,0.845414876938,33.3622131348,179.668151855,0
34.800000000000004,21.151036423316935,1.379914946629056,398.4310449093296,0.4872466461505222,187.27533533427444,1.68866658211,24.5751876831,-173.889190674,0
34.9,21.04950339933427,1.6274719198867118,398.62855000491675,0.47585188021602204,188.41481188244927,1.68866658211,24.5751876831,-173.889190674,0
35.0,20.942180614265187,1.899733319244037,398.8333712413439,0.46382754037014917,189.308622986279,1.68866658211,24.5751876831,-173.889190674,0
35.1,20.82874530870309,2.1980763320821763,399.0459164684757,0.4511385300175512,189.94307363627118,1.76408708096,18.5678806305,-170.875259399,0
35.2,20.715310003141,2.4964193449203154,399.25846169560754,0.4384495196649533,190.57752428626333,1.76408708096,18.5678806305,-170.875259399,0
35.300000000000004,20.595882508769254,2.621203798078957,399.46850891501634,0.4265309279282323,191.08672693409454,1.76408708096,18.5678806305,-170.875259399,0
35.4,20.46451230886393,2.400078127753386,399.67357749112733,0.4161478156230345,191.34630460247402,2.23091816902,12.1689138412,-168.892623901,0
35.5,20.333142108958597,2.1789524574277985,399.8786460672383,0.40576470331783593,191.60588227085356,2.23091816902,12.1689138412,-168.892623901,0
35.6,20.201771909053264,1.9578267871022115,400.0837146433493,0.39538159101263737,191.8654599392331,2.23091816902,12.1689138412,-168.892623901,0
35.7,20.06882952115205,1.8735768886558195,400.2616210509595,0.38713524402858346,191.856762780081,2.23091816902,12.1689138412,-168.892623901,0
35.800000000000004,19.934195464059925,1.9366048773807851,400.410301053247,0.3811880496086295,191.55940277550593,1.9478648901,5.19696235657,-167.924301147,0
35.9,19.799561406967815,1.9996328661057463,400.55898105553456,0.375240855188676,191.2620427709309,1.9478648901,5.19696235657,-167.924301147,0
36.0,19.667625086307655,2.0366412802712457,400.7048801849499,0.36923044844202685,191.0256518765132,1.9478648901,5.19696235657,-167.924301147,0
36.1,19.555705121882962,1.8805926310013754,400.8301461118791,0.3627510261034122,191.24163261255205,1.5773916363828882,4.09415104338281,-168.0649398631362,0
36.2,19.443785157458272,1.7245439817315047,400.9554120388083,0.35627160376479755,191.4576133485909,1.56354999542,4.05318307877,-168.066268921,0
36.300000000000004,19.33186519303358,1.5684953324616342,401.0806779657375,0.3497921814261829,191.67359408462977,1.56354999542,4.05318307877,-168.066268921,0
36.4,19.219945228608896,1.4124466831917748,401.20594389266665,0.34331275908756875,191.8895748206686,1.56354999542,4.05318307877,-168.066268921,0
36.5,19.12868509668457,1.3722878945067807,401.3131877437333,0.3375315464527106,192.0,1.56354999542,4.05318307877,-168.066268921,0
36.6,19.05903790281838,1.4533653442250603,401.4015781017094,0.3324807542159175,192.0,-0.223930746317,-2.38142442703,-167.841918945,0
36.7,18.989390708952186,1.5344427939433398,401.48996845968554,0.32742996197912444,192.0,-0.223930746317,-2.38142442703,-167.841918945,0
36.800000000000004,18.919743515085994,1.6155202436616196,401.57835881766164,0.32237916974233133,192.0,-0.223930746317,-2.38142442703,-167.841918945,0
36.9,18.86210167483698,1.4647667247773237,401.619995117,0.3212932964616662,191.74133980126751,-0.223930746317,-2.38142442703,-167.841918945,0
37.0,18.815151066781073,1.1075587528279875,401.619995117,0.32373833701649374,191.25233268132385,-2.33244180679,-6.42705154419,-167.993850708,0
37.1,18.76820045872517,0.7503507808786516,401.619995117,0.32618337757132126,190.76332556138016,-2.33244180679,-6.42705154419,-167.993850708,0
37.2,18.721249850669263,0.3931428089293154,401.619995117,0.3286284181261488,190.2743184414365,-2.33244180679,-6.42705154419,-167.993850708,0
37.300000000000004,18.69613841831128,0.05550094042922893,401.56990703457643,0.33189013198276535,189.71648189915817,-2.33244180679,-6.42705154419,-167.993850708,0
37.4,18.69893199091847,-0.2571403409858316,401.4558189089252,0.3361953500840736,189.07069856811066,-4.99464845657,-7.91011047363,-169.470245361,0
37.5,18.701725563525667,-0.5697816224009145,401.341730783274,0.34050056818538216,188.4249152370631,-4.99464845657,-7.91011047363,-169.470245361,0
37.6,18.70451913613286,-0.8824229038159973,401.2276426576227,0.34480578628669073,187.77913190601552,-4.99464845657,-7.91011047363,-169.470245361,0
37.7,18.70731270874005,-1.19506418523108,401.1135545319715,0.3491110043879993,187.13334857496798,-4.99464845657,-7.91011047363,-169.470245361,0
37.800000000000004,18.724857896242344,-1.3237823928990764,400.96792879045125,0.3541379049104162,186.5862091349158,-5.819028725507237,-8.317091518903604,-170.92089748161496,0
37.9,18.746241829655993,-1.404639132356871,400.81409615803585,0.359352605579666,186.06473934770722,-6.67407560349,-8.71112346649,-172.302688599,0
38.0,18.76762576306964,-1.4854958718146714,400.6602635256205,0.3645673062489162,185.5432695604986,-6.67407560349,-8.71112346649,-172.302688599,0
38.1,18.789009696483287,-1.5663526112724715,400.50643089320516,0.3697820069181664,185.02179977328996,-6.67407560349,-8.71112346649,-172.302688599,0
38.2,18.8470524623756,-1.8046760398885215,400.2791923744379,0.37946302407512766,184.36913207125798,-7.4533764553403685,-8.937989769552564,-174.11359744568713,0
38.300000000000004,18.90669459227785,-2.0498694787688456,400.04875127869775,0.3893388992066746,183.7107404219816,-7.61931848526,-8.97753238678,-174.42805481,0
38.400000000000006,18.966336722180106,-2.2950629176491697,399.8183101829576,0.3992147743382215,183.05234877270524,-7.61931848526,-8.97753238678,-174.42805481,0
38.5,19.05003388298372,-2.7309298365188828,399.58504054484,0.4067172676158378,182.32827319382395,-7.632383552203689,-6.924997434098465,-176.43646593068445,0
38.6,19.135808869290706,-3.1832667495932583,399.35152658288376,0.41401475291131795,181.59852396835058,-7.63523197174,-6.50858211517,-176.822555542,0
38.7,19.217837312038025,-3.5294667120293886,399.1281017357511,0.42167901496215715,180.91604864127785,-7.63523197174,-6.50858211517,-176.822555542,0
38.800000000000004,19.282777610566047,-3.3915715370088737,398.95069376961953,0.43101616136414583,180.44919157162389,-7.105709997814403,-4.840870876045785,-178.51064410494163,0
38.900000000000006,19.347717909094065,-3.253676361988359,398.77328580348797,0.44035330776613446,179.98233450196994,-6.91017866135,-4.23463249207,-179.071365356,0
39.0,19.41265820762208,-3.1157811869678538,398.5958778373564,0.4496904541681225,179.515477432316,-6.91017866135,-4.23463249207,-179.071365356,0
39.1,19.4775985061501,-2.977886011947339,398.41846987122483,0.4590276005701111,179.04862036266206,-6.91017866135,-4.23463249207,-179.071365356,0
39.2,19.531331456695877,-2.7651687214161442,398.24591381028057,0.4644660777273044,178.77669631792006,-5.919832007742562,-3.615335549586276,117.24325992724289,0
39.300000000000004,19.58376154378116,-2.543753298151848,398.07392178732215,0.46945133136438955,178.52743339834376,-5.65830993652,-3.48736357689,179.789093018,0
39.400000000000006,19.63619163086645,-2.3223378748875514,397.9019297643637,0.47443658500147473,178.27817047876746,-5.65830993652,-3.48736357689,179.789093018,0
39.5,19.688621717951733,-2.100922451623271,397.72993774140525,0.47942183863855947,178.02890755919117,-5.65830993652,-3.48736357689,179.789093018,0
39.6,19.730069424585228,-2.087515375299732,397.5969147666343,0.4820192287428438,177.79807646203386,-3.80146932602,-2.42156076431,178.769393921,0
39.7,19.77007639561594,-2.101396101691484,397.46900398911214,0.4843033643554097,177.56966336367927,-3.80146932602,-2.42156076431,178.769393921,0
39.800000000000004,19.810083366646655,-2.1152768280832364,397.3410932115899,0.4865874999679757,177.34125026532465,-3.80146932602,-2.42156076431,178.769393921,0
39.900000000000006,19.85009033767737,-2.1291575544749883,397.21318243406773,0.48887163558054164,177.11283716697002,-3.80146932602,-2.42156076431,178.769393921,0
40.0,19.871750902649353,-1.9801387195926579,397.14693547437423,0.490000009537,177.0,-3.698491023092859,-2.2416865287916243,178.7441866429629,0
40.1,19.875499810246406,-1.672080500172101,397.14089110552294,0.490000009537,177.0,-1.4104796648,1.73761117458,177.722976685,0
40.2,19.879248717843456,-1.3640222807515445,397.1348467366716,0.490000009537,177.0,-1.4104796648,1.73761117458,177.722976685,0
40.300000000000004,19.88299762544051,-1.0559640613309877,397.1288023678203,0.490000009537,177.0,-1.4104796648,1.73761117458,177.722976685,0
40.400000000000006,19.886746533037563,-0.747905841910431,397.122757998969,0.490000009537,177.0,-1.4104796648,1.73761117458,177.722976685,0
40.5,19.86832966754355,-0.47156141007871716,397.1566245228903,0.48864330692229746,177.13566998652146,-1.4104796648,1.73761117458,177.722976685,0
40.6,19.831250099134667,-0.22191873115421457,397.2240944375809,0.4861443144475482,177.3855687275516,0.74550396204,6.47111654282,177.151977539,0
40.7,19.794170530725786,0.02772394777028797,397.29156435227145,0.4836453219727989,177.63546746858174,0.74550396204,6.47111654282,177.151977539,0
