t_sec,airspeed,climb,altitude,throttle,heading,pitch,roll,yaw,is_boundary
0.0,16.6367588043,-1.35108721256,407.039978027,0.469999998808,267.0,0.704249620438,7.0645699501,-93.930015564,0
0.1,16.576531522941327,-0.9529094536358402,406.95927376807674,0.4517763147768057,268.04135347960766,0.704249620438,7.0645699501,-93.930015564,0
0.2,16.516304241582656,-0.5547316947116804,406.8785695091534,0.43355263074561146,269.08270695921533,0.704249620438,7.0645699501,-93.930015564,0
0.30000000000000004,16.45607696022398,-0.15655393578752053,406.79786525023013,0.41532894671441717,270.12406043882305,0.859697736663326,15.858820580141668,-92.89610335429734,0
0.4,16.393625170420375,0.14080020477847602,406.7032629659032,0.39707198159653156,271.29280238835287,0.927088141441,19.5864753723,-92.4406738281,0
0.5,16.31939362852835,-0.09575112560248839,406.5350645151307,0.37863877846464794,273.13612239939806,0.927088141441,19.5864753723,-92.4406738281,0
0.6000000000000001,16.24516208663632,-0.33230245598345304,406.36686606435825,0.36020557533276426,274.9794424104432,0.927088141441,19.5864753723,-92.4406738281,0
0.7000000000000001,16.17093054474429,-0.5688537863644174,406.19866761358577,0.3417723722008806,276.8227624214884,-0.16364368978247235,27.63469297782801,-90.40894727748535,0
0.8,16.096699002852265,-0.8054051167453817,406.0304691628133,0.32333916906899696,278.6660824325336,-1.10521996021,34.5850563049,-88.642364502,0
0.9,16.02962318350356,-1.074961572788575,405.7522884704982,0.3149446595083842,280.5165999413252,-1.10521996021,34.5850563049,-88.642364502,0
1.0,15.964130388930851,-1.3518195880162924,405.44977695593167,0.3087709600121252,282.3687097166124,-1.10521996021,34.5850563049,-88.642364502,0
1.1,15.898637594358142,-1.62867760324401,405.1472654413652,0.3025972605158661,284.2208194918996,-1.10521996021,34.5850563049,-88.642364502,0
1.2000000000000002,15.833144799785432,-1.9055356184717276,404.8447539267987,0.29642356101960704,286.07292926718685,-7.20991277695,40.3153686523,-80.0547790527,0
1.3,15.767652005212723,-2.1823936336994443,404.54224241223227,0.290249861523348,287.92503904247405,-7.20991277695,40.3153686523,-80.0547790527,0
1.4000000000000001,15.729556538996261,-2.756154381016028,404.14689633892516,0.2681976107249606,289.8687756992513,-7.20991277695,40.3153686523,-80.0547790527,0
1.5,15.69261670473741,-3.342438622632589,403.7476344610748,0.24547559530256638,291.8163772201878,-7.20991277695,40.3153686523,-80.0547790527,0
1.6,15.65567687047856,-3.928722864249152,403.34837258322443,0.2227535798801721,293.7639787411244,-7.3420679736584376,40.56920190518971,-79.66545785850289,0
1.7000000000000002,15.632696004024485,-4.0255268681245875,402.943043804055,0.2058356654312697,294.8498600532555,-10.2443227768,46.13697052,-71.09349823,0
1.8,15.611640033075991,-4.054833165659753,402.5368784192535,0.18971811731561491,295.81691299783114,-10.2443227768,46.13697052,-71.09349823,0
1.9000000000000001,15.5905840621275,-4.0841394631949175,402.13071303445207,0.17360056919996011,296.7839659424068,-10.2443227768,46.13697052,-71.09349823,0
2.0,15.593294694788925,-4.122177135776016,401.66306093455154,0.18222450173093077,298.01870828810087,-10.3514871597,41.4364089966,-65.820098877,0
2.1,15.602841900940122,-4.162726428786689,401.17772189657103,0.1979654356417619,299.33045272855014,-10.3514871597,41.4364089966,-65.820098877,0
2.2,15.612389107091317,-4.203275721797363,400.6923828585905,0.21370636955259298,300.6421971689995,-10.3514871597,41.4364089966,-65.820098877,0
2.3000000000000003,15.621936313242513,-4.243825014808036,400.20704382061007,0.2294473034634241,301.95394160944875,-11.6620874405,30.2281188965,-62.4748191833,0
2.4000000000000004,15.660312293982928,-4.788476492795393,399.74584412558517,0.26015842475839573,302.82250238408545,-11.6620874405,30.2281188965,-62.4748191833,0
2.5,15.69973735554339,-5.351472279243188,399.28552286268456,0.2914143120616677,303.6749356787933,-11.6620874405,30.2281188965,-62.4748191833,0
2.6,15.739162417103849,-5.914468065690985,398.82520159978395,0.3226701993649397,304.5273689735012,-12.306495226391398,24.757978180005125,-60.55340637427863,0
2.7,15.796209547673694,-6.2103069964145075,398.36558677212633,0.3501351186043012,305.3378371541866,-13.2219409943,16.9953727722,-57.6507225037,0
2.8000000000000003,15.875185816803489,-6.1736923597789914,397.90685104194125,0.37288250643996923,306.09608338524794,-13.2219409943,16.9953727722,-57.6507225037,0
2.9000000000000004,15.954162085933282,-6.137077723143475,397.4481153117562,0.3956298942756372,306.8543296163092,-13.2219409943,16.9953727722,-57.6507225037,0
3.0,16.053901396163056,-6.09423843182477,397.0356662190136,0.41980578731287516,307.49514463711523,-13.4783706665,15.6504497528,-54.902053833,0
3.1,16.15857815238683,-6.049918919175213,396.634224077108,0.44432137853068987,308.1080345454171,-13.4783706665,15.6504497528,-54.902053833,0
3.2,16.263254908610605,-6.005599406525656,396.2327819352024,0.46883696974850464,308.72092445371896,-11.876064814009744,15.179556757065475,-53.66408073191245,0
3.3000000000000003,16.342569347614027,-5.895993877481704,395.91426164015655,0.48553976898652895,309.27698904355634,-10.7004842758,14.8443832397,-52.7554168701,0
3.4000000000000004,16.40068037736216,-5.7318079206230825,395.6650656832577,0.4957109163910591,309.785546519868,-10.7004842758,14.8443832397,-52.7554168701,0
3.5,16.45879140711029,-5.567621963764461,395.4158697263588,0.5058820637955892,310.29410399617956,-10.7004842758,14.8443832397,-52.7554168701,0
3.6,16.51690243685842,-5.403436006905839,395.16667376945986,0.5160532112001193,310.80266147249114,-6.86929702759,15.5232830048,-50.3919944763,0
3.7,16.52524055782593,-4.951206478903764,394.9850920477556,0.5241409805169905,311.4140991198065,-6.86929702759,15.5232830048,-50.3919944763,0
3.8000000000000003,16.502018542219542,-4.316333527657343,394.84638333768277,0.5309077159905036,312.0907712958478,-6.86929702759,15.5232830048,-50.3919944763,0
3.9000000000000004,16.478796526613152,-3.681460576410922,394.70767462760995,0.5376744514640166,312.76744347188907,-6.405000671257379,15.23867392204569,-50.17858563001961,0
4.0,16.42494420281367,-2.9556773986947933,394.6573367435207,0.5413321785079519,313.1332158320431,-2.00749707222,12.6628456116,-48.0254058838,0
4.1000000000000005,16.355052637520338,-2.1822900288361504,394.65327332098855,0.5433619057063077,313.33618874545397,-2.00749707222,12.6628456116,-48.0254058838,0
4.2,16.285161072227,-1.4089026589775147,394.6492098984564,0.5453916329046634,313.5391616588648,-2.00749707222,12.6628456116,-48.0254058838,0
4.3,16.21526950693367,-0.6355152891188789,394.64514647592415,0.5474213601030192,313.7421345722757,1.50772619247,10.3759670258,-46.3156013489,0
4.4,16.145377941640337,0.13787208073976354,394.641083053392,0.549451087301375,313.9451074856865,1.50772619247,10.3759670258,-46.3156013489,0
4.5,16.042949650481702,0.42342274500461263,394.7024563305721,0.550000011921,313.6325125150489,1.50772619247,10.3759670258,-46.3156013489,0
4.6000000000000005,15.928460190517729,0.5281352733130258,394.7880865992074,0.550000011921,313.1287996272041,1.50772619247,10.3759670258,-46.3156013489,0
4.7,15.813970730553756,0.6328478016214378,394.87371686784275,0.550000011921,312.6250867393593,1.50772619247,10.3759670258,-46.3156013489,0
4.800000000000001,15.699481270589782,0.737560329929851,394.9593471364781,0.550000011921,312.1213738515145,5.59204149246,3.9056930542,-45.9840698242,0
4.9,15.587192176663082,0.8377698557084617,395.08662885423576,0.5479877755206366,312.0,5.59204149246,3.9056930542,-45.9840698242,0
5.0,15.475601590802022,0.9365498995129925,395.22713285986043,0.5453367529675074,312.0,5.59204149246,3.9056930542,-45.9840698242,0
5.1000000000000005,15.36401100494096,1.0353299433175243,395.36763686548505,0.5426857304143781,312.0,6.259869342210449,2.7430890478110674,-46.568030807748364,0
5.2,15.252420419079899,1.134109987122055,395.50814087110973,0.5400347078612487,312.0,7.1787276268,1.17748582363,-47.3722114563,0
5.300000000000001,15.153771059059808,1.4370797416868928,395.6707426532415,0.5353402196519772,312.0,7.1787276268,1.17748582363,-47.3722114563,0
5.4,15.055293268957474,1.7427565668424085,395.833637399405,0.5306186399415708,312.0,7.1787276268,1.17748582363,-47.3722114563,0
5.5,14.956815478855141,2.048433391997924,395.9965321455685,0.5258970602311643,312.0,7.344776123402338,1.0249142026154097,-47.339829452607134,0
5.6000000000000005,14.858337688752805,2.3541102171534423,396.159426891732,0.5211754805207578,312.0,7.7215681076,0.698786437511,-47.2648849487,0
5.7,14.785524258381633,2.6311494713740973,396.2932095186925,0.5183926534465216,312.1607329013227,7.7215681076,0.698786437511,-47.2648849487,0
5.800000000000001,14.72121837534319,2.898695580518282,396.41734169130035,0.5162525086753489,312.3747475825244,7.7215681076,0.698786437511,-47.2648849487,0
5.9,14.656912492304748,3.166241689662464,396.5414738639082,0.5141123639041761,312.5887622637261,7.7215681076,0.698786437511,-47.2648849487,0
6.0,14.592606609266305,3.4337877988066463,396.66560603651607,0.5119722191330034,312.80277694492776,7.37653064728,1.34349942207,-47.4486465454,0
6.1000000000000005,14.531525224931938,3.6239881564291907,396.7848340509327,0.5102014681323662,312.97985221385045,7.37653064728,1.34349942207,-47.4486465454,0
6.2,14.508316616026962,2.905737760421745,396.84646114846555,0.5127693658955895,312.7230621926532,7.37653064728,1.34349942207,-47.4486465454,0
6.300000000000001,14.485108007121985,2.1874873644142934,396.90808824599833,0.5153372636588128,312.46627217145584,7.37653064728,1.34349942207,-47.4486465454,0
6.4,14.461899398217007,1.4692369684068476,396.9697153435311,0.5179051614220361,312.20948215025857,6.584538894030988,4.502378720631179,-46.9768904907272,0
6.5,14.440756504679147,0.8778478103234831,397.02579026513956,0.519999980927,311.93553903115964,5.4838309288,8.89409446716,-46.3201408386,0
6.6000000000000005,14.428760725317826,0.8482079843801466,397.0572798116683,0.519999980927,311.5856409438761,5.4838309288,8.89409446716,-46.3201408386,0
6.7,14.416764945956507,0.8185681584368103,397.088769358197,0.519999980927,311.2357428565926,5.4838309288,8.89409446716,-46.3201408386,0
6.800000000000001,14.41401593937905,0.8523214623407411,397.1132939001122,0.519999980927,311.0661467393078,5.0141658783,15.4067811966,-47.4388809204,0
6.9,14.430362515344221,1.016988412759987,397.1234349567167,0.519999980927,311.26889362548866,5.0141658783,15.4067811966,-47.4388809204,0
7.0,14.446709091309392,1.181655363179233,397.13357601332126,0.519999980927,311.47164051166953,5.0141658783,15.4067811966,-47.4388809204,0
7.1000000000000005,14.463055667274563,1.3463223135984808,397.1437170699258,0.519999980927,311.67438739785047,5.15946149826,9.41419029236,-48.867477417,0
7.2,14.479402243239734,1.5109892640177267,397.15385812653034,0.519999980927,311.87713428403134,5.15946149826,9.41419029236,-48.867477417,0
7.300000000000001,14.504224122871332,1.2617289421807762,397.15210908803164,0.519999980927,312.1315815881767,5.15946149826,9.41419029236,-48.867477417,0
7.4,14.542081918855443,0.3758045538358834,397.13207182160755,0.519999980927,312.4655496210772,5.15946149826,9.41419029236,-48.867477417,0
7.5,14.579939714839554,-0.5101198345090092,397.1120345551834,0.519999980927,312.7995176539777,5.15946149826,9.41419029236,-48.867477417,0
7.6000000000000005,14.617427581758191,-0.8688236167728699,397.0959007914799,0.5213670820632268,312.86328975599673,3.03932785988,4.41363763809,-47.3993415833,0
7.7,14.654359851678807,-0.4356940088780561,397.08562970415323,0.5247874343715482,312.5212541989653,3.03932785988,4.41363763809,-47.3993415833,0
7.800000000000001,14.691292121599423,-0.002564400983238624,397.0753586168266,0.5282077866798696,312.17921864193386,3.03932785988,4.41363763809,-47.3993415833,0
7.9,14.732181499688686,0.19930373539193677,397.0624311327328,0.52999997139,311.9161557632799,2.53824591637,3.50586700439,-46.8575820923,0
8.0,14.777426614106357,0.1466137576268481,397.0465796537902,0.52999997139,311.74002105274786,2.53824591637,3.50586700439,-46.8575820923,0
8.1,14.822671728524028,0.09392377986175945,397.03072817484764,0.52999997139,311.5638863422158,2.53824591637,3.50586700439,-46.8575820923,0
8.200000000000001,14.8679168429417,0.04123380209666985,397.01487669590506,0.52999997139,311.3877516316838,2.16187739372,2.17347455025,-47.1289215088,0
8.3,14.913161957359371,-0.011456175668418805,396.9990252169625,0.52999997139,311.21161692115174,2.16187739372,2.17347455025,-47.1289215088,0
8.4,14.958407071777042,-0.06414615343350746,396.9831737380199,0.52999997139,311.0354822106197,2.16187739372,2.17347455025,-47.1289215088,0
8.5,14.99696613333138,0.22059663358596865,396.9987450144785,0.52999997139,311.0,2.16187739372,2.17347455025,-47.1289215088,0
8.6,15.033838513624746,0.5904631150831796,397.0222432657587,0.52999997139,311.0,2.16187739372,2.17347455025,-47.1289215088,0
8.700000000000001,15.062547303640972,0.7513497880026507,397.0751291851349,0.52999997139,311.0,2.16187739372,2.17347455025,-47.1289215088,0
8.8,15.087234376956157,0.8092845050049172,397.1424926654341,0.52999997139,311.0,2.4119591713,1.24121034145,-48.1882095337,0
8.9,15.111921450271343,0.8672192220071836,397.2098561457332,0.52999997139,311.0,2.4119591713,1.24121034145,-48.1882095337,0
9.0,15.125259786897642,0.6642561532631424,397.2889180679671,0.5281182040988202,310.8118230914177,2.72889780998,0.461544632912,-48.5095176697,0
9.1,15.129412267552883,0.2501180833948764,397.3774489034064,0.5247133031072385,310.47133266753383,2.72889780998,0.461544632912,-48.5095176697,0
9.200000000000001,15.133564748208125,-0.16401998647339688,397.46597973884565,0.5213084021156568,310.1308422436499,2.72889780998,0.461544632912,-48.5095176697,0
9.3,15.126982997473288,-0.01540428264135224,397.54232494060784,0.518236371652518,309.82363890437387,3.224422793812413,0.3148572311148131,-48.44846931693168,0
9.4,15.11370197123142,0.48442823734071816,397.6110650410577,0.5153720869791962,309.53721016390324,3.25139546394,0.306915462017,-48.4450912476,0
9.5,15.100420944989553,0.9842607573227887,397.6798051415076,0.5125078023058743,309.2507814234326,3.25139546394,0.306915462017,-48.4450912476,0
9.600000000000001,15.09030221400406,1.4220766930137376,397.74347968584857,0.509999990463,309.1163197938952,3.79789972305,0.926489531994,-49.25845816434224,0
9.700000000000001,15.10243045618802,1.4236015252714773,397.77151768087765,0.509999990463,310.05095765238116,3.79789972305,0.926489531994,-49.2695884705,0
9.8,15.11455869837198,1.425126357529217,397.79955567590673,0.509999990463,310.9855955108671,3.79789972305,0.926489531994,-49.2695884705,0
9.9,15.12668694055594,1.4266511897869565,397.82759367093576,0.509999990463,311.920233369353,3.6988713080481683,0.6501894631326208,-49.54838553542072,0
10.0,15.1388151827399,1.4281760220446962,397.85563166596484,0.509999990463,312.854871227839,3.49057626724,0.0688660219312,-50.1355133057,0
10.100000000000001,15.12542801255784,0.9203991018455816,397.8885527652605,0.509999990463,312.3879051870246,3.49057626724,0.0688660219312,-50.1355133057,0
10.200000000000001,15.107350560107976,0.3190015517211484,397.922371484278,0.509999990463,311.6632941659499,3.49057626724,0.0688660219312,-50.1355133057,0
10.3,15.08927310765811,-0.28239599840328466,397.9561902032956,0.509999990463,310.9386831448752,3.376973234879795,0.2765882269872961,-49.855991137716174,0
10.4,15.071195655208244,-0.8837935485277175,397.99000892231317,0.509999990463,310.2140721238005,1.98335886002,2.73205399513,-46.4124832153,0
10.5,15.050573952894538,-0.5220163798819978,398.07539089596787,0.5051360280298272,309.75680164640306,1.98335886002,2.73205399513,-46.4124832153,0
10.600000000000001,15.028885430844396,0.24362591782430876,398.1823936618662,0.4982325760029826,309.4116287158694,1.98335886002,2.73205399513,-46.4124832153,0
10.700000000000001,15.007196908794251,1.0092682155306014,398.2893964277645,0.4913291239761382,309.0664557853358,2.17356213614728,3.2512102551726727,-46.7247967143935,0
10.8,15.007919519533994,1.0555600359460318,398.3359966024829,0.490000009537,309.5999553958959,3.81440877914,7.56523084641,-49.4268836975,0
10.9,15.013985717690142,0.9303338793597009,398.3681947151024,0.490000009537,310.3429608613252,3.81440877914,7.56523084641,-49.4268836975,0
11.0,15.020051915846292,0.80510772277337,398.4003928277219,0.490000009537,311.08596632675454,3.81440877914,7.56523084641,-49.4268836975,0
11.100000000000001,15.026118114002442,0.6798815661870368,398.4325909403414,0.490000009537,311.8289717921839,3.74023795128,8.47441864014,-50.5853042603,0
11.200000000000001,15.01911351323598,0.6152799472043091,398.41613927127594,0.4923861786056766,312.0,3.74023795128,8.47441864014,-50.5853042603,0
11.3,15.008200583449957,0.5688058077288823,398.385140721436,0.4954858414609157,312.0,3.74023795128,8.47441864014,-50.5853042603,0
11.4,14.997287653663935,0.5223316682534556,398.35414217159604,0.4985855043161547,312.0,3.39313210417736,8.360273099935798,-50.08723347509817,0
11.5,14.98161680976487,0.3492723289087416,398.3560743697952,0.4987632759562152,311.75265495535007,1.63816273212,7.78375339508,-47.422870636,0
11.600000000000001,14.961952267738251,0.06995989972623012,398.3856479805246,0.4964884704379412,311.2976934177984,1.63816273212,7.78375339508,-47.422870636,0
11.700000000000001,14.942287725711635,-0.20935252945627636,398.41522159125407,0.49421366491966723,310.84273188024684,1.63816273212,7.78375339508,-47.422870636,0
11.8,14.922623183685017,-0.4886649586387829,398.44479520198354,0.49193885940139326,310.3877703426952,2.20260930061,6.03097438812,-47.3890419006,0
11.9,14.89862361277901,-0.6817375588482888,398.47607835201455,0.48962019677181184,309.88605640136166,2.20260930061,6.03097438812,-47.3890419006,0
12.0,14.849605947794632,-0.37710732602568414,398.5172275066945,0.4870484282536141,309.114527409483,2.20260930061,6.03097438812,-47.3890419006,0
12.100000000000001,14.800588282810256,-0.07247709320307416,398.5583766613744,0.48447665973541637,308.3429984176043,2.20260930061,6.03097438812,-47.3890419006,0
12.200000000000001,14.751570617825879,0.23215313961953055,398.5995258160543,0.4819048912172187,307.57146942572564,2.566287861745079,4.732907043974093,-48.234496735688616,0
12.3,14.700980064444568,0.4022518320347826,398.65378232905573,0.479048892335835,307.0,3.0036919117,3.27849936485,-49.2572288513,0
12.4,14.645896561057361,0.1880616668015871,398.745479963603,0.4753809904520252,307.0,3.0036919117,3.27849936485,-49.2572288513,0
12.5,14.590813057670152,-0.02612849843160836,398.8371775981503,0.47171308856821537,307.0,3.0036919117,3.27849936485,-49.2572288513,0
12.600000000000001,14.544264765824352,0.13724666900861704,398.92835808838316,0.4681401134655869,307.18598871161873,3.93679690361,3.28586387634,-52.2612876892,0
12.700000000000001,14.50519626363014,0.6314993143446824,399.01908538180044,0.46465032696960223,307.53496769403847,3.93679690361,3.28586387634,-52.2612876892,0
12.8,14.466127761435926,1.1257519596807477,399.1098126752177,0.4611605404736176,307.8839466764582,3.93679690361,3.28586387634,-52.2612876892,0
12.9,14.437731064814361,1.1282110622545718,399.1760291178516,0.4584329066805449,308.0,3.39421415329,3.19644808769,-52.411907196,0
13.0,14.414651508909987,0.8856380141889569,399.23003322754647,0.45608500930056395,308.0,3.39421415329,3.19644808769,-52.411907196,0
13.100000000000001,14.391571953005611,0.6430649661233377,399.2840373372414,0.4537371119205829,308.0,3.39421415329,3.19644808769,-52.411907196,0
13.200000000000001,14.368492397101237,0.4004919180577228,399.33804144693624,0.451389214540602,308.0,2.15915727615,3.24122905731,-51.8105392456,0
13.3,14.353453564420356,0.20327498503257388,399.3746449379802,0.449999988079,307.90698087070575,2.15915727615,3.24122905731,-51.8105392456,0
13.4,14.350066681598745,0.07178437581854136,399.3860328942512,0.449999988079,307.6791661265938,2.15915727615,3.24122905731,-51.8105392456,0
13.5,14.346679798777137,-0.05970623339549119,399.3974208505222,0.449999988079,307.4513513824819,2.15915727615,3.24122905731,-51.8105392456,0
13.600000000000001,14.343292915955528,-0.19119684260952602,399.4088088067932,0.449999988079,307.22353663837004,1.5215616500094593,2.6571187994693317,-51.82328972837602,0
13.700000000000001,14.340139990789897,-0.31880617081546253,399.4200199129063,0.449999988079,306.99630331954774,0.668119192123,1.88216102123,-51.8404579163,0
13.8,14.349211660127834,-0.24361347367182312,399.42199036621895,0.449999988079,306.79945023500477,0.668119192123,1.88216102123,-51.8404579163,0
13.9,14.35828332946577,-0.16842077652818369,399.4239608195316,0.449999988079,306.60259715046186,0.668119192123,1.88216102123,-51.8404579163,0
14.0,14.367354998803707,-0.09322807938454428,399.42593127284425,0.449999988079,306.4057440659189,0.48438850856249227,1.7189784609615542,-52.00364766993378,0
14.100000000000001,14.376426668141644,-0.018035382240903508,399.4279017261569,0.449999988079,306.20889098137593,-0.254634261131,1.19331407547,-52.6894950867,0
14.200000000000001,14.38549833747958,0.0571573149027359,399.42987217946956,0.449999988079,306.01203789683296,-0.254634261131,1.19331407547,-52.6894950867,0
14.3,14.403710431750063,0.3977880675321117,399.38774035896074,0.449999988079,306.0,-0.254634261131,1.19331407547,-52.6894950867,0
14.4,14.422517885599545,0.7557080698550733,399.3427359464916,0.449999988079,306.0,-0.254634261131,1.19331407547,-52.6894950867,0
14.5,14.441325339449026,1.1136280721780352,399.29773153402243,0.449999988079,306.0,-0.6799544994271063,1.025531195759069,-53.11243465696163,0
14.600000000000001,14.461202108442095,1.1539523259130928,399.2639992395004,0.449999988079,305.9144407460274,-1.31902122498,0.776795387268,-53.7488708496,0
14.700000000000001,14.482797431578224,0.6838512921846096,399.24838297477095,0.449999988079,305.6913745921726,-1.31902122498,0.776795387268,-53.7488708496,0
14.8,14.50439275471435,0.21375025845612639,399.2327667100416,0.449999988079,305.46830843831776,-1.31902122498,0.776795387268,-53.7488708496,0
14.9,14.52598807785048,-0.2563507752723566,399.21715044531214,0.449999988079,305.24524228446296,-1.98055076599,1.89195346832,-53.7581634521,0
15.0,14.547583400986609,-0.7264518090008396,399.20153418058277,0.449999988079,305.0221761306081,-1.98055076599,1.89195346832,-53.7581634521,0
15.100000000000001,14.57358923140452,-0.8528041705745872,399.1837290440874,0.449999988079,305.2708884403698,-1.98055076599,1.89195346832,-53.7581634521,0
15.200000000000001,14.600081935107367,-0.9412103199528603,399.16568227933504,0.449999988079,305.57168009512907,-1.98055076599,1.89195346832,-53.7581634521,0
15.3,14.626574638810213,-1.0296164693311334,399.1476355145827,0.449999988079,305.8724717498884,-1.8786987245486018,2.177323781008492,-53.99341512259374,0
15.4,14.667059187313617,-0.9699916997723361,399.1210086259694,0.4510542278351981,305.89457623803196,-1.79460704327,2.4106400013,-54.1877632141,0
15.5,14.717842249152111,-0.8014107193343066,399.0880664500399,0.45288442689785985,305.7115567026732,-1.79460704327,2.4106400013,-54.1877632141,0
15.600000000000001,14.768625310990606,-0.6328297388962741,399.05512427411037,0.4547146259605217,305.5285371673144,-1.79460704327,2.4106400013,-54.1877632141,0
15.700000000000001,14.8194083728291,-0.46424875845824465,399.0221820981809,0.45654482502318344,305.3455176319556,-2.10867643356,-1.31016790867,-53.9975280762,0
15.8,14.870191434667595,-0.29566777802021516,398.9892399222514,0.45837502408584524,305.16249809659683,-2.10867643356,-1.31016790867,-53.9975280762,0
15.9,14.922409010801012,-0.10591916773381435,398.96094482138403,0.460000008345,304.96821982707957,-2.10867643356,-1.31016790867,-53.9975280762,0
16.0,14.985985724330682,0.2514443744161011,398.9694473769141,0.460000008345,304.6847897738074,-2.10867643356,-1.31016790867,-53.9975280762,0
16.1,15.049562437860356,0.608807916566023,398.9779499324442,0.460000008345,304.40135972053525,-2.10867643356,-1.31016790867,-53.9975280762,0
16.2,15.113139151390026,0.966171458715932,398.98645248797425,0.460000008345,304.11792966726307,-1.9822726457949775,1.521510800878191,-54.112304727298635,0
16.3,15.190953629272755,0.9347909411978028,398.97850782033987,0.460000008345,304.28710853267046,-1.72837936878,7.2072429657,-54.3538627625,0
16.400000000000002,15.278913429793187,0.6264052836152517,398.95884344858905,0.460000008345,304.7788003569132,-1.72837936878,7.2072429657,-54.3538627625,0
16.5,15.366873230313614,0.3180196260327115,398.9391790768383,0.460000008345,305.27049218115593,-1.72837936878,7.2072429657,-54.3538627625,0
16.6,15.454833030834045,0.00963396845016029,398.91951470508747,0.460000008345,305.7621840053987,-2.06186056137,13.5092639923,-55.4700584412,0
16.7,15.546839675960413,-0.3136288513481062,398.89332461438664,0.46312725832182844,306.5212083087621,-2.06186056137,13.5092639923,-55.4700584412,0
16.8,15.642637167881135,-0.6508277245870558,398.8610216127215,0.46918393275255926,307.5306540071086,-2.06186056137,13.5092639923,-55.4700584412,0
16.900000000000002,15.738434659801856,-0.9880265978260054,398.82871861105644,0.47524060718329014,308.5400997054551,-2.06186056137,13.5092639923,-55.4700584412,0
17.0,15.834232151722574,-1.3252254710649432,398.7964156093913,0.48129728161402074,309.5495454038015,-2.92035937309,15.5284757614,-53.6000061035,0
17.1,15.930029643643294,-1.6624243443038926,398.7641126077262,0.4873539560447516,310.558991102148,-2.92035937309,15.5284757614,-53.6000061035,0
17.2,16.05469334214009,-1.6113527217471764,398.7040823799632,0.4981032065534234,311.6752663912047,-2.92035937309,15.5284757614,-53.6000061035,0
17.3,16.201752237317,-1.259050173834578,398.62254060788905,0.5124930865963186,312.87442301379946,-2.92035937309,15.5284757614,-53.6000061035,0
17.400000000000002,16.348811132493903,-0.90674762592198,398.54099883581495,0.5268829666392137,314.07357963639424,-2.92035937309,15.5284757614,-53.6000061035,0
17.5,16.495870027670808,-0.5544450780093944,398.4594570637408,0.5412728466821085,315.27273625898897,-3.53996229172,31.3426933289,-48.9126358032,0
17.6,16.663726808567326,-0.5233609097252688,398.3647135855059,0.5543132105268402,316.75481047586595,-3.53996229172,31.3426933289,-48.9126358032,0
17.7,16.86363651665104,-0.9873265494951486,398.24962412922196,0.5652737502480603,318.6729067563199,-3.53996229172,31.3426933289,-48.9126358032,0
17.8,17.06354622473477,-1.4512921892650448,398.134534672938,0.5762342899692806,320.59100303677394,-3.53996229172,31.3426933289,-48.9126358032,0
17.900000000000002,17.26345593281849,-1.9152578290349411,398.0194452166541,0.5871948296905009,322.50909931722794,-2.158499531979606,37.395767356704766,-45.13773553813557,0
18.0,17.511558265075575,-1.9999061072859832,397.9155451445529,0.5880910494685715,325.2907113511657,-1.41805386543,40.5919456482,-43.1075286865,0
18.1,17.776237016255,-1.9540837254121344,397.81549379251777,0.5855255282352815,328.36933976720155,-1.41805386543,40.5919456482,-43.1075286865,0
18.2,18.040915767434413,-1.9082613435382871,397.7154424404827,0.5829600070019917,331.44796818323726,-1.5631848458267,41.46048327994275,-40.00741499603359,0
18.3,18.305594518613837,-1.8624389616644381,397.6153910884476,0.5803944857687017,334.52659659927315,-1.76120591164,42.6274795532,-35.7678909302,0
18.400000000000002,18.513823030436605,-1.1474794487942437,397.47675454899553,0.5923243931718037,338.0811008124214,-1.76120591164,42.6274795532,-35.7678909302,0
18.5,18.711793796718673,-0.31092898254966683,397.33110657719743,0.606888309219509,341.72207787123665,-1.76120591164,42.6274795532,-35.7678909302,0
18.6,18.912405487031094,0.3867786560033167,397.18790444246076,0.620000004768,345.2826582278481,-2.3508151896338125,42.381742059767355,-34.31464165816468,0
18.7,19.136861346924707,-0.16908703454113838,397.0667850912465,0.620000004768,348.11735908959713,-6.22042703629,40.7883987427,-24.5946063995,0
18.8,19.36131720681833,-0.7249527250856133,396.9456657400322,0.620000004768,350.95205995134626,-6.22042703629,40.7883987427,-24.5946063995,0
18.900000000000002,19.585773066711955,-1.2808184156300881,396.8245463888179,0.620000004768,353.7867608130953,-7.046642534436396,43.24011287240624,-18.39426086784841,0
19.0,19.78993995610351,-1.7273866415639363,396.72726663475464,0.6206788355641154,332.2408994792835,-7.63552236557,44.9876441956,-13.9679012299,0
19.1,19.921850829726502,-1.7847089308660193,396.71488790154336,0.6237752167580356,223.8674543471591,-7.63552236557,44.9876441956,-13.9679012299,0
19.200000000000003,20.053761703349494,-1.8420312201681022,396.7025091683321,0.6268715979519558,115.49400921503474,-7.63552236557,44.9876441956,-13.9679012299,0
19.3,20.18567257697248,-1.899353509470183,396.6901304351208,0.6299679791458759,7.1205640829142,-5.848172830606097,43.805488965853925,-7.766189892147138,0
19.400000000000002,20.199162788987046,-1.1493603924279765,396.76463533706016,0.6248525138589286,8.57374314098584,-4.51713132858,42.936088562,-3.14525461197,0
19.5,20.211415757407075,-0.3909325495389673,396.8400479878636,0.6196512522732635,11.174376413912306,-4.51713132858,42.936088562,-3.14525461197,0
19.6,20.223668725827107,0.3674952933500688,396.915460638667,0.6144499906875982,13.775009686838866,-4.246741948087404,42.961481893949895,-2.4898775251226914,0
19.700000000000003,20.221705461159058,1.1248018635041004,397.0140288311885,0.6081428411430414,16.309528848027817,-0.524871528149,43.3085136414,6.89205312729,0
19.8,20.13553728837728,1.8754669649204625,397.24975081477476,0.5952853492268037,18.45244408225561,-0.524871528149,43.3085136414,6.89205312729,0
19.900000000000002,20.049369115595496,2.6261320663368517,397.48547279836095,0.5824278573105655,20.595359316483478,-0.524871528149,43.3085136414,6.89205312729,0
20.0,19.963200942813717,3.376797167753214,397.7211947819472,0.5695703653943277,22.738274550711267,1.1707050430794472,41.385303644625495,11.60089063244984,0
20.1,19.877032770031935,4.1274622691696035,397.95691676553344,0.5567128734780895,24.881189784939135,3.05059981346,39.2528686523,16.8248443604,0
20.200000000000003,19.78379537726461,4.309063570562166,398.21766977704596,0.5443223580820015,26.85164761898342,3.05059981346,39.2528686523,16.8248443604,0
20.3,19.682835030909214,3.868976294541195,398.50576858729323,0.5324420033541648,28.633699872176987,3.05059981346,39.2528686523,16.8248443604,0
20.400000000000002,19.581874684553814,3.4288890185202083,398.7938673975405,0.5205616486263278,30.415752125370613,3.05059981346,39.2528686523,16.8248443604,0
20.5,19.479739551263247,3.0524461283958972,399.07557933725184,0.508551409093088,32.21728719685325,5.83023262024,40.3963317871,26.3724021912,0
20.6,19.368195355753276,3.1857416162628587,399.30613777800886,0.4955009007427466,34.17486337162344,5.83023262024,40.3963317871,26.3724021912,0
20.700000000000003,19.256651160243305,3.31903710412982,399.5366962187658,0.48245039239240517,36.132439546393634,5.83023262024,40.3963317871,26.3724021912,0
20.8,19.145106964733337,3.4523325919967767,399.76725465952285,0.4693998840420642,38.09001572116375,5.418395433009389,39.327930538181946,29.429305143417817,0
20.900000000000002,19.033562769223362,3.585628079863738,399.9978131002798,0.4563493756917227,40.04759189593394,5.02673006058,38.3125038147,32.6999435425,0
21.0,18.93108390847684,3.619597210331094,400.200704327334,0.44851283186839175,41.892294577346284,5.02673006058,38.3125038147,32.6999435425,0
21.1,18.837194554845013,3.559453494905442,400.37738055680177,0.44561657834532764,43.63004834848052,5.02673006058,38.3125038147,32.6999435425,0
21.200000000000003,18.743305201213186,3.4993097794797903,400.5540567862695,0.44272032482226353,45.36780211961476,5.02673006058,38.3125038147,32.6999435425,0
21.3,18.65050484549775,3.398100856368268,400.72480962129526,0.44035619010111676,47.106857688211214,2.39364361763,37.0067863464,41.7374229431,0
21.400000000000002,18.57454353190743,2.661905629158535,400.80396972962217,0.44622014359409146,48.866042792388775,2.39364361763,37.0067863464,41.7374229431,0
21.5,18.49858221831711,1.925710401948828,400.883129837949,0.45208409708706593,50.62522789656627,2.39364361763,37.0067863464,41.7374229431,0
21.6,18.42262090472679,1.1895151747390948,400.96228994627586,0.4579480505800406,52.384413000743834,1.7203915672058359,38.88567074222357,44.23249822678281,0
21.700000000000003,18.38789355959556,0.9073080459294699,400.9915257124185,0.45693204603266036,54.07378623328624,0.804882824421,41.4288520813,47.7080535889,0
21.8,18.37536203203514,0.869478002032331,400.99388772294463,0.45221263142641044,55.7255804593687,0.804882824421,41.4288520813,47.7080535889,0
21.900000000000002,18.36283050447472,0.8316479581351908,400.9962497334708,0.44749321682016036,57.37737468545122,0.804882824421,41.4288520813,47.7080535889,0
22.0,18.350298976914296,0.7938179142380519,400.998611743997,0.44277380221391044,59.02916891153369,-0.360578596592,44.2798843384,53.3462753296,0
22.1,18.358961498856406,0.6125039549466428,401.01627279549245,0.439999997616,60.751023890038915,-0.360578596592,44.2798843384,53.3462753296,0
22.200000000000003,18.397839815179964,0.22662878218447635,401.05574528401917,0.439999997616,62.57276262549963,-0.360578596592,44.2798843384,53.3462753296,0
22.3,18.43671813150352,-0.15924639057767642,401.0952177725458,0.439999997616,64.39450136096028,-0.360578596592,44.2798843384,53.3462753296,0
22.400000000000002,18.48002163654236,-0.5188989666819609,401.13202651545896,0.439999997616,66.26001032585319,-1.30984461308,41.2763519287,60.1640701294,0
22.5,18.55618044722281,-0.6838589582789139,401.149057982889,0.439999997616,68.45049622586092,-1.30984461308,41.2763519287,60.1640701294,0
22.6,18.632339257903265,-0.8488189498758727,401.1660894503191,0.439999997616,70.64098212586873,-1.30984461308,41.2763519287,60.1640701294,0
22.700000000000003,18.708498068583715,-1.0137789414728315,401.18312091774914,0.439999997616,72.83146802587655,-2.25012500793243,42.25018223448943,62.93867883931418,0
22.8,18.785256995310615,-1.171365653963027,401.2000102804285,0.43991430701256934,75.01999447333937,-3.62355589867,43.6723937988,66.9945373535,0
22.900000000000002,18.92129328508251,-0.6006456580575722,401.2028630331114,0.43136439846466745,77.01497305524934,-3.62355589867,43.6723937988,66.9945373535,0
23.0,19.057329574854396,-0.029925662152137544,401.2057157857942,0.4228144899167658,79.00995163715923,-3.62355589867,43.6723937988,66.9945373535,0
23.1,19.19336586462629,0.5407943337533172,401.20856853847704,0.4142645813688639,81.0049302190692,-3.758732328298875,44.08387729727644,68.8637216905944,0
23.200000000000003,19.291802634174143,0.6759368472207377,401.209991455,0.40351192646243556,82.48660534862321,-4.24164581299,45.5557136536,75.5711898804,0
23.3,19.352821844924822,0.3776098386641896,401.209991455,0.39056718530346285,83.45746113806668,-4.24164581299,45.5557136536,75.5711898804,0
23.400000000000002,19.413841055675505,0.07928283010763104,401.209991455,0.37762244414448964,84.42831692751018,-4.24164581299,45.5557136536,75.5711898804,0
23.5,19.4490489979545,-0.10849693724200392,401.1949358301039,0.36749063174867874,85.41822881993592,-3.75239753723,40.091632843,82.4104232788,0
23.6,19.447290823467387,-0.13795429470665344,401.15831799533396,0.3613874107112444,86.4354322857581,-3.75239753723,40.091632843,82.4104232788,0
23.700000000000003,19.445532648980276,-0.16741165217130294,401.121700160564,0.3552841896738101,87.45263575158026,-3.75239753723,40.091632843,82.4104232788,0
23.8,19.443774474493168,-0.19686900963595141,401.085082325794,0.349180968636376,88.4698392174024,-3.4213561256149565,36.501617218681204,83.81614020927641,0
23.900000000000002,19.442016300006056,-0.22632636710060092,401.04846449102405,0.34307774759894166,89.48704268322457,-2.9666018486,31.5971374512,85.7478713989,0
24.0,19.428293835829475,-0.2919181689634696,400.9877718338113,0.340000003576,90.2483964706038,-2.9666018486,31.5971374512,85.7478713989,0
24.1,19.402400391373046,-0.394268660360658,400.90258844653454,0.340000003576,90.74948061626135,-2.9666018486,31.5971374512,85.7478713989,0
24.200000000000003,19.37650694691662,-0.4966191517578463,400.81740505925785,0.340000003576,91.2505647619189,-2.9666018486,31.5971374512,85.7478713989,0
24.3,19.350613502460195,-0.598969643155031,400.73222167198116,0.340000003576,91.75164890757644,-4.22635221481,16.3882369995,90.1977462769,0
24.400000000000002,19.334943972056237,-0.7651075650105881,400.6348721641233,0.34262517234001416,92.13125836778715,-4.22635221481,16.3882369995,90.1977462769,0
24.5,19.329321090443507,-0.9939269518922478,400.5255674754997,0.3478299939115916,92.39149930675977,-4.22635221481,16.3882369995,90.1977462769,0
24.6,19.323698208830773,-1.2227463387739155,400.4162627868761,0.35303481548316923,92.6517402457324,-4.22635221481,16.3882369995,90.1977462769,0
24.700000000000003,19.318075327218043,-1.4515657256555834,400.3069580982525,0.3582396370547468,92.91198118470504,-5.00220298767,6.04932355881,92.7576904297,0
24.8,19.30422943867375,-1.6572429728575304,400.1776993073276,0.36288413640084294,92.85579375768557,-5.00220298767,6.04932355881,92.7576904297,0
24.900000000000002,19.28618095807669,-1.8510927981551333,400.0382424279845,0.36724226778551156,92.63788698064535,-5.00220298767,6.04932355881,92.7576904297,0
25.0,19.268132477479636,-2.0449426234527293,399.89878554864146,0.37160039917018006,92.41998020360512,-5.00220298767,6.04932355881,92.7576904297,0
25.1,19.250083996882577,-2.238792448750332,399.7593286692983,0.3759585305548487,92.2020734265649,-5.21695327759,-1.05341959,93.2522659302,0
25.200000000000003,19.23304110181135,-2.407133428351273,399.61734956987283,0.3804363727158255,91.97818113751237,-5.21695327759,-1.05341959,93.2522659302,0
25.3,19.228832010502934,-2.249917295724618,399.44318059027023,0.38644202586052295,91.67789864134902,-5.21695327759,-1.05341959,93.2522659302,0
25.400000000000002,19.224622919194523,-2.0927011630979573,399.26901161066763,0.39244767900522065,91.37761614518567,-5.21695327759,-1.05341959,93.2522659302,0
25.5,19.220413827886112,-1.9354850304713025,399.09484263106503,0.3984533321499181,91.07733364902232,-5.3575820294611605,-2.422551808886701,93.02737150269608,0
25.6,19.23383422079215,-1.940177990574773,398.8821016506944,0.40599596599174126,90.8001346735566,-5.84704494476,-7.17623662949,92.2361755371,0
25.700000000000003,19.253369704052627,-2.001031909172883,398.65598130726477,0.41407172807042136,90.53094261497213,-5.84704494476,-7.17623662949,92.2361755371,0
25.8,19.2729051873131,-2.0618858277709906,398.42986096383515,0.4221474901491012,90.26175055638768,-5.84704494476,-7.17623662949,92.2361755371,0
25.900000000000002,19.29235766778147,-2.135958048863265,398.2059015890847,0.43015148112698376,89.9772788822333,-5.83934879303,-6.53624582291,91.888168335,0
26.0,19.308890572814562,-2.674976451634059,398.05795304375533,0.43563096494629355,89.15535552546854,-5.83934879303,-6.53624582291,91.888168335,0
26.1,19.32542347784765,-3.2139948544048726,397.91000449842596,0.44111044876560357,88.33343216870372,-5.83934879303,-6.53624582291,91.888168335,0
26.200000000000003,19.341956382880742,-3.753013257175686,397.7620559530966,0.4465899325849136,87.51150881193891,-5.166051287769433,-5.566035719136999,91.49360751677868,0
26.3,19.345485745015928,-3.80047949580859,397.6374149755646,0.45108563226844817,86.78287160214278,-4.38442373276,-4.46620607376,90.9981002808,0
26.400000000000002,19.32758754555784,-3.0379538456102697,397.55118078828104,0.4539602279706052,86.20795362684014,-4.38442373276,-4.46620607376,90.9981002808,0
26.5,19.309689346099752,-2.275428195411977,397.4649466009975,0.45683482367276207,85.63303565153753,-4.38442373276,-4.46620607376,90.9981002808,0
26.6,19.291791146641668,-1.5129025452136577,397.37871241371397,0.4597094193749191,85.05811767623489,-2.63434553146,-1.73378670216,87.9706802368,0
26.700000000000003,19.261107821836028,-1.573069364125765,397.3592639336571,0.460000008345,85.0,-2.63434553146,-1.73378670216,87.9706802368,0
26.8,19.228986723528884,-1.7257534951348101,397.3473259564321,0.460000008345,85.0,-2.63434553146,-1.73378670216,87.9706802368,0
26.900000000000002,19.196865625221736,-1.8784376261438607,397.33538797920716,0.460000008345,85.0,-2.0615985149766582,-1.513225353514428,87.02377403377459,0
27.0,19.16474452691459,-2.031121757152906,397.3234500019822,0.460000008345,85.0,-1.11566579342,-1.14993619919,85.4482498169,0
27.1,19.118351897725088,-1.6609359932449068,397.3860863319972,0.45745742844095183,84.8728710729959,-1.11566579342,-1.14993619919,85.4482498169,0
27.200000000000003,19.066103499535522,-1.076210853921535,397.47932133570293,0.45387159951862793,84.69357972306055,-1.11566579342,-1.14993619919,85.4482498169,0
27.3,19.01385510134596,-0.4914857145981839,397.57255633940866,0.45028577059630415,84.51428837312521,-1.11566579342,-1.14993619919,85.4482498169,0
27.400000000000002,18.961606703156395,0.09323942472518798,397.6657913431144,0.4466999416739802,84.33499702318986,1.08944535255,4.68553495407,85.3448867798,0
27.5,18.909358304966833,0.6779645640485388,397.7590263468201,0.4431141127516564,84.15570567325452,1.08944535255,4.68553495407,85.3448867798,0
27.6,18.858016241406595,1.2161137165965334,397.8483251139089,0.43930590434077793,84.03470464514379,1.08944535255,4.68553495407,85.3448867798,0
27.700000000000003,18.81265753145384,1.44678195704312,397.9116380091136,0.43402961220892183,84.29851911021333,1.08944535255,4.68553495407,85.3448867798,0
27.8,18.767298821501086,1.6774501974896983,397.9749509043182,0.42875332007706596,84.56233357528286,1.08944535255,4.68553495407,85.3448867798,0
27.900000000000002,18.721940111548335,1.9081184379362848,398.0382637995228,0.42347702794520986,84.8261480403524,1.1878699440364924,4.5400896018801715,84.97099317031771,0
28.0,18.681656770925045,1.8376850216697538,398.0996910379096,0.419999986887,85.15156712159494,1.34985208511,4.30054712296,84.346572876,0
28.1,18.651181548692023,1.1853746020092766,398.1574742566966,0.419999986887,85.59603672499436,1.34985208511,4.30054712296,84.346572876,0
28.200000000000003,18.62076256344664,0.601055329566583,398.21392824963146,0.419999986887,86.0,1.34985208511,4.30054712296,84.346572876,0
28.3,18.590904420879564,0.6948011296841516,398.2571260811284,0.419999986887,86.0,0.422690302134,4.76154947281,85.6812973022,0
28.400000000000002,18.56104627831249,0.7885469298017237,398.30032391262523,0.419999986887,86.0,0.422690302134,4.76154947281,85.6812973022,0
28.5,18.531188135745413,0.8822927299192923,398.34352174412214,0.419999986887,86.0,0.3632291506246461,5.454870401530172,85.83284686240408,0
28.6,18.50949909352949,0.8626781455501875,398.3675244743381,0.419999986887,86.0,0.196531325579,7.32646751404,86.2686767578,0
28.700000000000003,18.50074103129918,0.6636238677085227,398.3611430178241,0.419999986887,86.0,0.196531325579,7.32646751404,86.2686767578,0
28.8,18.491982969068868,0.46456958986686475,398.3547615613101,0.419999986887,86.0,0.196531325579,7.32646751404,86.2686767578,0
28.900000000000002,18.489974889693634,0.23810283723730555,398.3295876725979,0.42153127583695454,86.05104296297037,-0.24799288972905031,9.261692512462153,86.3515909317772,0
29.0,18.507708059412646,-0.06853545133481964,398.24945274278735,0.4275410289912413,86.25136806015368,-0.375713437796,9.81665706635,86.3766174316,0
29.1,18.52544122913166,-0.3751737399069557,398.1693178129768,0.43355078214552834,86.451693157337,-0.375713437796,9.81665706635,86.3766174316,0
29.200000000000003,18.54317439885067,-0.6818120284790917,398.0891828831662,0.4395605352998153,86.65201825452031,-0.6884239420088354,11.940116182000429,86.5337892347392,0
29.3,18.560907568569682,-0.9884503170512169,398.00904795335566,0.44557028845410207,86.85234335170362,-0.908041715622,13.3990192413,86.6477813721,0
29.400000000000002,18.590404853671245,-1.1547553808875755,397.9087322592543,0.4516176794668656,87.3235381040111,-0.908041715622,13.3990192413,86.6477813721,0
29.5,18.652882981844296,-0.9276345123676226,397.75183954270005,0.4577705886816863,88.55411928682997,-0.908041715622,13.3990192413,86.6477813721,0
29.6,18.71536111001735,-0.7005136438476616,397.5949468261458,0.4639234978965072,89.78470046964888,-0.908041715622,13.3990192413,86.6477813721,0
29.700000000000003,18.778664606226815,-0.48324575931506775,397.437112873413,0.4701719975671813,91.01719988206916,-2.40985679626,16.0089015961,87.8213806152,0
29.8,18.907606906167103,-1.0495532660988056,397.2044255049152,0.4840224916130952,92.40224978198209,-2.40985679626,16.0089015961,87.8213806152,0
29.900000000000002,19.036549206107395,-1.6158607728825634,396.97173813641734,0.49787298565900956,93.78729968189508,-2.40985679626,16.0089015961,87.8213806152,0
30.0,19.165491506047683,-2.1821682796663016,396.73905076791954,0.5117234797049235,95.172349581808,-3.7738937309792693,18.015559680645637,90.61865432012029,0
30.1,19.313889891596578,-2.6158822838499067,396.52095750318597,0.5236482446225293,96.60804332106507,-4.36198949814,18.874420166,91.8317642212,0
30.200000000000003,19.491177499181752,-2.8527158253216913,396.3245341834017,0.5327136051620615,98.11893518336767,-4.36198949814,18.874420166,91.8317642212,0
30.3,19.668465106766917,-3.0895493667934675,396.1281108636174,0.5417789657015932,99.62982704567023,-4.36198949814,18.874420166,91.8317642212,0
30.400000000000002,19.843581938330644,-3.3014441602050213,395.93506732135523,0.551242925282326,101.15536431833281,-4.17050743103,25.9878959656,96.4295730591,0
30.5,19.997562032569277,-3.270511613643395,395.774932503437,0.5645880237500961,102.82350321766644,-4.17050743103,25.9878959656,96.4295730591,0
30.6,20.151542126807918,-3.2395790670817677,395.6147976855188,0.5779331222178666,104.49164211700013,-4.17050743103,25.9878959656,96.4295730591,0
30.700000000000003,20.308504221066645,-3.176052083910609,395.4571870860114,0.5910859244162722,106.17375206133758,-3.5465946151557906,28.51126890689511,98.2531896483774,0
30.8,20.49361686374853,-2.804828501168382,395.323405504655,0.6024234196375189,107.98775086424345,-2.57202219963,32.4416694641,101.180511475,0
30.900000000000002,20.678729506430425,-2.433604918426142,395.18962392329865,0.6137609148587659,109.80174966714938,-2.57202219963,32.4416694641,101.180511475,0
31.0,20.863842149112312,-2.0623813356839147,395.0558423419423,0.6250984100800125,111.61574847005525,-1.8795774698058585,35.15759146875175,105.65679977110281,0
31.1,21.048954791794202,-1.6911577529416746,394.92206076058596,0.6364359053012596,113.42974727296118,-1.75853931904,35.6263809204,106.448631287,0
31.200000000000003,21.233355933863532,-1.7073797645115827,394.8089504917901,0.6416523226953477,115.48710471856462,-1.75853931904,35.6263809204,106.448631287,0
31.3,21.41743085567578,-1.9012440706162776,394.705317939216,0.6440622497687158,117.65604115311072,-1.75853931904,35.6263809204,106.448631287,0
31.400000000000002,21.601505777488033,-2.0951083767209795,394.601685386642,0.6464721768420841,119.82497758765689,-1.0685749864248888,36.85624593469963,108.84209751191189,0
31.5,21.785580699300283,-2.2889726828256745,394.4980528340679,0.6488821039154524,121.99391402220297,0.588239908218,39.7848548889,114.762611389,0
31.6,21.94226591005912,-2.0288023038576695,394.4155518802589,0.6525504413145129,124.40275299333304,0.588239908218,39.7848548889,114.762611389,0
31.700000000000003,22.075253831053125,-1.3758058934477877,394.35133376332067,0.6573075420843454,127.01915311447524,0.588239908218,39.7848548889,114.762611389,0
31.8,22.208241752047122,-0.7228094830379292,394.2871156463824,0.6620646428541778,129.63555323561738,0.588239908218,39.7848548889,114.762611389,0
31.900000000000002,22.341229673041127,-0.06981307262804748,394.2228975294442,0.6668217436240103,132.25195335675957,2.23385167122,40.181602478,123.594680786,0
32.0,22.46735076757887,0.27355056035173925,394.1637789888759,0.6708533568614762,134.76800688759994,2.23385167122,40.181602478,123.594680786,0
32.1,22.579648536429517,-0.006394805823684346,394.1149261955893,0.6734245210100178,137.0820568279654,2.23385167122,40.181602478,123.594680786,0
32.2,22.69194630528016,-0.28634017199910794,394.0660734023027,0.6759956851585593,139.39610676833084,2.23385167122,40.181602478,123.594680786,0
32.300000000000004,22.804244074130807,-0.5662855381745315,394.01722060901614,0.678566849307101,141.71015670869627,1.71241283417,40.3094902039,134.072006226,0
32.4,22.88214570695376,-0.687573916170658,393.98778034871054,0.6811055560772515,143.99499498075312,1.71241283417,40.3094902039,134.072006226,0
32.5,22.916730275449197,-0.6090562764954451,393.9827874257228,0.6836033873738746,146.2430452916795,1.71241283417,40.3094902039,134.072006226,0
32.6,22.951314843944633,-0.5305386368202322,393.97779450273504,0.6861012186704977,148.49109560260584,1.71241283417,40.3094902039,134.072006226,0
32.7,22.985899412440066,-0.45202099714501925,393.9728015797473,0.6885990499671207,150.73914591353218,3.21177768707,41.6820297241,143.321899414,0
32.800000000000004,22.988711449033026,-0.25098887821363786,394.00666814384664,0.6911828097682612,153.0645319522792,3.21177768707,41.6820297241,143.321899414,0
32.9,22.950943380380306,0.10651961086018069,394.0901663230979,0.693876318070642,155.4886917363431,3.21177768707,41.6820297241,143.321899414,0
33.0,22.913175311727585,0.4640280999340246,394.1736645023492,0.696569826373023,157.91285152040717,3.21177768707,41.6820297241,143.321899414,0
33.1,22.87540724307486,0.8215365890078684,394.2571626816005,0.6992633346754039,160.33701130447125,6.05769634247,42.7160644531,152.841247559,0
33.2,22.82942256191573,1.097495823621228,394.386448961858,0.6911292276377181,162.59673649873682,6.05769634247,42.7160644531,152.841247559,0
33.300000000000004,22.78034475639023,1.3427560340522964,394.53297206456523,0.678919090385405,164.79456068014792,6.05769634247,42.7160644531,152.841247559,0
33.4,22.731266950864736,1.5880162444833474,394.67949516727253,0.6667089531330928,166.9923848615589,6.05769634247,42.7160644531,152.841247559,0
33.5,22.682189145339237,1.8332764549144156,394.8260182699798,0.6544988158807796,169.19020904297003,8.90344238281,46.0673446655,161.459365845,0
33.6,22.58368592921492,2.11490585581339,395.0371475042214,0.6423962483034911,171.26728918432295,8.90344238281,46.0673446655,161.459365845,0
33.7,22.45634748793361,2.4177533666524518,395.28596853154573,0.6303564378335651,173.27392617630673,8.90344238281,46.0673446655,161.459365845,0
33.800000000000004,22.325582980440497,2.8022912718644233,395.54066125810346,0.6177719780501041,175.27850339783976,8.90344238281,46.0673446655,161.459365845,0
33.9,22.17374071266095,3.689402812216655,395.83147770827446,0.6018367401551995,177.27040855026405,9.04019260406,40.1193885803,170.586013794,0
34.0,22.021898444881394,4.5765143525689505,396.12229415844547,0.5859015022602938,179.26231370268846,9.04019260406,40.1193885803,170.586013794,0
34.1,21.870056177101837,5.463625892921245,396.4131106086165,0.569966264365388,181.2542188551129,8.541875226360828,37.23352668101197,174.13652681351797,0
34.2,21.718213909322284,6.35073743327354,396.7039270587875,0.5540310264704823,183.24612400753733,8.3323507309,36.0211524963,175.632369995,0
34.300000000000004,21.56546391363309,7.063360778816045,396.99706526655166,0.5385518239675414,185.11585577161435,8.3323507309,36.0211524963,175.632369995,0
34.4,21.40602548452399,6.49029855585845,397.30731093671045,0.5264328380271815,186.0853744156905,8.3323507309,36.0211524963,175.632369995,0
34.5,21.246587055414878,5.917236332900816,397.61755660686924,0.5143138520868208,187.05489305976673,8.3323507309,36.0211524963,175.632369995,0
34.6,21.08714862630577,5.344174109943181,397.9278022770281,0.5021948661464599,188.02441170384296,7.555885091263642,32.65603540861983,15.470557101319912,0
34.7,20.92771019719666,4.771111886985547,398.2380479471869,0.49007588020609916,188.9939303479192,6.6364865303,28.6737003326,-174.752548218,0
34.800000000000004,20.77636662739843,4.6206283637066505,398.5305202696771,0.47202910140218557,189.89854537103852,6.6364865303,28.6737003326,-174.752548218,0
34.9,20.625074054570543,4.4728070526518895,398.82288062148945,0.453944977974336,190.80275150650388,6.6364865303,28.6737003326,-174.752548218,0
35.0,20.473781481742645,4.324985741597117,399.11524097330187,0.4358608545464851,191.7069576419693,6.5500519208206045,26.143712608386515,-172.26296735955603,0
35.1,20.33844887333719,4.232401162306734,399.37587106279307,0.42170602478589586,192.4976388233792,6.48115873337,24.1469841003,-170.279006958,0
35.2,20.21076878915047,4.166301631253483,399.62128704563264,0.4094352227183132,193.23388677189791,6.48115873337,24.1469841003,-170.279006958,0
35.300000000000004,20.083088704963757,4.1002021002002325,399.8667030284722,0.3971644206507305,193.97013472041664,6.48115873337,24.1469841003,-170.279006958,0
35.4,19.95540862077705,4.034102569146986,400.1121190113118,0.38489361858314863,194.70638266893533,5.19007539749,16.5717926025,-167.773117065,0
35.5,19.843109028606403,3.711445860871158,400.32587520052897,0.3747325833665019,194.68395517504615,5.19007539749,16.5717926025,-167.773117065,0
35.6,19.741012027124565,3.2186029280750614,400.5186299864566,0.3659710539398152,194.15826322144702,5.19007539749,16.5717926025,-167.773117065,0
35.7,19.63891502564273,2.725759995278965,400.7113847723841,0.35720952451312854,193.63257126784785,5.19007539749,16.5717926025,-167.773117065,0
35.800000000000004,19.536818024160894,2.232917062482869,400.9041395583117,0.34844799508644186,193.1068793142487,3.0780196858777567,10.68766755481376,-165.20193652432067,0
35.9,19.434721022679064,1.7400741296868079,401.0968943442393,0.3396864656597558,192.58118736064958,2.91491889954,10.2453269958,-164.997314453,0
36.0,19.33262402119723,1.2472311968907115,401.2896491301669,0.3309249362330691,192.05549540705042,2.91491889954,10.2453269958,-164.997314453,0
36.1,19.25767523770264,1.2868678474525825,401.426036839997,0.3253584393831499,191.76792143800606,2.91491889954,10.2453269958,-164.997314453,0
36.2,19.185930649174924,1.3893509213695057,401.55577177056864,0.3201690393764307,191.50845157686268,2.91491889954,10.2453269958,-164.997314453,0
36.300000000000004,19.114186060647214,1.4918339952864286,401.68550670114035,0.31497963936971146,191.24898171571934,1.630839071629124,6.956379418718781,-166.39991852419098,0
36.4,19.044271600536728,1.57771521513228,401.8136055899929,0.3098195979846089,190.98195956973868,0.43384167552,3.915995121,-167.742630005,0
36.5,19.017803192600912,1.2694792728270963,401.9028659179989,0.3053565110834173,190.5356511190417,0.43384167552,3.915995121,-167.742630005,0
36.6,18.9913347846651,0.9612433305219126,401.9921262460049,0.30089342418222575,190.0893426683447,0.43384167552,3.915995121,-167.742630005,0
36.7,18.964866376729283,0.6530073882167288,402.08138657401093,0.29643033728103413,189.6430342176477,-0.331618911500205,3.471485778983773,-167.90378617088098,0
36.800000000000004,18.93839796879347,0.3447714459115452,402.1706469020169,0.29196725037984256,189.19672576695072,-2.41616487503,2.28269648552,-168.346923828,0
36.9,18.922503833013778,0.22812784796215627,402.22608063673607,0.28839117321809726,188.83911800287657,-2.41616487503,2.28269648552,-168.346923828,0
37.0,18.914944537490765,0.26250094043187777,402.25485161421665,0.2855142538210895,188.55142578880373,-2.41616487503,2.28269648552,-168.346923828,0
37.1,18.907385241967752,0.2968740329015993,402.28362259169717,0.28263733442408173,188.26373357473088,-2.41616487503,2.28269648552,-168.346923828,0
37.2,18.900764197084904,0.32664578424409974,402.30143963809184,0.280372091821338,188.0186045214865,-5.7038936615,2.93482995033,-170.223800659,0
37.300000000000004,18.904471292785995,0.30576657303744625,402.19867724082934,0.2848401075321686,188.24200518718476,-5.7038936615,2.93482995033,-170.223800659,0
37.4,18.908178388487087,0.2848873618307942,402.09591484356685,0.2893081232429989,188.46540585288298,-5.7038936615,2.93482995033,-170.223800659,0
37.5,18.91188548418818,0.26400815062414074,401.99315244630435,0.29377613895382954,188.68880651858123,-6.941094122593733,2.3776845344812756,-170.6913773930951,0
37.6,18.915592579889275,0.24312893941748726,401.89039004904186,0.29824415466466014,188.91220718427945,-8.05717754364,1.87934982777,-171.113372803,0
37.7,18.934843027247197,-0.3970923343290897,401.6941212499589,0.3062354063303954,189.20784647205474,-8.05717754364,1.87934982777,-171.113372803,0
37.800000000000004,18.964156274125298,-1.438277000486096,401.4373162038589,0.31650760858254423,189.55025320018808,-8.05717754364,1.87934982777,-171.113372803,0
37.9,18.993469521003394,-2.479461666643029,401.18051115775893,0.3267798108346923,189.8926599283214,-8.05717754364,1.87934982777,-171.113372803,0
38.0,19.07042278920059,-2.9638697779349616,400.89524225864244,0.34087237773024054,190.18120615975917,-10.2641811371,5.18279743195,-170.463653564,0
38.1,19.16913024142494,-3.194033258322815,400.59697571847755,0.3567094634820389,190.4451577095729,-10.2641811371,5.18279743195,-170.463653564,0
38.2,19.26783769364929,-3.424196738710668,400.29870917831266,0.3725465492338373,190.7091092593866,-10.2641811371,5.18279743195,-170.463653564,0
38.300000000000004,19.36654514587364,-3.6543602190985207,400.0004426381478,0.3883836349856356,190.9730608092003,-10.7651796341,5.74456596375,-169.957351685,0
38.400000000000006,19.478800404147606,-3.776730341985762,399.7102052296475,0.39633642008526837,191.0,-10.7651796341,5.74456596375,-169.957351685,0
38.5,19.59259552698224,-3.8868485053687243,399.4208804246535,0.40339306339518705,191.0,-10.7651796341,5.74456596375,-169.957351685,0
38.6,19.708206185639664,-4.004982176428801,399.1326491046567,0.4107152445027505,191.0,-10.565461799682545,5.186840066716183,-169.4588455792408,0
38.7,19.85048984710906,-4.240875935793563,398.86048275459297,0.4219385826871298,191.0,-10.3228979111,4.51446247101,-168.853439331,0
38.800000000000004,19.992773508578455,-4.476769695158323,398.5883164045292,0.4331619208715092,191.0,-10.3228979111,4.51446247101,-168.853439331,0
38.900000000000006,20.13505717004785,-4.712663454523083,398.3161500544655,0.44438525905588855,191.0,-9.65129034121916,4.849821080482254,-168.5508143476187,0
39.0,20.248799041633543,-4.577656518829453,398.1123589189746,0.4510094289538467,191.0,-9.03107452393,5.14604330063,-168.270507812,0
39.1,20.333967979819242,-4.071344177935119,397.97701760601274,0.4530294121599828,191.0,-9.03107452393,5.14604330063,-168.270507812,0
39.2,20.41913691800494,-3.5650318370407845,397.8416762930509,0.4550493953661189,191.0,-9.03107452393,5.14604330063,-168.270507812,0
39.300000000000004,20.50430585619064,-3.05871949614645,397.706334980089,0.457069378572255,191.0,-6.17516040802,4.33707618713,-168.828735352,0
39.400000000000006,20.58947479437634,-2.5524071552521153,397.57099366712714,0.4590893617783911,191.0,-6.17516040802,4.33707618713,-168.828735352,0
39.5,20.648994273347476,-2.152410430857742,397.46206205703714,0.461409351326342,191.4228032976301,-6.17516040802,4.33707618713,-168.828735352,0
39.6,20.687458293464324,-1.8396874407770718,397.3748099844188,0.46397561394903003,192.19268281867062,-6.17516040802,4.33707618713,-168.828735352,0
39.7,20.725922313581176,-1.5269644506964015,397.2875579118005,0.46654187657171803,192.96256233971113,-6.17516040802,4.33707618713,-168.828735352,0
39.800000000000004,20.764386333698024,-1.214241460615731,397.2003058391822,0.4691081391944061,193.73244186075163,-3.41758680344,3.30246901512,-168.439834595,0
39.900000000000006,20.77083377259971,-1.060039358761213,397.1382779312913,0.47150981969436123,194.30196446525576,-3.41758680344,3.30246901512,-168.439834595,0
40.0,20.76022779270313,-0.9902723524912618,397.08968550678463,0.4738238366225311,194.76476829226573,-3.41758680344,3.30246901512,-168.439834595,0
40.1,20.749621812806552,-0.9205053462213056,397.04109308227794,0.47613785355070104,195.22757211927575,-3.41758680344,3.30246901512,-168.439834595,0
40.2,20.73901583290997,-0.8507383399513495,396.99250065777125,0.47845187047887106,195.69037594628574,-1.73848164082,4.18035411835,-165.680770874,0
40.300000000000004,20.71376678868032,-0.7781943376096196,396.9772229305406,0.47909308202200596,196.0,-1.73848164082,4.18035411835,-165.680770874,0
40.400000000000006,20.658919548552774,-0.7000371608755305,397.0292845875965,0.4763530326241839,196.0,-1.73848164082,4.18035411835,-165.680770874,0
