t_sec,airspeed,climb,altitude,throttle,heading,pitch,roll,yaw,is_boundary
0.0,24.9850406647,8.7631444931,406.549987793,0.300000011921,29.0,7.6559548378,-26.2358646393,36.979888916,0
0.1,24.756988127355175,7.756682816725908,406.8897125617717,0.2552303733130221,27.683246052561277,7.6559548378,-26.2358646393,36.979888916,0
0.2,24.528935590010345,6.750221140351814,407.22943733054336,0.21046073470504428,26.366492105122557,7.6559548378,-26.2358646393,36.979888916,0
0.30000000000000004,24.30088305266552,5.743759463977721,407.56916209931507,0.1656910960970664,25.049738157683834,7.6559548378,-26.2358646393,36.979888916,0
0.4,24.08204606121496,4.887022448643173,407.86796103035914,0.12684266654402768,23.819581208997622,7.350645600383353,-24.29650380612042,34.591897974456984,0
0.5,23.899438800515462,4.618908637890524,408.0058653059325,0.11127270711554042,22.929869198099006,6.71158885956,-20.2318992615,29.8188667297,0
0.6000000000000001,23.716831539815963,4.350794827137873,408.1437695815058,0.09570274768705314,22.04015718720039,6.71158885956,-20.2318992615,29.8188667297,0
0.7000000000000001,23.53422427911646,4.082681016385223,408.28167385707917,0.08013278825856587,21.150445176301773,6.71158885956,-20.2318992615,29.8188667297,0
0.8,23.351617018416963,3.8145672056325726,408.41957813265253,0.06456282883007862,20.260733165403156,4.212310163271077,-26.15594664345165,26.342063938227508,0
0.9,23.196825081672767,3.222117149846936,408.3751536980364,0.061514965456628275,19.697006690117977,2.39986729622,-30.4620742798,24.1016616821,0
1.0,23.05356354458115,2.4952186679686688,408.2551477997636,0.06365793761810011,19.268412328074515,2.39986729622,-30.4620742798,24.1016616821,0
1.1,22.91030200748953,1.7683201860904008,408.1351419014909,0.06580090977957194,18.83981796603105,2.39986729622,-30.4620742798,24.1016616821,0
1.2000000000000002,22.767040470397912,1.0414217042121328,408.0151360032181,0.06794388194104377,18.411223603987587,0.2504181751268808,-33.31562522656283,22.60303067166799,0
1.3,22.625768741792168,0.3078683897376855,407.88626201502245,0.06980659535675808,17.932308269052076,-3.80720496178,-38.3349075317,20.169588089,0
1.4000000000000001,22.531602396507918,-0.5832269407692428,407.547450850403,0.06503465235110485,16.26212817973657,-3.80720496178,-38.3349075317,20.169588089,0
1.5,22.437436051223667,-1.474322271276169,407.20863968578357,0.06026270934545162,14.591948090421067,-3.80720496178,-38.3349075317,20.169588089,0
1.6,22.343269705939413,-2.365417601783097,406.8698285211641,0.055490766339798395,12.921768001105562,-3.80720496178,-38.3349075317,20.169588089,0
1.7000000000000002,22.249103360655162,-3.256512932290025,406.5310173565447,0.050718823334145166,11.251587911790054,-5.4097796077041025,-39.24338474729584,18.652692950590932,0
1.8,22.190611147730188,-3.720078589552849,406.09063016822654,0.06201702173757803,9.557957502386184,-5.79839468002,-39.4643974304,18.4460964203,0
1.9000000000000001,22.138445756993708,-4.107821681723434,405.63222842992343,0.0761652663934409,7.860168168976306,-5.79839468002,-39.4643974304,18.4460964203,0
2.0,22.086280366257228,-4.495564773894016,405.1738266916203,0.09031351104930374,6.162378835566431,-5.79839468002,-39.4643974304,18.4460964203,0
2.1,22.051483391529313,-4.964300050506808,404.6592388977697,0.10749674532504784,4.583514213458832,-7.9844736809569286,-38.47030397418962,15.834598155152658,0
2.2,22.05439333375016,-5.608869759617862,404.02267089978517,0.131268957057385,3.2628357270366735,-12.302365303,-36.510597229,11.1228704453,0
2.3000000000000003,22.057303275971,-6.253439468728917,403.3861029018006,0.15504116878972216,1.9421572406145153,-12.302365303,-36.510597229,11.1228704453,0
2.4000000000000004,22.060213218191848,-6.898009177839972,402.7495349038161,0.1788133805220593,0.6214787541923572,-12.302365303,-36.510597229,11.1228704453,0
2.5,22.093414297215364,-7.256065710292474,402.10837268216795,0.21055976334246887,55.98582564743373,-15.2616481781,-38.5156974792,5.55612516403,0
2.6,22.15353943970092,-7.359457024951487,401.4631269171955,0.2493939319343744,161.73425784627085,-15.2616481781,-38.5156974792,5.55612516403,0
2.7,22.213664582186478,-7.4628483396105,400.81788115222304,0.2882281005262799,267.482690045108,-15.2616481781,-38.5156974792,5.55612516403,0
2.8000000000000003,22.284355360231203,-7.604107123797118,400.1640431622993,0.3251809013751991,353.5217622721644,-15.2616481781,-38.5156974792,5.55612516403,0
2.9000000000000004,22.402579004790294,-7.915724743873242,399.4715503201065,0.3536697720335477,350.89202026878905,-16.2958011627,-38.1720199585,0.403634101152,0
3.0,22.52080264934939,-8.227342363949365,398.77905747791357,0.38215864269189614,348.2622782654138,-16.2958011627,-38.1720199585,0.403634101152,0
3.1,22.63902629390848,-8.538959984025489,398.08656463572066,0.41064751335024474,345.63253626203846,-16.2958011627,-38.1720199585,0.403634101152,0
3.2,22.75724993846757,-8.850577604101613,397.39407179352776,0.43913638400859334,343.0027942586631,-16.78166999324133,-37.096725285435916,-3.1600233476596835,0
3.3000000000000003,22.878572837005706,-9.103396291698893,396.7696260375888,0.46638075592590145,340.36192342833425,-17.1854496002,-36.2014122009,-5.93351316452,0
3.4000000000000004,23.001806008388453,-9.31997335316101,396.1871221495654,0.49285806190855674,337.71419317439404,-17.1854496002,-36.2014122009,-5.93351316452,0
3.5,23.1250391797712,-9.536550414623129,395.60461826154204,0.519335367891212,335.0664629204538,-17.1854496002,-36.2014122009,-5.93351316452,0
3.6,23.248272351153943,-9.753127476085249,395.02211437351866,0.5458126738738673,332.41873266651356,-17.1854496002,-36.2014122009,-5.93351316452,0
3.7,23.345857011399474,-9.527780103814893,394.4832444287323,0.5683538661782267,329.5679089175281,-15.2923526764,-36.3701934814,-17.3331241608,0
3.8000000000000003,23.413833492613502,-8.792283129396399,393.9947447216685,0.586351279787136,326.4826376979171,-15.2923526764,-36.3701934814,-17.3331241608,0
3.9000000000000004,23.481809973827534,-8.056786154977903,393.5062450146047,0.6043486933960451,323.397366478306,-15.2923526764,-36.3701934814,-17.3331241608,0
4.0,23.549786455041563,-7.321289180559411,393.01774530754096,0.6223461070049543,320.3120952586951,-15.2923526764,-36.3701934814,-17.3331241608,0
4.1000000000000005,23.568455143545474,-7.302244591133416,392.6343134544987,0.6357287470303848,317.28137623605204,-10.6646308899,-37.7508544922,-28.6469402313,0
4.2,23.55063759353855,-7.8133525630718434,392.3286285572812,0.6456965976201938,314.29102414854174,-10.6646308899,-37.7508544922,-28.6469402313,0
4.3,23.532820043531622,-8.324460535010271,392.02294366006373,0.6556644482100028,311.3006720610315,-10.6646308899,-37.7508544922,-28.6469402313,0
4.4,23.445066916497627,-7.888626685285846,391.86248863861135,0.656944844047902,309.0834462934928,-10.6646308899,-37.7508544922,-28.6469402313,0
4.5,23.303479187831527,-6.723861468937057,391.8138278260474,0.6515378615063385,307.46135320686216,-5.50468063354,-36.7467918396,-40.4316635132,0
4.6000000000000005,23.16189145916542,-5.559096252588256,391.7651670134834,0.646130878964775,305.83926012023153,-5.50468063354,-36.7467918396,-40.4316635132,0
4.7,23.02030373049932,-4.394331036239468,391.71650620091947,0.6407238964232115,304.21716703360096,-5.50468063354,-36.7467918396,-40.4316635132,0
4.800000000000001,22.87871600183322,-3.2295658198906674,391.6678453883555,0.6353169138816479,302.59507394697033,-1.29397892952,-31.8916187286,-49.3300743103,0
4.9,22.735502403044297,-2.0618366144439437,391.62326281733226,0.6298366120333523,300.9891077763693,-1.29397892952,-31.8916187286,-49.3300743103,0
5.0,22.496305619495516,-0.7191284182277184,391.8194390903307,0.6200279075249903,300.33519351886224,-1.29397892952,-31.8916187286,-49.3300743103,0
5.1000000000000005,22.25710883594673,0.6235797779885188,392.0156153633291,0.610219203016628,299.6812792613552,-1.29397892952,-31.8916187286,-49.3300743103,0
5.2,22.01791205239795,1.9662879742047439,392.2117916363276,0.600410498508266,299.02736500384816,-1.29397892952,-31.8916187286,-49.3300743103,0
5.300000000000001,21.750110162677153,2.319779131880841,392.53076724283676,0.5905827690377518,298.68609183084453,0.7307923476592644,-26.790712234756388,-52.332540318789874,0
5.4,21.481058923705834,2.630065500933807,392.85510620141196,0.5807542086378902,298.3584734893335,5.98707151413,-13.6991662979,-58.9738273621,0
5.5,21.21200768473452,2.9403518699867734,393.17944515998715,0.5709256482380286,298.0308551478224,5.98707151413,-13.6991662979,-58.9738273621,0
5.6000000000000005,21.005233607110487,3.27281827324405,393.538258185837,0.5598682706692311,298.20263439524734,6.4025412685630325,-11.725106897736355,-59.22324748858647,0
5.7,20.804934628353838,3.607590785374107,393.9006555592892,0.5486831301695829,298.42633715190954,8.88713645935,-2.55397486687,-60.4817771912,0
5.800000000000001,20.60463564959719,3.942363297504167,394.26305293274146,0.5374979896699347,298.6500399085718,8.88713645935,-2.55397486687,-60.4817771912,0
5.9,20.40433667084054,4.277135809634224,394.62545030619367,0.5263128491702866,298.87374266523403,9.319621638466996,0.05621650847649873,-60.66245124353735,0
6.0,20.23453730592485,4.443194693920815,394.9547858784165,0.5160381297175592,299.29713890269124,10.6226606369,7.8996295929,-61.1439971924,0
6.1000000000000005,20.104255446090633,4.390656002500898,395.24128419030876,0.5069430176046354,299.9792724534536,10.6226606369,7.8996295929,-61.1439971924,0
6.2,19.973973586256417,4.338117311080982,395.52778250220103,0.4978479054917117,300.6614060042159,10.6226606369,7.8996295929,-61.1439971924,0
6.300000000000001,19.8436917264222,4.285578619661065,395.8142808140933,0.48875279337878785,301.34353955497824,10.6226606369,7.8996295929,-61.1439971924,0
6.4,19.715229523897776,4.2379226311922125,396.09730229241694,0.47977859815243856,302.0110695664851,10.335725982842291,13.445367713549677,-60.3124961853,0
6.5,19.6332958972084,4.315117191953792,396.29142125404485,0.4738962436240283,302.305187573406,10.3341627121,13.4763946533,-60.3124961853,0
6.6000000000000005,19.551362270519018,4.392311752715373,396.48554021567276,0.46801388909561803,302.5993055803268,10.3341627121,13.4763946533,-60.3124961853,0
6.7,19.46942864382964,4.469506313476953,396.67965917730066,0.4621315345672078,302.8934235872477,10.3341627121,13.4763946533,-60.3124961853,0
6.800000000000001,19.38581562362676,4.190354322979447,396.82435603612265,0.45838353947358135,303.16164655954896,7.53650856018,12.9016599655,-57.9140396118,0
6.9,19.301248235209925,3.708697190632067,396.94096722972955,0.45584846129628914,303.4151538635203,7.53650856018,12.9016599655,-57.9140396118,0
7.0,19.216680846793093,3.2270400582846865,397.05757842333645,0.4533133831189969,303.66866116749156,7.53650856018,12.9016599655,-57.9140396118,0
7.1000000000000005,19.13211345837626,2.745382925937302,397.17418961694335,0.4507783049417047,303.9221684714629,6.623578813219627,12.102263322847156,-57.266275826971395,0
7.2,19.072066507882834,2.3661703056315355,397.2709173351751,0.4482080328353503,304.1791956952639,5.36588525772,11.0503005981,-56.4150161743,0
7.300000000000001,19.022883110769264,2.0323447794924325,397.3588358634246,0.445622168384022,304.4377823870109,5.36588525772,11.0503005981,-56.4150161743,0
7.4,18.973699713655698,1.6985192533533322,397.4467543916741,0.4430363039326938,304.6963690787578,5.36588525772,11.0503005981,-56.4150161743,0
7.5,18.92451631654213,1.3646937272142319,397.5346729199236,0.44045043948136553,304.95495577050474,4.7988219725740064,11.229452143684263,-56.129829231084436,0
7.6000000000000005,18.91703700452799,1.0833401471919475,397.5422823384351,0.439999997616,305.61658689871945,3.32420516014,11.6952667236,-55.4549942017,0
7.7,18.918354670689993,0.8130548968968059,397.532951510349,0.439999997616,306.3632354323794,3.32420516014,11.6952667236,-55.4549942017,0
7.800000000000001,18.919672336851995,0.5427696466016618,397.5236206822629,0.439999997616,307.1098839660393,3.32420516014,11.6952667236,-55.4549942017,0
7.9,18.920990003013998,0.2724843963065202,397.5142898541768,0.439999997616,307.85653249969926,2.633728242443582,11.211999330171812,-55.270405475008566,0
8.0,18.922307669175996,0.0021991460113783834,397.5049590260907,0.439999997616,308.6031810333592,0.611056149006,9.86840629578,-54.7773857117,0
8.1,18.94466357234071,-0.24371208428947727,397.46790717482384,0.4433198473588418,309.4426466147911,0.611056149006,9.86840629578,-54.7773857117,0
8.200000000000001,18.990883586073597,-0.4619753558730946,397.39941078938966,0.45040547183474183,310.387396507373,0.611056149006,9.86840629578,-54.7773857117,0
8.3,19.03710359980648,-0.6802386274567078,397.33091440395555,0.45749109631064183,311.332146399955,0.611056149006,9.86840629578,-54.7773857117,0
8.4,19.083323613539363,-0.8985018990403212,397.2624180185214,0.4645767207865418,312.2768962925369,0.611056149006,9.86840629578,-54.7773857117,0
8.5,19.137266306524854,-1.0345040988890946,397.20361543054236,0.469999998808,313.0797136856627,-2.38679718971,11.731921196,-50.6595840454,0
8.6,19.21640364924507,-0.9021358509475645,397.176438114505,0.469999998808,313.41948716710897,-2.38679718971,11.731921196,-50.6595840454,0
8.700000000000001,19.295540991965286,-0.7697676030060322,397.1492607984676,0.469999998808,313.75926064855526,-2.38679718971,11.731921196,-50.6595840454,0
8.8,19.3654385087945,-0.7094376836313663,397.1504467831961,0.4675469706870046,314.0817676007843,-2.38679718971,11.731921196,-50.6595840454,0
8.9,19.41287518618962,-0.8242237621260411,397.22058033813204,0.4591309437602979,314.36230182052793,-3.05262637138,20.3052120209,-46.9224014282,0
9.0,19.46031186358474,-0.9390098406207159,397.2907138930679,0.45071491683359116,314.6428360402716,-3.05262637138,20.3052120209,-46.9224014282,0
9.1,19.507748540979854,-1.0537959191153907,397.3608474480038,0.44229888990688443,314.92337026001525,-3.05262637138,20.3052120209,-46.9224014282,0
9.200000000000001,19.52600393777081,-0.6054531282229096,397.45522668003883,0.43498500439649035,315.5014990529218,-2.5058837737971396,18.60745122320023,-46.164527397431044,0
9.3,19.533292660618343,0.05452022071343321,397.55871772724356,0.4280853168000328,316.19146744243403,-2.04247283936,17.1932563782,-45.5753860474,0
9.4,19.540581383465877,0.7144935696497763,397.66220877444835,0.42118562920357533,316.8814358319462,-2.04247283936,17.1932563782,-45.5753860474,0
9.5,19.533163426229702,1.1176463620696182,397.7430325152981,0.4163977766032453,317.3602213719006,-2.04247283936,17.1932563782,-45.5753860474,0
9.600000000000001,19.522693889702587,1.4675098813637457,397.81915287766543,0.4120481216045073,317.7951872865796,-1.63541853428,8.79777240753,-43.9123535156,0
9.700000000000001,19.512224353175473,1.8173734006578668,397.89527324003274,0.4076984666057694,318.23015320125864,-1.63541853428,8.79777240753,-43.9123535156,0
9.8,19.501754816648358,2.1672369199519883,397.97139360240004,0.4033488116070315,318.66511911593767,-1.947603543677713,5.622521370757891,-43.11458718287847,0
9.9,19.48646269004666,2.2410800781389586,398.0292316012723,0.4007664345386071,318.77007120715774,-2.26387262344,2.40501403809,-42.4049987793,0
10.0,19.455034351888713,1.3913691146238352,398.0258974746802,0.4040973053559087,317.77080900907083,-2.26387262344,2.40501403809,-42.4049987793,0
10.100000000000001,19.423606013730762,0.5416581511086969,398.0225633480881,0.40742817617321037,316.7715468109839,-2.26387262344,2.40501403809,-42.4049987793,0
10.200000000000001,19.390223580993233,-0.11613788731505346,398.00523788646467,0.41077636083868113,315.76709045346985,-2.26387262344,2.40501403809,-42.4049987793,0
10.3,19.350220271816834,-0.12368648168929072,397.9405068890881,0.4141832084013356,314.74503520993943,-3.40128183365,-4.80045223236,-40.5452766418,0
10.4,19.310216962640435,-0.131235076063528,397.8757758917116,0.41759005596399,313.722979966409,-3.40128183365,-4.80045223236,-40.5452766418,0
10.5,19.269358700433287,-0.18857470462462275,397.8049718113075,0.4209620588840813,312.71137898579497,-3.40128183365,-4.80045223236,-40.5452766418,0
10.600000000000001,19.226433687943732,-0.36627841199009337,397.71948675357385,0.4242498289021677,311.7250499792634,-3.9055107882230446,-9.548048467561951,-43.083849703051904,0
10.700000000000001,19.183508675454178,-0.5439821193555607,397.6340016958402,0.42753759892025406,310.73872097273187,-3.93772959709,-9.85098934174,-43.1633300781,0
10.8,19.13977720889569,-0.7398114138632176,397.54209823181077,0.43214460028493734,309.64256782554577,-3.93772959709,-9.85098934174,-43.1633300781,0
10.9,19.0936397439327,-0.9897171095261228,397.4310459087181,0.44068743462184484,308.21876215930035,-4.07077455521,-16.8480453491,-46.7933158875,0
11.0,19.04750227896971,-1.2396228051890281,397.31999358562535,0.4492302689587523,306.794956493055,-4.07077455521,-16.8480453491,-46.7933158875,0
11.100000000000001,19.001364814006717,-1.4895285008519377,397.2089412625326,0.4577731032956599,305.37115082680964,-4.07077455521,-16.8480453491,-46.7933158875,0
11.200000000000001,18.956704062074287,-1.6341309446548908,397.0839599871746,0.46662275094308747,304.00658766286955,-4.04490280151,-21.5189285278,-49.8908538818,0
11.3,18.912563977735562,-1.7416049893574204,396.954067565298,0.47558057651323926,302.6629125458838,-4.04490280151,-21.5189285278,-49.8908538818,0
11.4,18.880568503280138,-1.6941243713401115,396.819025738675,0.48283832648662556,301.2904160767499,-4.04490280151,-21.5189285278,-49.8908538818,0
11.5,18.860399199355026,-1.4957520998731928,396.6789695279552,0.48844057792074513,299.88985396955155,-4.04490280151,-21.5189285278,-49.8908538818,0
11.600000000000001,18.84022989542991,-1.2973798284062708,396.5389133172353,0.49404282935486477,298.4892918623532,-3.75133061409,-25.8393135071,-54.5487861633,0
11.700000000000001,18.8200605915048,-1.099007556939352,396.3988571065155,0.4996450807889843,297.0887297551549,-3.75133061409,-25.8393135071,-54.5487861633,0
11.8,18.809524853869984,-1.1582352565417942,396.2594072527921,0.503577541022766,295.0323505610298,-3.5186548233,-31.0424518585,-57.8078994751,0
11.9,18.799640711674847,-1.2348865105529039,396.11999841186105,0.507397059870299,292.9316131915184,-3.5186548233,-31.0424518585,-57.8078994751,0
12.0,18.789756569479707,-1.3115377645640134,395.98058957092996,0.5112165787178321,290.8308758220071,-3.5186548233,-31.0424518585,-57.8078994751,0
12.100000000000001,18.77987242728457,-1.3881890185751244,395.8411807299989,0.5150360975653652,288.7301384524957,-3.0915603021782383,-30.718199427597625,-60.3322715825375,0
12.200000000000001,18.76998828508943,-1.464840272586234,395.7017718890678,0.5188556164128981,286.6294010829843,-2.70891952515,-30.4272937775,-62.3624343872,0
12.3,18.74634019900998,-1.6623844077952699,395.5774297246668,0.5257606485366038,284.46382355784743,-2.70891952515,-30.4272937775,-62.3624343872,0
12.4,18.716804239936263,-1.9116435119395676,395.45953270989725,0.5339855865277636,282.2705090261911,-2.70891952515,-30.4272937775,-62.3624343872,0
12.5,18.687268280862547,-2.160902616083866,395.34163569512776,0.5422105245189235,280.07719449453487,-2.70891952515,-30.4272937775,-62.3624343872,0
12.600000000000001,18.65794137533019,-2.386168777243238,395.224503322492,0.5501659926527203,277.90041146599026,-2.70891952515,-30.4272937775,-62.3624343872,0
12.700000000000001,18.632354090245276,-2.1822410601414823,395.12104912693894,0.5533010928462916,276.01934955587876,-2.93279457092,-30.6457099915,-73.6632537842,0
12.8,18.60676680516036,-1.9783133430397268,395.0175949313858,0.5564361930398628,274.13828764576726,-2.93279457092,-30.6457099915,-73.6632537842,0
12.9,18.581179520075445,-1.7743856259379713,394.91414073583275,0.5595712932334341,272.2572257356557,-2.93279457092,-30.6457099915,-73.6632537842,0
13.0,18.549196530140556,-1.3655993409099338,394.8204949425509,0.562741262228778,270.08111627861604,-2.2204544639379997,-34.40511356003361,-81.38889877555734,0
13.100000000000001,18.516200420833805,-0.9243621863488972,394.72840286110863,0.5659167546588921,267.85826945760704,-2.18715667725,-34.5181694031,-81.5590438843,0
13.200000000000001,18.48320431152705,-0.48312503178786836,394.63631077966636,0.5690922470890063,265.6354226365981,-2.18715667725,-34.5181694031,-81.5590438843,0
13.3,18.43317358331372,-0.5333369215923968,394.57357836988496,0.5736410209226754,263.5435873808219,-1.6371187100974747,-34.061031761648515,-83.92432802124699,0
13.4,18.37632414680215,-0.7802686614477712,394.52259820639006,0.5787394991761255,261.5041941345745,-0.741038680077,-33.3144989014,-87.4211196899,0
13.5,18.319474710290585,-1.0272004013031455,394.47161804289516,0.5838379774295758,259.4648008883271,-0.741038680077,-33.3144989014,-87.4211196899,0
13.600000000000001,18.26262527377902,-1.2741321411585242,394.42063787940026,0.588936455683026,257.4254076420796,-0.44265920907751005,-32.893965914495084,-89.48414034576368,0
13.700000000000001,18.21292174934095,-1.0187166857120218,394.3861360546296,0.5881640746864375,255.347689245385,0.331737071276,-31.8012142181,-94.3468170166,0
13.8,18.1651017148162,-0.6308946367328238,394.35597752214363,0.5858442769197795,253.25986926423886,0.331737071276,-31.8012142181,-94.3468170166,0
13.9,18.117281680291452,-0.24307258775362595,394.32581898965765,0.5835244791531214,251.17204928309272,0.331737071276,-31.8012142181,-94.3468170166,0
14.0,18.069461645766705,0.14474946122557197,394.2956604571716,0.5812046813864634,249.08422930194658,0.46242309571367135,-32.14308404543187,-95.1090416224536,0
14.100000000000001,18.004692759255136,0.3331745082236649,394.2643464300849,0.5789564519136283,247.0608208467643,2.04019880295,-36.2920532227,-102.928916931,0
14.200000000000001,17.921613178613647,0.30618098194381993,394.2317840642777,0.5767855412549887,245.10699939082448,2.04019880295,-36.2920532227,-102.928916931,0
14.3,17.83853359797216,0.279187455663975,394.1992216984705,0.5746146305963491,243.1531779348847,2.04019880295,-36.2920532227,-102.928916931,0
14.4,17.75545401733067,0.25219392938413004,394.1666593326633,0.5724437199377095,241.19935647894488,2.04019880295,-36.2920532227,-102.928916931,0
14.5,17.672374436689186,0.22520040310428513,394.13409696685613,0.5702728092790699,239.2455350230051,3.68089318275,-32.0932846069,-111.388656616,0
14.600000000000001,17.55827756793397,0.3043008794333565,394.14544573348184,0.5674264154764177,237.45585210499678,3.68089318275,-32.0932846069,-111.388656616,0
14.700000000000001,17.43972252963311,0.3986504339433783,394.16310592464635,0.5644829332896942,235.6897611086417,3.68089318275,-32.0932846069,-111.388656616,0
14.8,17.321167491332247,0.4929999884534001,394.18076611581085,0.5615394511029708,233.92367011228663,3.68089318275,-32.0932846069,-111.388656616,0
14.9,17.19247921453446,0.4824371902844031,394.2281724835924,0.5572735614909626,232.4547113013507,3.9083240451405734,-29.361696308325175,-115.26089365823938,0
15.0,17.05268037564438,0.35684352522700646,394.30819396671063,0.5515577218146798,231.3115422758538,4.3110370636,-24.5159263611,-121.217498779,0
15.100000000000001,16.912881536754295,0.23124986016960758,394.38821544982886,0.5458418821383968,230.16837325035692,4.3110370636,-24.5159263611,-121.217498779,0
15.200000000000001,16.773082697864215,0.10565619511221092,394.4682369329471,0.5401260424621139,229.02520422486006,4.3110370636,-24.5159263611,-121.217498779,0
15.3,16.641361566752884,0.23269116730632028,394.5664011248197,0.5352976195960903,228.52976076677234,5.273078304732013,-19.874045857793092,-126.3262769523696,0
15.4,16.50982254545672,0.36542158624056686,394.6649743393295,0.5304892033106117,228.0489201126721,5.35003328323,-19.5396442413,-126.587501526,0
15.5,16.37828352416056,0.4981520051748135,394.7635475538393,0.5256807870251331,227.56807945857187,5.35003328323,-19.5396442413,-126.587501526,0
15.600000000000001,16.246744502864395,0.6308824241090625,394.8621207683491,0.5208723707396543,227.08723880447164,5.627167109259105,-15.863271802974614,-128.71843447941524,0
15.700000000000001,16.124492211166167,1.1930730203376818,394.95800987893944,0.5156661978253689,227.0,5.95825767517,-11.7206678391,-130.950088501,0
15.8,16.00429825122715,1.8504501419108665,395.05330407866427,0.5103718652319545,227.0,5.95825767517,-11.7206678391,-130.950088501,0
15.9,15.884104291288132,2.507827263484051,395.1485982783891,0.5050775326385403,227.0,5.95825767517,-11.7206678391,-130.950088501,0
16.0,15.765686141871047,3.1143827890593414,395.2443870867989,0.4998900771077111,226.97801540057552,5.95825767517,-11.720614068349517,-130.99442937474683,0
16.1,15.688858111281293,2.530678323243495,395.351759807864,0.497205720684549,226.44114360392845,5.93867206573,-4.10222053528,-132.941604614,0
16.2,15.612030080691543,1.9469738574276698,395.45913252892916,0.49452136426138693,225.90427180728142,5.93867206573,-4.10222053528,-132.941604614,0
16.3,15.53520205010179,1.363269391611824,395.5665052499943,0.4918370078382248,225.36740001063436,5.93867206573,-4.10222053528,-132.941604614,0
16.400000000000002,15.466118652093499,0.9328661810419867,395.6575945148948,0.4893478189521644,224.93478107368912,5.875128788388666,-2.1199353596600004,-132.77275550545767,0
16.5,15.413824940201906,0.8348066846253708,395.7133826709276,0.4872817362178341,224.72817321896756,5.68460035324,3.35669803619,-132.324279785,0
16.6,15.36153122831031,0.7367471882087514,395.7691708269605,0.48521565348350376,224.52156536424602,5.68460035324,3.35669803619,-132.324279785,0
16.7,15.309237516418717,0.6386876917921355,395.8249589829933,0.4831495707491735,224.31495750952445,5.68460035324,3.35669803619,-132.324279785,0
16.8,15.256943804527124,0.5406281953755161,395.88074713902614,0.48108348801484313,224.1083496548029,4.74425268173,5.51226234436,-134.292388916,0
16.900000000000002,15.216565779204785,0.5032939019658549,395.9036414323614,0.479999989271,224.31804353987903,4.74425268173,5.51226234436,-134.292388916,0
17.0,15.18932722242133,0.5329214986486931,395.89026355023077,0.479999989271,224.9867947844251,4.74425268173,5.51226234436,-134.292388916,0
17.1,15.162088665637876,0.5625490953315324,395.87688566810016,0.479999989271,225.65554602897117,4.74425268173,5.51226234436,-134.292388916,0
17.2,15.150799646812178,0.3743455457268384,395.82952233615543,0.4822483791916212,226.2248388714473,4.74425268173,5.51226234436,-134.292388916,0
17.3,15.156451509499421,-0.04522844538271886,395.74606118871355,0.48688490771168114,226.68849147472685,2.43647193909,7.72286081314,-135.7265625,0
17.400000000000002,15.162103372186662,-0.46480243649227604,395.6626000412716,0.491521436231741,227.15214407800642,2.43647193909,7.72286081314,-135.7265625,0
17.5,15.167755234873903,-0.8843764276018182,395.57913889382974,0.4961579647518007,227.61579668128593,2.43647193909,7.72286081314,-135.7265625,0
17.6,15.173442950999956,-1.2409233144510192,395.4994650336689,0.5003755089340461,228.0,0.82096940279,7.23264026642,-133.576843262,0
17.7,15.179304048299349,-1.2926817723269344,395.43810585500927,0.5025669156380512,228.0,0.82096940279,7.23264026642,-133.576843262,0
17.8,15.18516514559874,-1.344440230202851,395.3767466763497,0.5047583223420564,228.0,0.82096940279,7.23264026642,-133.576843262,0
17.900000000000002,15.191026242898133,-1.396198688078768,395.31538749769004,0.5069497290460615,228.0,0.82096940279,7.23264026642,-133.576843262,0
18.0,15.196887340197524,-1.4479571459546832,395.2540283190304,0.5091411357500666,228.0,0.8224030032676534,8.629165804666073,-132.71020408703822,0
18.1,15.204023288802485,-1.4232427519905468,395.19353508835644,0.5117355537452887,228.34711298746467,0.824362516403,10.4914989471,-131.626724243,0
18.2,15.211980902948012,-1.349240172909173,395.13359997737587,0.5145897200648883,228.91794679573172,0.824362516403,10.4914989471,-131.626724243,0
18.3,15.219938517093539,-1.2752375938277964,395.07366486639523,0.517443886384488,229.4887806039988,0.824362516403,10.4914989471,-131.626724243,0
18.400000000000002,15.227103160187744,-1.213779861843159,395.01572474969805,0.519999980927,230.05330208382247,0.824362516403,10.4914989471,-131.626724243,0
18.5,15.227467733189922,-1.2598996251648613,394.9748925727396,0.519999980927,230.56369261424072,1.63762843609,9.5898809433,-131.625762939,0
18.6,15.2278323061921,-1.3060193884865652,394.93406039578105,0.519999980927,231.07408314465897,1.63762843609,9.5898809433,-131.625762939,0
18.7,15.228196879194279,-1.3521391518082675,394.8932282188225,0.519999980927,231.58447367507722,1.63762843609,9.5898809433,-131.625762939,0
18.8,15.229256092254106,-1.3249380099114851,394.8529553214986,0.5204135533123377,232.0,1.6774969603339107,8.60411376983219,-129.643349479086,0
18.900000000000002,15.233357983306032,-0.976574991136935,394.8151321933994,0.522638664754703,232.0,1.67873322964,8.57929420471,-129.643234253,0
19.0,15.237459874357956,-0.6282119723623973,394.7773090653002,0.5248637761970683,232.0,1.67873322964,8.57929420471,-129.643234253,0
19.1,15.24156176540988,-0.2798489535878472,394.73948593720104,0.5270888876394335,232.0,1.67873322964,8.57929420471,-129.643234253,0
19.200000000000003,15.245663656461806,0.06851406518670289,394.70166280910183,0.5293139990817988,232.0,1.5560888414391014,7.071572202948226,-128.3948287883983,0
19.3,15.24225969550288,-0.04772351381028869,394.66620622137685,0.52999997139,231.76205232571516,1.47234106064,6.05133104324,-127.627601624,0
19.400000000000002,15.23551048360815,-0.37102693719445956,394.63180436686406,0.52999997139,231.41805477475756,1.47234106064,6.05133104324,-127.627601624,0
19.5,15.22876127171342,-0.694330360578619,394.5974025123512,0.52999997139,231.07405722379997,1.47234106064,6.05133104324,-127.627601624,0
19.6,15.209266626485629,-0.6471374185374006,394.56947403196375,0.52999997139,230.74352596381303,1.6042455381034808,4.855745518836141,-127.43791514254451,0
19.700000000000003,15.18627531435107,-0.49830004070442957,394.54332150006604,0.52999997139,230.41668913560915,1.91385400295,2.14654922485,-127.053062439,0
19.8,15.163284002216514,-0.3494626628714639,394.51716896816833,0.52999997139,230.08985230740524,1.91385400295,2.14654922485,-127.053062439,0
19.900000000000002,15.132166853299942,-0.13413102934387014,394.52230788158676,0.52999997139,229.64779017730328,2.0886198596544423,1.2634284788493444,-127.8289228513818,0
20.0,15.097968806179548,0.1064117963882596,394.5393108971592,0.52999997139,229.16204055566337,2.25703525543,0.412333339453,-128.50642395,0
20.1,15.063770759059153,0.34695462212039785,394.55631391273175,0.52999997139,228.67629093402346,2.25703525543,0.412333339453,-128.50642395,0
20.200000000000003,15.029572711938759,0.5874974478525361,394.5733169283043,0.52999997139,228.19054131238354,2.3316046792155545,0.4539545257159427,-128.71994640267764,0
20.3,14.985326221921438,0.5078001994272844,394.6198330498256,0.5287547986443907,228.0,2.76377534866,0.694949567318,-129.764175415,0
20.400000000000002,14.934593994758657,0.22140496149940564,394.6853983165223,0.5267059329075837,228.0,2.76377534866,0.694949567318,-129.764175415,0
20.5,14.883861767595878,-0.06499027642846289,394.75096358321895,0.5246570671707769,228.0,2.76377534866,0.694949567318,-129.764175415,0
20.6,14.833129540433097,-0.3513855143563418,394.81652884991564,0.5226082014339699,228.0,2.76377534866,0.694949567318,-129.764175415,0
20.700000000000003,14.782397313270316,-0.6377807522842205,394.88209411661234,0.520559335697163,228.0,3.77843809128,1.9193533659,-131.190246582,0
20.8,14.744916048926946,-0.43260122136200635,394.93013603581306,0.5181161421132919,227.81161593898614,3.77843809128,1.9193533659,-131.190246582,0
20.900000000000002,14.712410907236091,-0.0428210409610863,394.9715974274241,0.5155248669327067,227.5524881738234,3.77843809128,1.9193533659,-131.190246582,0
21.0,14.679905765545238,0.34695913943981993,395.0130588190351,0.5129335917521217,227.29336040866065,3.77843809128,1.9193533659,-131.190246582,0
21.1,14.647400623854383,0.7367393198407401,395.05452021064616,0.5103423165715366,227.03423264349792,3.7780934888745055,1.898087797325912,-131.2313921028532,0
21.200000000000003,14.613863968042782,0.5040793381735007,395.0828563936067,0.509999990463,227.41567053064503,3.77242660522,1.56207787991,-131.674804688,0
21.3,14.580170299242651,0.17667398360034536,395.1091947093603,0.509999990463,227.89461278093793,3.77242660522,1.56207787991,-131.674804688,0
21.400000000000002,14.54647663044252,-0.15073137097282163,395.1355330251139,0.509999990463,228.37355503123086,3.77242660522,1.56207787991,-131.674804688,0
21.5,14.512782961642388,-0.47813672554597686,395.16187134086744,0.509999990463,228.8524972815238,3.5944735591553356,2.833093176073663,-131.84600558224182,0
21.6,14.486493779042227,-0.4840664504174173,395.18800913175596,0.509999990463,229.30044925504714,3.30934238434,4.87044000626,-132.09375,0
21.700000000000003,14.463499863718813,-0.34692775781632024,395.21405768174264,0.509999990463,229.7346094215257,3.30934238434,4.87044000626,-132.09375,0
21.8,14.440505948395398,-0.20978906521522805,395.2401062317293,0.509999990463,230.16876958800424,3.30934238434,4.87044000626,-132.09375,0
21.900000000000002,14.417512033071981,-0.07265037261413099,395.266154781716,0.509999990463,230.60292975448277,3.30934238434,4.87044000626,-132.09375,0
22.0,14.396356199736767,0.05771408192186584,395.28898530740634,0.509999990463,231.03971848061778,2.67564797401,4.35038900375,-130.899200439,0
22.1,14.394878156146541,0.11555618262202866,395.27736491855416,0.509999990463,231.5046475424854,2.67564797401,4.35038900375,-130.899200439,0
22.200000000000003,14.393400112556318,0.17339828332219148,395.265744529702,0.509999990463,231.96957660435305,2.67564797401,4.35038900375,-130.899200439,0
22.3,14.391922068966094,0.23124038402235228,395.2541241408498,0.509999990463,232.43450566622067,2.67564797401,4.35038900375,-130.899200439,0
22.400000000000002,14.39044402537587,0.2890824847225151,395.2425037519977,0.509999990463,232.8994347280883,1.7830800787468055,5.25339794159,-128.689743042,0
22.5,14.400127496357603,0.30185102643283684,395.1870986176023,0.5126444073590257,233.2644419417744,1.77849853039,5.25339794159,-128.689743042,0
22.6,14.41289157188572,0.3021791587479503,395.1196087893859,0.5160186896026179,233.60187048790547,1.77849853039,5.25339794159,-128.689743042,0
22.700000000000003,14.425655647413835,0.3025072910630638,395.0521189611694,0.5193929718462099,233.93929903403657,1.77849853039,5.25339794159,-128.689743042,0
22.8,14.434265785060747,0.052943130799599586,395.06064953495684,0.5179329582736126,234.0,1.564818215868656,5.912204264781447,-127.97710793052511,0
22.900000000000002,14.441964744856184,-0.25143560030336526,395.08585539579656,0.5154125284403088,234.0,1.18110251427,7.06691598892,-126.813568115,0
23.0,14.44966370465162,-0.5558143314063193,395.1110612566363,0.512892098607005,234.0,1.18110251427,7.06691598892,-126.813568115,0
23.1,14.457362664447057,-0.860193062509284,395.136267117476,0.5103716687737011,234.0,1.2727823790658082,6.947543963318275,-126.41951092379672,0
23.200000000000003,14.440576229783744,-0.6966746164252362,395.24229977205556,0.5044193228782654,233.62795550913359,1.41522955894,6.76188373566,-125.853813171,0
23.3,14.419554456621054,-0.45222208812213555,395.3623133666557,0.49787334447063714,233.19155696596462,1.41522955894,6.76188373566,-125.853813171,0
23.400000000000002,14.398532683458363,-0.20776955981902612,395.48232696125586,0.4913273660630086,232.7551584227956,1.41522955894,6.76188373566,-125.853813171,0
23.5,14.377510910295673,0.036682968484074596,395.60234055585596,0.48478138765538026,232.3187598796266,1.833445019606053,7.514274582937357,-125.85227144153617,0
23.6,14.357381343898167,0.3624086480403593,395.7169961373579,0.479999989271,232.0,3.09361457825,9.78665065765,-125.848091125,0
23.700000000000003,14.33966934764731,0.9083563118510475,395.8171333661451,0.479999989271,232.0,3.09361457825,9.78665065765,-125.848091125,0
23.8,14.321957351396456,1.4543039756617164,395.9172705949322,0.479999989271,232.0,3.09361457825,9.78665065765,-125.848091125,0
23.900000000000002,14.316279198150653,1.6768242024964573,395.99278526114847,0.4790854578187944,231.817093535121,3.09361457825,9.78665065765,-125.848091125,0
24.0,14.330763858575711,1.3574388098999315,396.02704459928657,0.4766386205803802,231.32772562072796,3.33593940735,2.37771821022,-127.55255127,0
24.1,14.345248519000771,1.0380534173033942,396.0613039374247,0.47419178334196593,230.83835770633493,3.33593940735,2.37771821022,-127.55255127,0
24.200000000000003,14.359733179425831,0.7186680247068571,396.0955632755628,0.4717449461035516,230.3489897919419,3.33593940735,2.37771821022,-127.55255127,0
24.3,14.37537383565468,0.4413526006238559,396.11788536209343,0.47070327839629866,229.78901592229488,1.867621556077719,-0.6174721161372871,-127.60178123005316,0
24.400000000000002,14.393888377984906,0.2686260490957514,396.1105306095119,0.4731549600355138,229.05351072907902,1.81927514076,-0.717605769634,-127.602027893,0
24.5,14.412402920315133,0.09589949756765292,396.10317585693036,0.47560664167472894,228.3180055358632,1.81927514076,-0.717605769634,-127.602027893,0
24.6,14.43091746264536,-0.07682705396045159,396.09582110434883,0.47805832331394416,227.58250034264734,1.81927514076,-0.717605769634,-127.602027893,0
24.700000000000003,14.45167393555301,-0.23217163301082747,396.07445866526916,0.48059757083335886,227.17927410539076,0.671266615391,5.15127277374,-129.854385376,0
24.8,14.480965597539235,-0.3213418072201606,395.99976796793794,0.4834701878834187,228.04105747391853,0.671266615391,5.15127277374,-129.854385376,0
24.900000000000002,14.51025725952546,-0.41051198142949685,395.9250772706068,0.48634280493347865,228.90284084244635,0.671266615391,5.15127277374,-129.854385376,0
25.0,14.539548921511685,-0.4996821556388299,395.85038657327556,0.4892154219835385,229.76462421097412,0.671266615391,5.15127277374,-129.854385376,0
25.1,14.574328390324133,-0.6647901653749682,395.7595093425737,0.49176196547975143,230.17619576231303,-0.16088360548,4.18711185455,-132.378356934,0
25.200000000000003,14.61116993006933,-0.858432197589332,395.66254994079287,0.4941859852030589,230.41859796582276,-0.16088360548,4.18711185455,-132.378356934,0
25.3,14.648011469814525,-1.052074229803689,395.565590539012,0.4966100049263662,230.66100016933248,-0.16088360548,4.18711185455,-132.378356934,0
25.400000000000002,14.684853009559722,-1.2457162620180529,395.46863113723117,0.4990340246496736,230.9034023728422,-0.6032406490982367,2.8544960632382193,-131.10305642582907,0
25.5,14.718366916381546,-1.2587918673565759,395.40821399569074,0.5015554557822673,230.53336282028792,-1.22136425972,1.0950088501,-129.519378662,0
25.6,14.749676218570974,-1.1522396200105034,395.3720066267001,0.5041414233733907,229.757571803079,-1.22136425972,1.0950088501,-129.519378662,0
25.700000000000003,14.780985520760401,-1.045687372664431,395.33579925770954,0.5067273909645142,228.9817807858701,-1.22136425972,1.0950088501,-129.519378662,0
25.8,14.812294822949827,-0.9391351253183624,395.2995918887189,0.5093133585556375,228.2059897686612,-1.22136425972,1.0950088501,-129.519378662,0
25.900000000000002,14.798517884869153,-0.6883941656906485,395.33642990150696,0.5072677456778536,227.72677526091093,-0.197974741459,2.17638683319,-128.539413452,0
26.0,14.768441747327769,-0.385527312056658,395.39967466811083,0.5035477626723146,227.35477660558192,-0.197974741459,2.17638683319,-128.539413452,0
26.1,14.738365609786385,-0.08266045842265679,395.4629194347147,0.49982777966677555,226.98277795025288,-0.197974741459,2.17638683319,-128.539413452,0
26.200000000000003,14.708289472245,0.22020639521134455,395.5261642013186,0.49610779666123644,226.61077929492384,0.7770549703897622,2.0690821747754025,-129.6990142215266,0
26.3,14.678213334703615,0.523073248845335,395.58940896792245,0.4923878136556975,226.23878063959484,2.21816706657,1.91168868542,-131.290740967,0
26.400000000000002,14.645858822748538,0.7104278987404372,395.64587268324465,0.48877916630362134,226.1220840759223,2.21816706657,1.91168868542,-131.290740967,0
26.5,14.609420541066523,0.6907378952695833,395.6901820082371,0.48537007753524797,226.4629922618751,2.21816706657,1.91168868542,-131.290740967,0
26.6,14.572982259384506,0.6710478917987286,395.73449133322964,0.4819609887668745,226.8039004478279,2.21816706657,1.91168868542,-131.290740967,0
26.700000000000003,14.544228707662391,0.626723547432496,395.7612963643306,0.479999989271,227.52633251589683,2.21816706657,1.91168868542,-131.290740967,0
26.8,14.525881801347778,0.5490394296086064,395.7643971168701,0.479999989271,228.76542343553123,2.6884950843306137,1.754702883091661,-133.44688462438143,0
26.900000000000002,14.507534895033162,0.471355311784714,395.7674978694097,0.479999989271,230.0045143551657,2.70565867424,1.74964642525,-133.462600708,0
27.0,14.494416155841146,0.3605107506612507,395.76888222643726,0.479999989271,231.11057077285346,2.70565867424,1.74964642525,-133.462600708,0
27.1,14.502662164697425,0.11415703314469783,395.76325258471445,0.479999989271,231.67298569072472,1.72731029987,0.8782158494,-132.169677734,0
27.200000000000003,14.511882343623128,-0.010657948468912291,395.759979248,0.48162449033321303,231.83755022299943,1.72731029987,0.8782158494,-132.169677734,0
27.3,14.522455822161218,0.033366504991792986,395.759979248,0.4855057191751249,231.44942812537647,1.72731029987,0.8782158494,-132.169677734,0
27.400000000000002,14.533029300699308,0.07739095845249984,395.759979248,0.4893869480170369,231.06130602775352,0.7033882955926036,2.969876152314426,-128.9497036870036,0
27.5,14.53282262543248,0.06987817803443264,395.7711955640644,0.4881305436816639,231.0,0.621615827084,3.04295706749,-128.785049438,0
27.6,14.530593747253125,0.052697748495642315,395.7845159008528,0.4859103927279565,231.0,0.5516718322967701,4.755064346892841,-128.27197215308914,0
27.700000000000003,14.528364869073767,0.035517318956851986,395.7978362376412,0.483690241774249,231.0,0.49888202548,6.00294399261,-127.910575867,0
27.8,14.526135990894412,0.01833688941806226,395.8111565744296,0.48147009082054165,231.0,0.49888202548,6.00294399261,-127.910575867,0
27.900000000000002,14.525258868052763,0.07561823413101722,395.8298883196091,0.4791742070754632,231.0825782983086,1.11757874489,6.93035316467,-128.73374939,0
28.0,14.527031194174784,0.27884512469885125,395.85922645926985,0.47672988658298227,231.32701058067175,1.11757874489,6.93035316467,-128.73374939,0
28.1,14.528803520296805,0.48207201526669247,395.88856459893054,0.4742855660905012,231.57144286303495,1.11757874489,6.93035316467,-128.73374939,0
28.200000000000003,14.530575846418825,0.6852989058345337,395.91790273859124,0.4718412455980202,231.8158751453981,1.11757874489,6.93035316467,-128.73374939,0
28.3,14.532577144951706,0.8330525957971783,395.9508791730128,0.469999998808,231.87202558246804,1.37670969963,3.73395037651,-128.651672363,0
28.400000000000002,14.535277520089616,0.8114408298799018,395.9949637000642,0.469999998808,231.35333194683065,1.37670969963,3.73395037651,-128.651672363,0
28.5,14.537977895227526,0.7898290639626262,396.03904822711564,0.469999998808,230.8346383111933,1.37670969963,3.73395037651,-128.651672363,0
28.6,14.540678270365436,0.7682172980453498,396.083132754167,0.469999998808,230.31594467555587,1.37670969963,3.73395037651,-128.651672363,0
28.700000000000003,14.535900773422249,0.75846999100213,396.1271852240492,0.46904441238507355,229.80888253314598,0.8886064291,4.21177148819,-127.748390198,0
28.8,14.519470472600014,0.7672111270468683,396.1711877390908,0.4665997310625447,229.31994580234127,0.8886064291,4.21177148819,-127.748390198,0
28.900000000000002,14.503040171777778,0.775952263091607,396.21519025413244,0.4641550497400158,228.83100907153653,0.8886064291,4.21177148819,-127.748390198,0
29.0,14.486609870955544,0.7846933991363454,396.2591927691741,0.46171036841748697,228.3420723407318,0.8886064291,4.21177148819,-127.748390198,0
29.1,14.472866925956119,0.7459636190369422,396.2893699251335,0.460000008345,228.1828099271199,1.1220189333,3.2051961422,-129.149734497,0
29.200000000000003,14.465383293348427,0.5966659375283377,396.28734544977584,0.460000008345,228.79141551272346,1.1220189333,3.2051961422,-129.149734497,0
29.3,14.457899660740736,0.4473682560197385,396.2853209744182,0.460000008345,229.400021098327,1.1220189333,3.2051961422,-129.149734497,0
29.400000000000002,14.450416028133045,0.298070574511134,396.28329649906055,0.460000008345,230.00862668393052,1.1220189333,3.2051961422,-129.149734497,0
29.5,14.442932395525354,0.14877289300253482,396.2812720237029,0.460000008345,230.61723226953404,0.9929141925697769,3.087510518005498,-130.99964405677875,0
29.6,14.441983342160432,-0.002318644088585238,396.2748172779901,0.460000008345,231.10359208477635,0.974943041801,3.07119965553,-131.18157959,0
29.700000000000003,14.452109606814188,-0.15645054848077095,396.2608537621991,0.460000008345,231.38276016924465,0.974943041801,3.07119965553,-131.18157959,0
29.8,14.462235871467945,-0.31058245287295116,396.24689024640804,0.460000008345,231.66192825371297,0.974943041801,3.07119965553,-131.18157959,0
29.900000000000002,14.472362136121701,-0.4647143572651369,396.23292673061695,0.460000008345,231.94109633818127,0.974943041801,3.07119965553,-131.18157959,0
30.0,14.485238986481642,-0.6380216917851471,396.24441536098055,0.460000008345,232.20619116909182,0.062083342059092494,5.378652729302111,-128.95134944776729,0
30.1,14.498851405338266,-0.8164569677034677,396.2627104678128,0.460000008345,232.46752249540057,0.00598676735535,5.51997709274,-128.870758057,0
30.200000000000003,14.512463824194889,-0.994892243621788,396.28100557464506,0.460000008345,232.72885382170932,0.00598676735535,5.51997709274,-128.870758057,0
30.3,14.526076243051511,-1.173327519540102,396.2993006814773,0.460000008345,232.99018514801807,0.00598676735535,5.51997709274,-128.85554680736033,0
30.400000000000002,14.536133442673131,-0.5401574076657174,396.3413424298643,0.4574153974581798,232.74153943511416,-0.298397958279,5.28903341293,-127.324546814,0
30.5,14.54605190804027,0.12468373796597043,396.3843108363264,0.45472992807549795,232.4729930410821,-0.298397958279,5.28903341293,-127.324546814,0
30.6,14.55597037340741,0.7895248835976818,396.4272792427884,0.452044458692816,232.20444664705002,-0.298397958279,5.28903341293,-127.324546814,0
30.700000000000003,14.559943686600489,1.2438944521860773,396.4724437817601,0.4492217362109711,231.92217473897517,-0.27477681094841083,5.386566300038308,-127.14356916916294,0
30.8,14.544954890184467,1.0269632707435412,396.5246129026408,0.4459612438900509,231.5961251959297,-0.231050893664,5.56781482697,-126.867210388,0
30.900000000000002,14.529966093768445,0.8100320893009975,396.57678202352145,0.4427007515691306,231.2700756528842,-0.231050893664,5.56781482697,-126.867210388,0
31.0,14.515390881395142,0.6403423641401391,396.6245652924443,0.4395844721844195,231.04155258278675,-0.231050893664,5.56781482697,-126.867210388,0
31.1,14.502811224092918,0.6985940436541359,396.6511866977274,0.43716402442386054,231.28359758968097,0.0983745753765,5.79686689377,-127.791374207,0
31.200000000000003,14.490231566790696,0.7568457231681326,396.6778081030105,0.43474357666330155,231.52564259657518,0.0983745753765,5.79686689377,-127.791374207,0
31.3,14.477651909488474,0.8150974026821273,396.70442950829363,0.4323231289027427,231.7676876034694,0.0983745753765,5.79686689377,-127.791374207,0
31.400000000000002,14.465078039145347,0.8649164621160065,396.7290390481275,0.4300784620100162,231.99215450681615,-0.034345136082375646,4.426908504187702,-128.19355653258702,0
31.5,14.452642300535238,0.7134532235173734,396.70562639591327,0.43202959389528617,231.7970411322095,-0.103378757834,3.73747301102,-128.37046814,0
31.6,14.440206561925129,0.5619899849187349,396.6822137436991,0.43398072578055624,231.60192775760288,-0.103378757834,3.73747301102,-128.37046814,0
31.700000000000003,14.42777082331502,0.41052674632009634,396.6588010914849,0.4359318576658263,231.40681438299626,-0.103378757834,3.73747301102,-128.37046814,0
31.8,14.415335084704912,0.25906350772146314,396.63538843927074,0.4378829895510963,231.2117010083896,-0.7899069001730786,1.538559094841573,-127.87993592821778,0
31.900000000000002,14.402899346094804,0.10760026912282461,396.61197578705656,0.43983412143636635,231.016587633783,-1.14324510098,0.499277532101,-127.670684814,0
32.0,14.391360370326513,-0.08909026621653508,396.57024258368045,0.439999997616,230.69429788018383,-1.14324510098,0.499277532101,-127.670684814,0
32.1,14.379904716848563,-0.28998307419103425,396.52680713505964,0.439999997616,230.3601915941852,-1.14324510098,0.499277532101,-127.670684814,0
32.2,14.368449063370612,-0.4908758821655334,396.48337168643883,0.439999997616,230.02608530818657,-1.14324510098,0.499277532101,-127.670684814,0
32.300000000000004,14.350086474356512,-0.6306211919780826,396.4574206256427,0.439999997616,230.0,-1.3063179142400358,1.87619527791979,-128.1898975912819,0
32.4,14.33113895913588,-0.7651881163906318,396.432950261545,0.439999997616,230.0,-1.4270273447,2.85142064095,-128.540588379,0
32.5,14.312191443915243,-0.8997550408031904,396.40847989744725,0.439999997616,230.0,-1.4270273447,2.85142064095,-128.540588379,0
32.6,14.293243928694606,-1.034321965215749,396.3840095333495,0.439999997616,230.0,-1.2996837785193607,3.235553713712452,-128.63587075091652,0
32.7,14.274404786005434,-0.872053002720893,396.3582522750819,0.4413048096761257,230.13048133045262,-0.604744970798,5.30249547958,-129.057876587,0
32.800000000000004,14.255710898228903,-0.31192611220476163,396.3307701544556,0.44435849997367516,230.43585065143827,-0.604744970798,5.30249547958,-129.057876587,0
32.9,14.237017010452373,0.24820077831133003,396.30328803382935,0.4474121902712244,230.74121997242392,-0.604744970798,5.30249547958,-129.057876587,0
33.0,14.220922033417011,0.7027081522264812,396.2738928036866,0.449999988079,231.04070815864,-0.604744970798,5.30249547958,-129.057876587,0
33.1,14.219262694787975,0.5705523806357357,396.23387121505647,0.449999988079,231.3075296073618,-0.221573576331,4.49569225311,-129.344192505,0
33.2,14.217603356158941,0.43839660904499006,396.1938496264263,0.449999988079,231.57435105608357,-0.221573576331,4.49569225311,-129.344192505,0
33.300000000000004,14.215944017529907,0.30624083745424446,396.1538280377962,0.449999988079,231.84117250480537,-0.221573576331,4.49569225311,-129.344192505,0
33.4,14.215283409454516,0.21129676351117177,396.10830579715775,0.45103317186961267,231.89668183032333,-0.4972992790647192,3.5092016673622473,-128.46078907821337,0
33.5,14.216091641689431,0.1710802047324825,396.0546937074873,0.45358586659745104,231.64141287486757,-0.618000090122,3.07818126678,-128.145797729,0
33.6,14.216899873924346,0.13086364595379324,396.0010816178168,0.4561385613252894,231.38614391941178,-0.618000090122,3.07818126678,-128.145797729,0
33.7,14.21770810615926,0.09064708717510397,395.9474695281463,0.45869125605312777,231.13087496395602,-0.618000090122,3.07818126678,-128.145797729,0
33.800000000000004,14.220161171486916,-0.08794170065612843,395.8969071115142,0.460000008345,230.83515418268536,-0.8367221741485171,3.226788575871002,-127.59252163283932,0
33.9,14.22434476631307,-0.4121119612854142,395.8495532570012,0.460000008345,230.49687402067894,-0.864312112331,3.24320626259,-127.541351318,0
34.0,14.228528361139224,-0.736282221914723,395.8021994024882,0.460000008345,230.1585938586725,-0.864312112331,3.24320626259,-127.541351318,0
34.1,14.235567799405512,-0.9419903567562826,395.7548849708579,0.4614771730980534,230.1477166161827,-0.864312112331,3.24320626259,-127.541351318,0
34.2,14.24512784843919,-1.0431420213124434,395.70760533446236,0.46425810588314426,230.4258101599096,-0.634184539318,2.59021711349,-128.63117981,0
34.300000000000004,14.254687897472865,-1.144293685868604,395.6603256980668,0.4670390386682351,230.70390370363648,-0.634184539318,2.59021711349,-128.63117981,0
34.4,14.26424794650654,-1.2454453504247573,395.6130460616712,0.46981997145332577,230.98199724736335,-0.634184539318,2.59021711349,-128.63117981,0
34.5,14.287240746465253,-1.1287563879310825,395.56004565179916,0.47208090233198585,231.20809055085454,-0.669835865498,3.82088375092,-129.225738525,0
34.6,14.311163323641834,-0.9969891102592706,395.5066492660859,0.4743058401420224,231.4305845440507,-0.669835865498,3.82088375092,-129.225738525,0
34.7,14.335085900818415,-0.865221832587459,395.45325288037264,0.4765307779520589,231.6530785372469,-0.669835865498,3.82088375092,-129.225738525,0
34.800000000000004,14.359008477994994,-0.7334545549156472,395.3998564946594,0.4787557157620954,231.87557253044307,-0.6786566599429937,4.361840502629658,-129.1459194934489,0
34.9,14.389102224056085,-0.5966511345708074,395.34783258393486,0.4813851186925816,232.1385126614484,-0.701085746288,5.74012184143,-128.971954346,0
35.0,14.427025991005177,-0.4534578222844514,395.297550078774,0.48452770970799247,232.45277112611328,-0.701085746288,5.74012184143,-128.971954346,0
35.1,14.464949757954267,-0.31026450999809546,395.24726757361316,0.48767030072340334,232.76702959077815,-0.701085746288,5.74012184143,-128.971954346,0
35.2,14.505592159022308,-0.32343811377501647,395.199333109145,0.4907105941657344,233.14211706128393,-0.701085746288,5.74012184143,-128.971954346,0
35.300000000000004,14.55402612675736,-0.7847570720627567,395.15812809586214,0.4934577042205075,233.6915395962228,-0.323292374611,11.5098552704,-127.393699646,0
35.4,14.60246009449241,-1.246076030350464,395.1169230825793,0.4962048142752804,234.24096213116167,-0.323292374611,11.5098552704,-127.393699646,0
35.5,14.650894062227461,-1.7073949886382045,395.0757180692965,0.4989519243300535,234.79038466610055,-0.323292374611,11.5098552704,-127.393699646,0
35.6,14.70193973756636,-1.6855393594356036,395.04099369547833,0.5017273730960552,235.690949897381,0.112021185458,15.4087991714,-126.273422241,0
35.7,14.75459648518316,-1.3656300039473064,395.0102670044671,0.5045203030349051,236.8081229383689,0.112021185458,15.4087991714,-126.273422241,0
35.800000000000004,14.807253232799964,-1.045720648459009,394.9795403134559,0.5073132329737552,237.92529597935683,0.112021185458,15.4087991714,-126.273422241,0
35.9,14.860150449037642,-0.7403904968892658,394.94864801718575,0.509999990463,239.04001992529362,0.24258120117794577,16.34690134867011,-125.7277563773389,0
36.0,14.919132867891255,-0.8039958409314253,394.9135649805542,0.509999990463,240.09276805269334,0.564458668232,18.6623706818,-124.201309204,0
36.1,14.97811528674487,-0.8676011849735846,394.87848194392274,0.509999990463,241.14551618009304,0.564458668232,18.6623706818,-124.201309204,0
36.2,15.037661927519368,-0.8843924662856721,394.8443558845806,0.5104346059867376,242.2173079690937,0.564458668232,18.6623706818,-124.201309204,0
36.300000000000004,15.09964026418673,-0.6994234829650792,394.8143542267513,0.512742336937102,243.37117454460306,0.7307013239477799,20.05527355889105,-122.15694449112337,0
36.4,15.161618600854087,-0.5144544996444995,394.7843525689219,0.5150500678874663,244.52504112011235,0.869414687157,21.2148113251,-120.767036438,0
36.5,15.22359693752145,-0.32948551632390655,394.7543509110926,0.5173577988378306,245.67890769562172,0.869414687157,21.2148113251,-120.767036438,0
36.6,15.285575274188812,-0.14451653300331369,394.72434925326326,0.519665529788195,246.8327742711311,1.1751006777173756,22.375983794695497,-118.88888527574267,0
36.7,15.362144100454467,-0.11703638273396494,394.7076291264153,0.5224734916349963,248.23675653349287,1.39287650585,23.2032756805,-117.647644043,0
36.800000000000004,15.441185868384697,-0.11624901027265278,394.6931600858734,0.5253662376021228,249.68313089646335,1.39287650585,23.2032756805,-117.647644043,0
36.9,15.520227636314921,-0.11546163781134067,394.6786910453315,0.5282589835692492,251.12950525943373,1.39287650585,23.2032756805,-117.647644043,0
37.0,15.606894672976667,-0.05430250070847405,394.6649821681526,0.5310003690040851,252.60023556319166,1.5484799567794676,24.496215943830908,-114.85385661884067,0
37.1,15.7050880010159,0.09811408249011626,394.6524223474498,0.5335129591453177,254.10778209994723,1.70991432667,25.7332115173,-112.27381897,0
37.2,15.803281329055132,0.2505306656887065,394.6398625267469,0.5360255492865503,255.6153286367028,1.70991432667,25.7332115173,-112.27381897,0
37.300000000000004,15.901474657094365,0.4029472488872968,394.627302706044,0.538538139427783,257.12287517345834,1.70991432667,25.7332115173,-112.27381897,0
37.4,16.003981090239524,0.3951428161882125,394.6285802795012,0.540000021458,258.6677620317026,2.22215199471,28.2355442047,-107.782623291,0
37.5,16.11248847720117,0.1644180295408047,394.6491102387119,0.540000021458,260.2646016106071,2.22215199471,28.2355442047,-107.782623291,0
37.6,16.220995864162813,-0.06630675710660311,394.6696401979226,0.540000021458,261.86144118951154,2.22215199471,28.2355442047,-107.782623291,0
37.7,16.329503251124457,-0.2970315437540109,394.6901701571333,0.540000021458,263.45828076841605,2.22215199471,28.2355442047,-107.782623291,0
37.800000000000004,16.438355299143115,-0.4991540568622922,394.7112252647079,0.540000021458,265.05694292457645,2.8630678175062902,29.955260433203474,-101.95161535112439,0
37.9,16.556847536416864,0.09873063836354257,394.7469688017163,0.540000021458,266.70658266965023,2.89178776741,29.9723758698,-101.816558838,0
38.0,16.67533977369062,0.69661533358942,394.7827123387247,0.540000021458,268.3562224147242,2.89178776741,29.9723758698,-101.816558838,0
38.1,16.79383201096438,1.294500028815297,394.8184558757331,0.540000021458,270.00586215979814,2.89178776741,29.9723758698,-101.816558838,0
38.2,16.915143599458194,1.3124790901239658,394.8433562792618,0.5411200463954989,271.7840182039674,2.8599353644798233,30.29315520033764,-98.0088531119161,0
38.300000000000004,17.04073103171669,0.4509700368467904,394.85181192615687,0.5439387073919651,273.7570827832054,2.82669687271,30.6022434235,-94.7031784058,0
38.400000000000006,17.16631846397518,-0.41053901643038504,394.8602675730519,0.5467573683884314,275.73014736244346,2.82669687271,30.6022434235,-94.7031784058,0
38.5,17.291905896233665,-1.2720480697074992,394.8687232199469,0.5495760293848974,277.70321194168133,2.82669687271,30.6022434235,-94.7031784058,0
38.6,17.429499531176752,-1.034968790257922,394.84071899609853,0.5553221701236137,279.59664898350826,2.23634171486,34.6679725647,-88.3703918457,0
38.7,17.569218887943222,-0.6033822835743433,394.806259480352,0.5615866269143817,281.4759878130641,2.23634171486,34.6679725647,-88.3703918457,0
38.800000000000004,17.70893824470969,-0.17179577689076453,394.7717999646055,0.5678510837051496,283.3553266426199,2.23634171486,34.6679725647,-88.3703918457,0
38.900000000000006,17.858433369292968,-0.44801335894639627,394.71971672331546,0.5719173321163623,285.53387287819106,2.23634171486,34.6679725647,-88.3703918457,0
39.0,18.013032853884233,-1.0938067075055966,394.65843135677625,0.5748357988748073,287.8686485113891,1.80232465267,36.7734985352,-81.5167999268,0
39.1,18.167632338475514,-1.7396000560648426,394.597145990237,0.5777542656332525,290.2034241445873,1.80232465267,36.7734985352,-81.5167999268,0
39.2,18.325290598360493,-2.158768521494731,394.5369264840196,0.581135697363354,292.62464146292757,1.80232465267,36.7734985352,-81.5167999268,0
39.300000000000004,18.493159419577193,-1.8214357580664498,394.480264948278,0.5860625620800721,295.3344115656379,1.6245008707,38.8117752075,-75.0163116455,0
39.400000000000006,18.661028240793893,-1.4841029946381683,394.42360341253635,0.5909894267967902,298.04418166834824,1.6245008707,38.8117752075,-75.0163116455,0
39.5,18.828897062010583,-1.1467702312099106,394.3669418767948,0.5959162915135079,300.7539517710584,1.6245008707,38.8117752075,-75.0163116455,0
39.6,18.996161091748878,-0.8996674049710873,394.31204538765377,0.6004958202947132,303.44621723299923,1.4417390551445928,38.6501902412963,-70.53626673496596,0
39.7,19.16049579918044,-1.089595484725206,394.2656979448605,0.6033930189833865,306.0536985395602,1.30095481873,38.5358543396,-67.3844604492,0
39.800000000000004,19.324830506612,-1.2795235644793248,394.21935050206724,0.6062902176720598,308.6611798461211,1.30095481873,38.5358543396,-67.3844604492,0
39.900000000000006,19.48916521404356,-1.4694516442334433,394.17300305927404,0.6091874163607333,311.26866115268206,1.30095481873,38.5358543396,-67.3844604492,0
