t_sec,airspeed,climb,altitude,throttle,heading,pitch,roll,yaw,is_boundary
0.0,18.4840316772,-0.924056351185,417.75,0.419999986887,268.0,-6.35856056213,17.7410774231,-95.6631546021,0
0.1,18.554173703941135,-0.675177028004873,417.6820178235669,0.4016977825611805,269.04584035405964,-6.35856056213,17.7410774231,-95.6631546021,0
0.2,18.62431573068227,-0.4262977048247461,417.6140356471338,0.38339557823536097,270.09168070811927,-6.35856056213,17.7410774231,-95.6631546021,0
0.30000000000000004,18.6944577574234,-0.1774183816446191,417.5460534707007,0.36509337390954144,271.1375210621789,-6.35856056213,17.7410774231,-95.6631546021,0
0.4,18.758290528605745,0.03856136053959468,417.46656367488356,0.3459257350119728,272.30556949084763,-5.281852684521342,24.33623305556633,-92.4670808172418,0
0.5,18.792446390957327,0.09979101268739887,417.3329453740254,0.322687342814676,274.0484492692314,-5.08291053772,25.6697158813,-91.8850402832,0
0.6000000000000001,18.826602253308913,0.16102066483520314,417.1993270731673,0.2994489506173791,275.7913290476152,-5.08291053772,25.6697158813,-91.8850402832,0
0.7000000000000001,18.8607581156605,0.22225031698300732,417.0657087723091,0.27621055842008224,277.534208825999,-5.084709802606014,25.6697158813,-91.86157320399077,0
0.8,18.914474636080847,0.033508859275805325,416.85407480988897,0.25633599469061447,279.19560120738475,-5.67155504227,33.7988166809,-87.4457015991,0
0.9,18.975325494600227,-0.24640429656269405,416.6139862778604,0.2376883165552951,280.82727277677384,-5.67155504227,33.7988166809,-87.4457015991,0
1.0,19.03617635311961,-0.5263174524011934,416.37389774583187,0.21904063841997573,282.4589443461629,-5.67155504227,33.7988166809,-87.4457015991,0
1.1,19.09702721163899,-0.8062306082396932,416.1338092138034,0.2003929602846563,284.090615915552,-9.67831230164,36.8576698303,-81.2637863159,0
1.2000000000000002,19.165460258864687,-1.1204454378127267,415.8398287045817,0.18410413913902543,285.49132152022605,-9.67831230164,36.8576698303,-81.2637863159,0
1.3,19.24343953509,-1.4778472210772782,415.47799639485044,0.1707851977831388,286.60123325578274,-9.67831230164,36.8576698303,-81.2637863159,0
1.4000000000000001,19.321418811315315,-1.8352490043418304,415.1161640851191,0.15746625642725215,287.7111449913395,-9.67831230164,36.8576698303,-81.2637863159,0
1.5,19.39939808754063,-2.192650787606382,414.7543317753878,0.14414731507136552,288.82105672689624,-12.106933418262976,35.708148767062355,-77.08621902806564,0
1.6,19.477377363765942,-2.550052570870934,414.3924994656565,0.13082837371547887,289.93096846245294,-13.770450592,34.9319229126,-74.1622848511,0
1.7000000000000002,19.58092973114516,-2.816095058161306,413.9683835976764,0.12111482354805464,291.06622066561806,-13.770450592,34.9319229126,-74.1622848511,0
1.8,19.686178114843607,-3.0760785650979603,413.5401370624033,0.11164038418096467,292.2031534574278,-13.770450592,34.9319229126,-74.1622848511,0
1.9000000000000001,19.79142649854205,-3.336062072034615,413.1118905271302,0.10216594481387468,293.3400862492375,-13.770450592,34.9319229126,-74.1622848511,0
2.0,19.896674882240497,-3.596045578971269,412.6836439918571,0.0926915054467847,294.47701904104724,-15.8782043457,32.2278327942,-69.5578918457,0
2.1,20.00192326593894,-3.8560290859079234,412.255397456584,0.08321706607969472,295.6139518328569,-15.8782043457,32.2278327942,-69.5578918457,0
2.2,20.120964411002994,-4.057114688451493,411.75995535152623,0.07585763742055823,296.8284721767847,-15.8782043457,32.2278327942,-69.5578918457,0
2.3000000000000003,20.24709675233092,-4.2279194365300885,411.2299663590994,0.06958558754169158,298.0828821805941,-15.8782043457,32.2278327942,-69.5578918457,0
2.4000000000000004,20.373229093658843,-4.3987241846086835,410.6999773666726,0.06331353766282494,299.3372921844035,-15.8782043457,32.2278327942,-69.5578918457,0
2.5,20.496328986808297,-4.675772068518869,410.1914067335949,0.05743172530957937,300.5136546813443,-19.2801551819,25.0712070465,-63.0133934021,0
2.6,20.61603253100334,-5.071812509616872,409.70682471239076,0.051986979885136626,301.60260379057087,-19.2801551819,25.0712070465,-63.0133934021,0
2.7,20.735736075198382,-5.4678529507148745,409.2222426911867,0.046542234460693874,302.69155289979744,-19.2801551819,25.0712070465,-63.0133934021,0
2.8000000000000003,20.855439619393426,-5.863893391812876,408.7376606699826,0.04109748903625113,303.780502009024,-19.697856548082317,23.44526600694771,-61.97967894590867,0
2.9000000000000004,20.985648330457746,-5.799720955678363,408.1963245563558,0.0399999991059,304.22635791269005,-20.780166626,19.1776599884,-59.3226737976,0
3.0,21.11850913198957,-5.619365102381674,407.6406605420514,0.0399999991059,304.5098611967921,-20.780166626,19.1776599884,-59.3226737976,0
3.1,21.251369933521396,-5.439009249084984,407.08499652774697,0.0399999991059,304.7933644808941,-20.780166626,19.1776599884,-59.3226737976,0
3.2,21.377577947180065,-5.351876407990879,406.5247385685991,0.0399999991059,305.0623512916712,-21.8530235291,13.6619215012,-55.7793693542,0
3.3000000000000003,21.48590197168231,-5.515345174996694,405.95213119123287,0.0399999991059,305.2923149956719,-21.8530235291,13.6619215012,-55.7793693542,0
3.4000000000000004,21.59422599618456,-5.6788139420025106,405.3795238138666,0.0399999991059,305.52227869967265,-21.8530235291,13.6619215012,-55.7793693542,0
3.5,21.702550020686804,-5.842282709008326,404.8069164365004,0.0399999991059,305.75224240367334,-21.94730190383701,12.618086523996844,-55.21863711530905,0
3.6,21.810874045189053,-6.005751476014141,404.23430905913415,0.0399999991059,305.9822061076741,-22.1051292419,10.7372274399,-54.290813446,0
3.7,21.938099685593237,-6.2779658948470285,403.675404367736,0.042498051376003224,306.24980518606225,-22.1051292419,10.7372274399,-54.290813446,0
3.8000000000000003,22.066910534163892,-6.559300406704686,403.1176488696032,0.04520560599126974,306.52056060320666,-22.1051292419,10.7372274399,-54.290813446,0
3.9000000000000004,22.195721382734543,-6.840634918562345,402.5598933714705,0.04791316060653626,306.79131602035113,-22.1051292419,10.7372274399,-54.290813446,0
4.0,22.323005987826694,-7.003159554756659,402.00689712091844,0.0500000007451,307.09968234917045,-22.0155467987,7.19488525391,-53.5723190308,0
4.1000000000000005,22.44515936709489,-6.766245758792807,401.4699014459186,0.0500000007451,307.5344964459687,-22.0155467987,7.19488525391,-53.5723190308,0
4.2,22.567312746363086,-6.529331962828957,400.93290577091875,0.0500000007451,307.96931054276695,-22.0155467987,7.19488525391,-53.5723190308,0
4.3,22.689466125631284,-6.292418166865108,400.3959100959189,0.0500000007451,308.4041246395652,-21.932799196425954,7.651366380205403,-52.97546640738335,0
4.4,22.811619504899483,-6.0555043709012555,399.85891442091906,0.0500000007451,308.83893873636345,-21.8618240356,8.07134151459,-52.4685211182,0
4.5,22.8829372899049,-5.955923582809248,399.30073044365196,0.05322216612968331,309.16110827283075,-21.8618240356,8.07134151459,-52.4685211182,0
4.6000000000000005,22.92434617878999,-5.93714205999382,398.7300804228446,0.05834007820844027,309.41700388248915,-21.8618240356,8.07134151459,-52.4685211182,0
4.7,22.965755067675076,-5.918360537178393,398.1594304020372,0.06345799028719719,309.6728994921475,-21.8618240356,8.07134151459,-52.4685211182,0
4.800000000000001,23.007163956560166,-5.899579014362965,397.5887803812298,0.06857590236595415,309.9287951018059,-21.68699646,9.23515987396,-50.4260520935,0
4.9,23.150666647613935,-6.077155791512004,397.0416608494762,0.07225774140174238,310.45154831494597,-21.68699646,9.23515987396,-50.4260520935,0
5.0,23.33353016375756,-6.330435740995367,396.5036131658099,0.0753859227358892,311.07718471228935,-21.68699646,9.23515987396,-50.4260520935,0
5.1000000000000005,23.51639367990118,-6.583715690478733,395.9655654821436,0.07851410407003606,311.70282110963274,-21.68699646,9.23515987396,-50.4260520935,0
5.2,23.611637407235737,-6.621046364438648,395.4427092233279,0.08479427460564062,312.4794276500881,-21.593588729374332,13.915083512392954,-49.66071077821011,0
5.300000000000001,23.627605273737586,-6.462992354801282,394.9335977280944,0.09392627417070637,313.39262762700235,-21.5453872681,16.3695087433,-49.2712860107,0
5.4,23.64357314023944,-6.304938345163918,394.42448623286094,0.10305827373577202,314.30582760391667,-21.5453872681,16.3695087433,-49.2712860107,0
5.5,23.65954100674129,-6.146884335526554,393.9153747376275,0.11219027330083767,315.219027580831,-21.387272363603593,17.526804290453452,-48.129740335187336,0
5.6000000000000005,23.6978903339604,-6.046906496604067,393.39028843022834,0.12562776016075938,316.31656165224047,-21.2432689667,18.6783618927,-47.1007499695,0
5.7,23.868430740096375,-6.289942537032191,392.7708504769579,0.16449464226703403,318.50282371778354,-21.2432689667,18.6783618927,-47.1007499695,0
5.800000000000001,24.038971146232356,-6.532978577460317,392.15141252368744,0.203361524373309,320.6890857833266,-21.2432689667,18.6783618927,-47.1007499695,0
5.9,24.20951155236833,-6.776014617888441,391.53197457041705,0.24222840647958363,322.8753478488697,-21.62450817215964,22.618354601101156,-45.735782417730384,0
6.0,24.380374886178373,-7.002436932792002,390.9159900534905,0.28106542013362423,325.0608810885993,-22.3874664307,30.3707904816,-43.0252799988,0
6.1000000000000005,24.562374560363157,-6.6559256864257925,390.4190992088521,0.31887240360673197,327.22128036495195,-22.3874664307,30.3707904816,-43.0252799988,0
6.2,24.74437423454794,-6.3094144400595855,389.9222083642138,0.3566793870798394,329.3816796413046,-22.3874664307,30.3707904816,-43.0252799988,0
6.300000000000001,24.926373908732725,-5.962903193693375,389.42531751957546,0.39448637055294716,331.54207891765725,-22.3874664307,30.3707904816,-43.0252799988,0
6.4,25.080477653937557,-5.660667501459074,388.9859516391629,0.42861051264471717,333.7892979670672,-20.993303299,31.0915203094,-34.2950134277,0
6.5,25.176686273972376,-5.450321158035512,388.665972892502,0.45509129706565765,336.21670250633844,-20.993303299,31.0915203094,-34.2950134277,0
6.6000000000000005,25.272894894007194,-5.239974814611949,388.345994145841,0.4815720814865984,338.64410704560964,-20.993303299,31.0915203094,-34.2950134277,0
6.7,25.369103514042013,-5.029628471188387,388.0260153991801,0.508052865907539,341.07151158488085,-20.86034738216283,31.122645847963827,-34.01076305547493,0
6.800000000000001,25.465312134076832,-4.819282127764824,387.7060366525191,0.5345336503284797,343.49891612415206,-17.1100101471,34.1092185974,-26.7580566406,0
6.9,25.47754552688436,-4.563585948581547,387.5225575249667,0.5470456111006109,345.8788256965323,-17.1100101471,34.1092185974,-26.7580566406,0
7.0,25.46793487620876,-4.296093150121416,387.3745853405175,0.5559239337002984,348.2463806477195,-17.1100101471,34.1092185974,-26.7580566406,0
7.1000000000000005,25.458324225533158,-4.0286003516612805,387.22661315606837,0.564802256299986,350.61393559890666,-17.09155200141496,34.1092185974,-26.729833128838308,0
7.2,25.402440331153784,-3.6637290882760034,387.1431677143932,0.5731837091066363,352.74286635974374,-10.7448406219,35.025302887,-15.1523952484,0
7.300000000000001,25.28120919953939,-3.161339614804075,387.15084716543265,0.5808634806469295,354.5348112011011,-10.7448406219,35.025302887,-15.1523952484,0
7.4,25.159978067924992,-2.6589501413321512,387.1585266164721,0.5885432521872226,356.3267560424585,-10.7448406219,35.025302887,-15.1523952484,0
7.5,25.0387469363106,-2.156560667860228,387.1662060675115,0.5962230237275157,358.11870088381585,-6.724068482739945,34.57480195065509,-8.956975135999782,0
7.6000000000000005,24.909265541806345,-1.6272164113325522,387.21472317015736,0.600000023842,295.46883057655185,-5.75886297226,34.4399185181,-7.52295923233,0
7.7,24.771799758651134,-1.0717860207273893,387.3027618839774,0.600000023842,170.45385695210572,-5.75886297226,34.4399185181,-7.52295923233,0
7.800000000000001,24.63433397549592,-0.5163556301222212,387.3908005977974,0.600000023842,45.438883327658516,-5.75886297226,34.4399185181,-7.52295923233,0
7.9,24.484778396170633,0.10463945868619584,387.5168460064514,0.600000023842,5.434986128990141,-2.025318015427592,36.11814545973565,-3.0771029257155815,0
8.0,24.32922842716801,0.7581429822587866,387.6617359792301,0.600000023842,7.581470278106217,0.258302718401,37.1735191345,-0.393690407276,0
8.1,24.173678458165387,1.4116465058313774,387.80662595200886,0.600000023842,9.727954427222294,0.258302718401,37.1735191345,-0.393690407276,0
8.200000000000001,24.018128489162763,2.0651500294039797,387.95151592478754,0.600000023842,11.87443857633841,2.39003133774,37.736164093,4.47217798233,0
8.3,23.877947877802512,1.9123041853292735,388.0594577596276,0.6082886849493566,14.072167253013262,2.39003133774,37.736164093,4.47217798233,0
8.4,23.738722176000174,1.7093592586448405,388.1651039793297,0.6170923267018313,16.27307979008718,2.39003133774,37.736164093,4.47217798233,0
8.5,23.599496474197835,1.5064143319604075,388.2707501990317,0.625895968454306,18.4739923271611,2.39003133774,37.736164093,4.47217798233,0
8.6,23.460270772395496,1.3034694052759748,388.37639641873375,0.6346996102067806,20.674904864235017,2.87281346321,39.5567245483,12.5513801575,0
8.700000000000001,23.339788083204013,1.1864327996898056,388.4789257127065,0.639999985695,22.90824662970717,2.87281346321,39.5567245483,12.5513801575,0
8.8,23.247663217005208,1.1993738563867933,388.57673915710114,0.639999985695,25.190653203371976,2.87281346321,39.5567245483,12.5513801575,0
8.9,23.1555383508064,1.2123149130837811,388.67455260149575,0.639999985695,27.473059777036784,2.87281346321,39.5567245483,12.5513801575,0
9.0,23.059972177678308,1.2084678691199744,388.77103740163096,0.6392427451896396,29.832965350295463,3.324953529128619,43.70387285161804,19.737361319445533,0
9.1,22.957450473089402,1.1706889019906732,388.8648367607006,0.6369549785595645,32.34951104340778,3.49941849709,45.5710258484,22.4487018585,0
9.200000000000001,22.854928768500496,1.1329099348613716,388.9586361197703,0.6346672119294893,34.86605673652014,3.49941849709,45.5710258484,22.4487018585,0
9.3,22.75240706391159,1.0951309677320704,389.05243547884,0.632379445299414,37.38260242963246,3.489046088522471,45.56677614192048,22.84613627009762,0
9.4,22.64988535932269,1.0573520006027692,389.1462348379096,0.6300916786693389,39.89914812274478,3.31180024147,45.4449539185,29.2193508148,0
9.5,22.52408186023307,1.8213593947796545,389.23618653325735,0.6378360164545234,42.350803938063116,3.31180024147,45.4449539185,29.2193508148,0
9.600000000000001,22.397306378408782,2.61884026111787,389.3259775939639,0.6459991807302418,44.7997506906901,3.31180024147,45.4449539185,29.2193508148,0
9.700000000000001,22.270530896584496,3.416321127456072,389.41576865467044,0.6541623450059599,47.24869744331703,3.31180024147,45.4449539185,29.2193508148,0
9.8,22.162844165198557,3.837540200290728,389.52469639775376,0.6567597522242071,49.777665575019256,2.00058841705,44.3411560059,40.8394966125,0
9.9,22.10307609728165,3.3142258780567517,389.68166312828606,0.6453853889879803,52.50751210086369,2.00058841705,44.3411560059,40.8394966125,0
10.0,22.043308029364745,2.7909115558227753,389.8386298588184,0.6340110257517534,55.23735862670812,2.00058841705,44.3411560059,40.8394966125,0
10.100000000000001,21.983539961447836,2.2675972335887895,389.9955965893507,0.6226366625155264,57.96720515255261,2.282456220554429,45.2764452888402,43.44489287691436,0
10.200000000000001,21.92377189353093,1.744282911354813,390.1525633198831,0.6112622992792995,60.69705167839704,2.9808921814,47.9255714417,49.8079910278,0
10.3,21.84023684221968,1.630696596129371,390.2962507166675,0.6081431998998442,63.228179411201545,2.9808921814,47.9255714417,49.8079910278,0
10.4,21.75373497189794,1.5682563948282895,390.43828046177794,0.606054600409271,65.73450119016869,2.9808921814,47.9255714417,49.8079910278,0
10.5,21.6672331015762,1.505816193527208,390.5803102068883,0.6039660009186976,68.24082296913582,2.9808921814,47.9255714417,49.8079910278,0
10.600000000000001,21.580731231254457,1.4433759922261256,390.7223399519988,0.6018774014281242,70.747144748103,-0.283220291138,45.2314682007,61.664806366,0
10.700000000000001,21.493891446110784,1.369323506546888,390.8597359990754,0.5990507030938075,73.23733005973241,-0.283220291138,45.2314682007,61.664806366,0
10.8,21.404048214357868,1.1920589867176261,390.95594691976964,0.5896636518964635,75.5840916001482,-0.283220291138,45.2314682007,61.664806366,0
10.9,21.314204982604952,1.0147944668883642,391.0521578404639,0.5802766006991195,77.93085314056397,-0.283220291138,45.2314682007,61.664806366,0
11.0,21.224361750852037,0.8375299470591023,391.14836876115817,0.5708895495017755,80.27761468097975,-0.283220291138,45.2314682007,61.664806366,0
11.100000000000001,21.13451851909912,0.6602654272298372,391.24457968185243,0.5615024983044313,82.62437622139556,1.12632095814,46.0393218994,73.9927597046,0
11.200000000000001,21.035987134736118,1.3306402865927673,391.31750872595927,0.560000002384,85.15716890026967,1.12632095814,46.0393218994,73.9927597046,0
11.3,20.935800119409254,2.162542925837256,391.38600113117354,0.560000002384,87.72541202838157,1.12632095814,46.0393218994,73.9927597046,0
11.4,20.83561310408239,2.9944455650817448,391.4544935363878,0.560000002384,90.29365515649347,1.12632095814,46.0393218994,73.9927597046,0
11.5,20.734374931552896,3.3907905431458296,391.5252444703429,0.5570300311151124,92.66824317703738,0.556514084339,42.1881523132,83.9686050415,0
11.600000000000001,20.631055728460446,2.924839375040827,391.6004667310656,0.5481802533185326,94.65944211313894,0.556514084339,42.1881523132,83.9686050415,0
11.700000000000001,20.527736525367995,2.458888206935832,391.67568899178826,0.539330475521953,96.65064104924045,0.556514084339,42.1881523132,83.9686050415,0
11.8,20.424417322275545,1.9929370388308374,391.7509112525109,0.5304806977253734,98.64183998534196,0.42255272618539685,42.224261856928095,84.8719071191792,0
11.9,20.321098119183095,1.5269858707258428,391.8261335132336,0.5216309199287938,100.63303892144347,-0.704053461552,42.6263198853,92.8561248779,0
12.0,20.238897869241335,1.3517129144911737,391.931693737928,0.5181285699044413,102.68427152642414,-0.704053461552,42.6263198853,92.8561248779,0
12.100000000000001,20.161468985630044,1.242112353247986,392.04410816315016,0.5158343544237358,104.7490674280484,-0.704053461552,42.6263198853,92.8561248779,0
12.200000000000001,20.084040102018754,1.1325117920048005,392.15652258837224,0.5135401389430305,106.81386332967263,-0.704053461552,42.6263198853,92.8561248779,0
12.3,20.006611218407464,1.0229112307616148,392.2689370135944,0.5112459234623251,108.87865923129687,1.36317527294,37.8276939392,101.50239563,0
12.4,19.93215933177689,0.86254505963193,392.3390941941937,0.509999990463,111.0928479558071,1.36317527294,37.8276939392,101.50239563,0
12.5,19.8612457459794,0.6418415751235369,392.359026653431,0.509999990463,113.48459707191229,1.36317527294,37.8276939392,101.50239563,0
12.600000000000001,19.790332160181904,0.42113809061513974,392.3789591126682,0.509999990463,115.87634618801752,1.36317527294,37.8276939392,101.50239563,0
12.700000000000001,19.71941857438441,0.20043460610674668,392.3988915719055,0.509999990463,118.26809530412271,-0.9217692400756703,39.69308291965972,108.84020948668748,0
12.8,19.648504988586915,-0.020268878401646484,392.4188240311427,0.509999990463,120.6598444202279,-1.51639568806,40.2622756958,110.807807922,0
12.9,19.55879220272612,-0.2953264271269478,392.3842767607128,0.5138094860815959,123.14284750482683,-1.51639568806,40.2622756958,110.807807922,0
13.0,19.44512163090561,-0.6396530422042392,392.28030027531014,0.5224738202219091,125.7421450614132,-1.51639568806,40.2622756958,110.807807922,0
13.100000000000001,19.3314510590851,-0.9839796572815367,392.1763237899075,0.5311381543622224,128.3414426179996,-1.51639568806,40.2622756958,110.807807922,0
13.200000000000001,19.21778048726459,-1.328306272358828,392.0723473045048,0.5398024885025356,130.94074017458598,-3.1553663900493163,40.49393757237568,116.7887825730085,0
13.3,19.078538790610068,-1.650233391051122,391.9546145111295,0.540000021458,133.30733980306704,-4.77456903458,40.7307777405,122.589530945,0
13.4,18.93870051211162,-1.9716379229216348,391.83656077905357,0.540000021458,135.66851052062114,-4.77456903458,40.7307777405,122.589530945,0
13.5,18.803308685289153,-2.040955489299699,391.7329199735572,0.540000021458,138.00187917730247,-4.894596504106856,41.02641085759169,123.93453086255815,0
13.600000000000001,18.673666602569657,-1.7842972779345756,391.6479166447829,0.540000021458,140.2992967549657,-5.58295488358,42.9008331299,131.545898438,0
13.700000000000001,18.544024519850165,-1.5276390665694568,391.5629133160087,0.540000021458,142.5967143326289,-5.58295488358,42.9008331299,131.545898438,0
13.8,18.414382437130673,-1.2709808552043382,391.4779099872344,0.540000021458,144.8941319102921,-4.9245105727223,42.05447553462868,133.2717885452194,0
13.9,18.286574663649194,-1.0405560524929611,391.3976389575775,0.5398430183881417,147.14130205540124,-3.26870107651,39.7579803467,137.57019043,0
14.0,18.178933027557196,-1.0985376493908776,391.3693941578451,0.5379599456830687,148.83605900465795,-3.26870107651,39.7579803467,137.57019043,0
14.100000000000001,18.0712913914652,-1.1565192462887952,391.3411493581126,0.5360768729779956,150.5308159539147,-3.26870107651,39.7579803467,137.57019043,0
14.200000000000001,17.963649755373204,-1.214500843186712,391.3129045583801,0.5341938002729224,152.22557290317138,-3.26870107651,39.7579803467,137.57019043,0
14.3,17.85600811928121,-1.2724824400846284,391.2846597586477,0.5323107275678494,153.9203298524281,-1.62024044991,37.9378089905,147.379638672,0
14.4,17.748366483189212,-1.3304640369825451,391.25641495891523,0.5304276548627762,155.6150868016848,-1.62024044991,37.9378089905,147.379638672,0
14.5,17.654284220528428,-0.9479492261867315,391.24106853646873,0.5264286972565081,157.60707489265835,-1.62024044991,37.9378089905,147.379638672,0
14.600000000000001,17.56418654136533,-0.4359892956887532,391.22951245592424,0.5218079616526731,159.68640789734005,-1.62024044991,37.9378089905,147.379638672,0
14.700000000000001,17.474088862202237,0.07597063480921595,391.2179563753797,0.517187226048838,161.7657409020217,-1.62024044991,37.9378089905,147.379638672,0
14.8,17.383991183039143,0.5879305653071851,391.2064002948352,0.5125664904450031,163.84507390670333,1.25030100346,35.3368492126,156.956817627,0
14.9,17.297692525060647,0.6646921564696486,391.2188468961241,0.5074850412619247,165.62873789989618,1.25030100346,35.3368492126,156.956817627,0
15.0,17.21614024948263,0.19773007825269084,391.2612817236119,0.5018279904388637,167.04300195444503,1.25030100346,35.3368492126,156.956817627,0
15.100000000000001,17.134587973904612,-0.26923199996427516,391.30371655109974,0.4961709396158027,168.4572660089939,1.25030100346,35.3368492126,156.956817627,0
15.200000000000001,17.053035698326592,-0.7361940781812328,391.3461513785876,0.4905138887927418,169.87153006354276,0.5207577377588849,31.460142082232917,162.7334240286636,0
15.3,16.98244524450694,0.07037543527154289,391.45903641521164,0.4833918394505543,170.33040832707474,0.149405479431,29.2634296417,165.617111206,0
15.4,16.9129500395494,1.004189676597945,391.57896047446286,0.4761234149896647,170.693829355162,0.149405479431,29.2634296417,165.617111206,0
15.5,16.844842805776555,1.7999644568905164,391.7077796905857,0.4679912663807162,171.06695774491567,0.149405479431,29.2634296417,165.617111206,0
15.600000000000001,16.78415833511051,1.8575148201727385,391.88416952127454,0.45523998748189876,171.4920003579879,1.25166881084,23.7461795807,170.789871216,0
15.700000000000001,16.723473864444472,1.9150651834549595,392.06055935196343,0.4424887085830815,171.9170429710601,1.25166881084,23.7461795807,170.789871216,0
15.8,16.66278939377843,1.9726155467371802,392.23694918265227,0.42973742968426426,172.34208558413232,1.64029546816185,22.811196154089163,170.99024379743378,0
15.9,16.60210492311239,2.0301659100194014,392.41333901334116,0.41698615078544704,172.76712819720453,2.99699044228,19.012720108,171.674560547,0
16.0,16.552496582194696,2.1038667580528707,392.57808746898974,0.4061448050691584,173.25701274677746,2.99699044228,19.012720108,171.674560547,0
16.1,16.516310250055447,2.197138697526439,392.72872895392436,0.39761790858058416,173.82547249009562,2.99699044228,19.012720108,171.674560547,0
16.2,16.4801239179162,2.2904106370000044,392.87937043885904,0.3890910120920102,174.39393223341375,2.99699044228,19.012720108,171.674560547,0
16.3,16.443937585776947,2.3836825764735727,393.03001192379367,0.38056411560343595,174.9623919767319,2.7925349256054166,17.199364954677712,172.16831926857063,0
16.400000000000002,16.407344871539966,2.1852376245188267,393.12222968167504,0.37794383132396736,175.20561658687924,2.01151418686,9.34118080139,174.043563843,0
16.5,16.37072336729099,1.9661260810731525,393.21030842897505,0.3757419991300921,175.4258000162337,2.01151418686,9.34118080139,174.043563843,0
16.6,16.33410186304201,1.7470145376274702,393.29838717627507,0.3735401669362168,175.64598344558814,2.01151418686,9.34118080139,174.043563843,0
16.7,16.297480358793035,1.5279029941817956,393.3864659235751,0.37133833474234157,175.86616687494256,0.9478115767614679,3.138716116673187,175.54161998911204,0
16.8,16.257281571529806,1.3686561495373646,393.4734579057317,0.36819157643748035,175.81915726395206,0.63808619976,1.22875022888,175.990753174,0
16.900000000000002,16.21153840351529,1.3021927616093536,393.5587655258409,0.3635802904113664,175.35802890868993,0.63808619976,1.22875022888,175.990753174,0
17.0,16.16579523550078,1.2357293736813453,393.64407314595013,0.35896900438525264,174.8969005534278,0.63808619976,1.22875022888,175.990753174,0
17.1,16.120052067486267,1.1692659857533343,393.7293807660593,0.3543577183591387,174.43577219816567,-0.05963219972371514,-2.1157972432873615,176.3845258841894,0
17.2,16.07382100911274,1.1131770482429804,393.8120600737052,0.34979375535290747,173.95875222324761,-0.401538491249,-3.93003535271,176.5753479,0
17.3,16.019205042355743,1.2353839402648013,393.8495690704392,0.34604308815958656,173.2086180692555,-0.401538491249,-3.93003535271,176.5753479,0
17.400000000000002,15.964589075598749,1.357590832286622,393.88707806717315,0.34229242096626566,172.4584839152634,-0.401538491249,-3.93003535271,176.5753479,0
17.5,15.923020985747076,1.270934494049735,393.9051635622886,0.340000003576,172.0,-0.401538491249,-3.93003535271,176.5753479,0
17.6,15.901964594138832,0.8559381826278513,393.8927146641904,0.340000003576,172.0,-0.939747154713,-2.80646920204,174.245697021,0
17.7,15.880908202530588,0.4409418712059824,393.8802657660922,0.340000003576,172.0,-0.939747154713,-2.80646920204,174.245697021,0
17.8,15.859851810922343,0.025945559784098737,393.867816867994,0.340000003576,172.0,-1.4820792433564578,-2.5984037459672287,173.4389193506131,0
17.900000000000002,15.838795419314097,-0.389050751637785,393.8553679698958,0.340000003576,172.0,-1.83184754848,-2.46686887741,172.88722229,0
18.0,15.823922979138219,-0.43567005687944094,393.8407533805795,0.340000003576,172.0,-1.83184754848,-2.46686887741,172.88722229,0
18.1,15.813729157224452,-0.20358481417821445,393.82450028510834,0.340000003576,172.0,-1.83184754848,-2.46686887741,172.88722229,0
18.2,15.80353533531069,0.02850042852300394,393.8082471896372,0.340000003576,172.0,-1.83184754848,-2.46686887741,172.88722229,0
18.3,15.798899687270795,-0.0018504012167588624,393.74379044539745,0.34255441566616407,171.74455892801495,-2.374812814515168,-2.81895924491821,172.43520447319898,0
18.400000000000002,15.800006957941825,-0.3033602599907853,393.62952783996485,0.3477481444313558,171.22518633011322,-2.87464904785,-3.17805981636,172.026504517,0
18.5,15.801114228612853,-0.604870118764801,393.5152652345322,0.3529418731965474,170.70581373221148,-2.87464904785,-3.17805981636,172.026504517,0
18.6,15.802221499283883,-0.9063799775388274,393.4010026290996,0.3581356019617391,170.18644113430975,-3.466121811716156,-3.6036868701863765,172.24378626768043,0
18.7,15.833041791389483,-1.1301029808832994,393.2441838608639,0.36408709250909005,169.5912917898196,-4.20312738419,-4.23618602753,172.513931274,0
18.8,15.880501332186881,-1.3102654585742295,393.06353370349115,0.3704629285498894,168.95370757769686,-4.20312738419,-4.23618602753,172.513931274,0
18.900000000000002,15.927960872984281,-1.4904279362651593,392.88288354611836,0.37683876459068866,168.31612336557413,-4.20312738419,-4.23618602753,172.513931274,0
19.0,15.975420413781679,-1.670590413956083,392.7022333887455,0.38321460063148777,167.6785391534514,-5.6542468071,-5.22993755341,170.882400513,0
19.1,16.02287995457908,-1.850752891647013,392.52158323137274,0.3895904366722871,167.04095494132866,-5.6542468071,-5.22993755341,170.882400513,0
19.200000000000003,16.090887752367905,-2.0110291311459565,392.39403650572996,0.3927606451044035,166.72393461850615,-5.6542468071,-5.22993755341,170.882400513,0
19.3,16.160306062011724,-2.1699403023214505,392.27013500508247,0.3957108068558392,166.42891904121166,-5.6542468071,-5.22993755341,170.882400513,0
19.400000000000002,16.229724371655543,-2.3288514734969503,392.146233504435,0.398660968607275,166.13390346391714,-5.6542468071,-5.22993755341,170.882400513,0
19.5,16.291624416563703,-2.3719251723348913,392.0353600443027,0.40242821749486485,165.7571786149469,-5.57738161087,-4.22328615189,167.995864868,0
19.6,16.34727588295317,-2.318724056869627,391.93531444631236,0.406874563661732,165.31254357423398,-5.57738161087,-4.22328615189,167.995864868,0
19.700000000000003,16.40292734934264,-2.2655229414043623,391.83526884832196,0.4113209098285992,164.86790853352105,-5.57738161087,-4.22328615189,167.995864868,0
19.8,16.458578815732107,-2.2123218259390995,391.7352232503316,0.4157672559954662,164.42327349280814,-4.74357175827,-3.78688526154,166.730407715,0
19.900000000000002,16.513422109218364,-2.1560497052581367,391.6327051636689,0.4202553861048486,164.0,-4.74357175827,-3.78688526154,166.730407715,0
20.0,16.552251667695334,-2.038926418272424,391.48119535969647,0.4255714541225945,164.0,-4.74357175827,-3.78688526154,166.730407715,0
20.1,16.591081226172307,-1.921803131286707,391.32968555572404,0.4308875221403406,164.0,-4.74357175827,-3.78688526154,166.730407715,0
20.200000000000003,16.62991078464928,-1.80467984430099,391.1781757517516,0.43620359015808674,164.0,-4.74357175827,-3.78688526154,166.730407715,0
20.3,16.660978517507047,-1.6782236727531206,391.0282109279127,0.4420374921203081,164.10187467056474,-4.24310922623,-14.137342453,164.67640686,0
20.400000000000002,16.67265570128654,-1.5284521415176082,390.88210576474836,0.44916504392824497,164.45825206978293,-4.24310922623,-14.137342453,164.67640686,0
20.5,16.68433288506603,-1.378680610282101,390.73600060158395,0.4562925957361816,164.8146294690011,-4.24310922623,-14.137342453,164.67640686,0
20.6,16.674509173264916,-1.3916769973932617,390.6347310175632,0.46315881589356417,165.3158807423054,-4.24310922623,-14.137342453,164.67640686,0
20.700000000000003,16.641378605591683,-1.5811129378843316,390.58206296165673,0.4697417539387456,165.97417452066736,-3.85339546204,-4.02533721924,164.789871216,0
20.8,16.60824803791845,-1.7705488783753944,390.5293949057503,0.4763246919839268,166.63246829902928,-3.85339546204,-4.02533721924,164.789871216,0
20.900000000000002,16.575117470245218,-1.9599848188664644,390.4767268498438,0.48290763002910825,167.2907620773912,-3.7007884927570713,-0.5130272078107176,164.82468924352773,0
21.0,16.54198690257199,-2.149420759357527,390.4240587939374,0.4894905680742894,167.94905585575313,-2.94135951996,17.0870494843,164.994934082,0
21.1,16.508815504926336,-1.7804825659243337,390.29534095775546,0.4981289757616657,169.62579479539946,-2.94135951996,17.0870494843,164.994934082,0
21.200000000000003,16.475640682485658,-1.3647082655363558,390.1602441089609,0.506939795081593,171.38796033990346,-2.94135951996,17.0870494843,164.994934082,0
21.3,16.442465860044983,-0.9489339651483926,390.0251472601664,0.51575061440152,173.1501258844074,-2.94135951996,17.0870494843,164.994934082,0
21.400000000000002,16.416925021524907,-1.0197818133901773,389.8639867776747,0.5259262148487018,174.9481972014221,-3.27016949654,29.725725174,168.775588989,0
21.5,16.398495863688613,-1.543958011639548,389.6785458876997,0.5373732205911044,176.77971768357202,-3.27016949654,29.725725174,168.775588989,0
21.6,16.380066705852315,-2.0681342098889375,389.4931049977247,0.5488202263335074,178.611238165722,-3.27016949654,29.725725174,168.775588989,0
21.700000000000003,16.36163754801602,-2.592310408138327,389.3076641077497,0.5602672320759103,180.442758647872,-3.9119300441620704,32.034729466906235,172.55252246253667,0
21.8,16.34583661688061,-2.998127649064001,389.1246458310172,0.5710710518432642,182.2499135075927,-4.22594642639,33.3565559387,174.968338013,0
21.900000000000002,16.344957649735175,-2.7319525924915733,388.95538213167833,0.5782231326052684,183.9187306278941,-4.22594642639,33.3565559387,174.968338013,0
22.0,16.344078682589743,-2.465777535919155,388.78611843233955,0.5853752133672723,185.58754774819545,-4.22594642639,33.3565559387,174.968338013,0
22.1,16.343199715444307,-2.1996024793467273,388.6168547330007,0.5925272941292764,187.25636486849686,-4.22594642639,33.3565559387,174.968338013,0
22.200000000000003,16.34232074829887,-1.9334274227742998,388.44759103366187,0.5996793748912805,188.92518198879827,-2.27540111542,37.6594772339,-177.576766968,0
22.3,16.36102114367172,-1.9615033578617107,388.29691108086774,0.6076656585377216,191.04417120165036,-2.27540111542,37.6594772339,-177.576766968,0
22.400000000000002,16.380640541417815,-2.003390639432598,388.14710339892315,0.6156910974135453,193.18429027616358,-2.27540111542,37.6594772339,-177.576766968,0
22.5,16.40025993916391,-2.0452779210034837,387.9972957169786,0.6237165362893689,195.32440935067675,-2.27540111542,37.6594772339,-177.576766968,0
22.6,16.428543115295497,-2.0966274263395963,387.8674564755569,0.6311949554827264,197.4779845561444,-1.21409094334,38.8684654236,-170.183639526,0
22.700000000000003,16.488077223045742,-2.18210791872205,387.8096449732515,0.6367002315588217,199.6800970867373,-1.21409094334,38.8684654236,-170.183639526,0
22.8,16.547611330795988,-2.2675884111045006,387.7518334709461,0.6422055076349169,201.8822096173301,-1.21409094334,38.8684654236,-170.183639526,0
22.900000000000002,16.607145438546237,-2.353068903486954,387.6940219686407,0.6477107837110123,204.08432214792296,-1.21409094334,38.8684654236,-170.183639526,0
23.0,16.680526569582007,-2.0708718842892377,387.6559514211272,0.649999976158,206.28627215389614,0.6937611880524572,41.6293182373,-162.01870252977625,0
23.1,16.763763943419303,-1.5269638278477051,387.63193238775875,0.649999976158,208.48810647564758,0.707784235477,41.6293182373,-161.976272583,0
23.200000000000003,16.8470013172566,-0.9830557714061725,387.6079133543903,0.649999976158,210.68994079739906,0.707784235477,41.6293182373,-161.976272583,0
23.3,16.930238691093894,-0.439147714964659,387.58389432102183,0.649999976158,212.89177511915045,1.3063478047210357,42.228623238643266,-157.6380079982507,0
23.400000000000002,17.01347606493119,0.10476034147687363,387.55987528765337,0.649999976158,215.09360944090193,1.83169019222,42.8010597229,-153.866882324,0
23.5,17.094216698174147,0.32175509542652164,387.55264427509695,0.6513289538641582,217.46186815749257,1.83169019222,42.8010597229,-153.866882324,0
23.6,17.173210422621473,0.31001654611390017,387.5571594332418,0.6535877850157849,219.94656998387677,1.83169019222,42.8010597229,-153.866882324,0
23.700000000000003,17.252204147068802,0.29827799680127876,387.56167459138663,0.6558466161674115,222.43127181026094,1.83169019222,42.8010597229,-153.866882324,0
23.8,17.331197871516128,0.2865394474886577,387.5661897495315,0.658105447319038,224.91597363664505,2.606211917384047,42.9207200397105,-148.01814350254017,0
23.900000000000002,17.41161677396239,0.3025031476287542,387.5787760434634,0.660000026226,227.37226140755743,3.2518465519,43.0206108093,-143.22819519,0
24.0,17.499448430111592,0.46255407923349645,387.63334259651896,0.660000026226,229.68075964265591,3.2518465519,43.0206108093,-143.22819519,0
24.1,17.587280086260797,0.6226050108382444,387.68790914957447,0.660000026226,231.98925787775445,3.2518465519,43.0206108093,-143.22819519,0
24.200000000000003,17.675111742410003,0.7826559424429923,387.74247570263003,0.660000026226,234.29775611285302,3.2518465519,43.0206108093,-143.22819519,0
24.3,17.762943398559205,0.9427068740477345,387.79704225568554,0.660000026226,236.6062543479515,4.25833511353,43.2659111023,-132.972900391,0
24.400000000000002,17.852430869067376,1.0012410174887165,387.8669359721977,0.6580027309439896,238.99864561719988,4.25833511353,43.2659111023,-132.972900391,0
24.5,17.94444119013227,0.9051010066994836,387.96018263443733,0.652962294088247,241.51885893773292,4.25833511353,43.2659111023,-132.972900391,0
24.6,18.036451511197168,0.8089609959102473,388.0534292966769,0.6479218572325042,244.039072258266,4.25833511353,43.2659111023,-132.972900391,0
24.700000000000003,18.12846183226206,0.712820985121011,388.14667595891643,0.6428814203767614,246.55928557879912,4.389728218851001,43.3245367932522,-131.35640867115958,0
24.8,18.215871779668177,1.119292155368905,388.25394414843345,0.6375471625821636,248.98113018078936,5.20133018494,43.7846565247,-121.641159058,0
24.900000000000002,18.297142003655203,2.1965552803145183,388.3799256655586,0.6318207672280727,251.27169050681857,5.20133018494,43.7846565247,-121.641159058,0
25.0,18.378412227642222,3.273818405260094,388.5059071826837,0.626094371873982,253.56225083284772,5.20133018494,43.7846565247,-121.641159058,0
25.1,18.45968245162925,4.3510815302057075,388.6318886998088,0.6203679765198911,255.85281115887696,5.262349636515814,43.65563313192718,-118.57648870062224,0
25.200000000000003,18.520115255449973,3.5099131695563788,388.79401412200804,0.6145955182772393,258.16179665800973,5.3911113739,43.3325500488,-111.861755371,0
25.3,18.579117119394958,2.5370029670811705,388.958621605548,0.6088198968203555,260.4720474440494,5.3911113739,43.3325500488,-111.861755371,0
25.400000000000002,18.638118983339947,1.5640927646059275,389.1232290890879,0.6030442753634716,262.78229823008917,5.3911113739,43.3325500488,-111.861755371,0
25.5,18.695022224774252,1.201094836805551,389.27560350062004,0.5981517712151818,265.1089493287497,5.27750682831,42.1276626587,-103.981575012,0
25.6,18.74958644406136,1.5178753403595957,389.4143435275933,0.5942435464848752,267.45387941481556,5.27750682831,42.1276626587,-103.981575012,0
25.700000000000003,18.80415066334847,1.8346558439136404,389.55308355456657,0.5903353217545687,269.7988095008814,5.27750682831,42.1276626587,-103.981575012,0
25.8,18.858714882635574,2.1514363474676736,389.69182358153984,0.5864270970242623,272.14373958694716,4.943141766843674,42.02054453108172,-101.83159436769945,0
25.900000000000002,18.91327910192268,2.4682168510217184,389.83056360851305,0.5825188722939557,274.488669673013,3.9298081398,41.6516952515,-95.4035873413,0
26.0,18.967899437558344,2.5654844686981426,389.9653176348922,0.5791604654537224,276.8395186578427,3.9298081398,41.6516952515,-95.4035873413,0
26.1,19.022621513073968,2.2647715471792447,390.09284497542393,0.5767988876582879,279.20109870527983,3.9298081398,41.6516952515,-95.4035873413,0
26.200000000000003,19.077343588589592,1.9640586256603467,390.22037231595573,0.5744373098628535,281.56267875271703,3.9298081398,41.6516952515,-95.4035873413,0
26.3,19.132065664105212,1.6633457041414594,390.34789965648747,0.572075732067419,283.9242588001541,3.700786778355555,41.80824207779613,-93.08106695966632,0
26.400000000000002,19.189012705040092,1.427074277283749,390.46832041329856,0.5697127961247367,286.3159166957794,2.76172041893,42.7040672302,-83.9641113281,0
26.5,19.262117285189472,1.6587723604316646,390.5371336690879,0.5673399974141984,288.92599776660586,2.76172041893,42.7040672302,-83.9641113281,0
26.6,19.335221865338855,1.8904704435795885,390.6059469248772,0.5649671987036601,291.53607883743234,2.76172041893,42.7040672302,-83.9641113281,0
26.700000000000003,19.40832644548824,2.1221685267275125,390.6747601806665,0.5625943999931217,294.1461599082589,2.76172041893,42.7040672302,-83.9641113281,0
26.8,19.481431025637622,2.353866609875428,390.7435734364558,0.5602216012825835,296.7562409790853,1.55594348907,44.0527954102,-72.7357940674,0
26.900000000000002,19.577725782216785,2.024830067317819,390.80793300296517,0.5579309595145494,299.06904484269864,1.55594348907,44.0527954102,-72.7357940674,0
27.0,19.676409399898585,1.638031258901258,390.87183378706226,0.555648780878517,301.351225655247,1.55594348907,44.0527954102,-72.7357940674,0
27.1,19.77509301758039,1.251232450484683,390.93573457115934,0.5533666022424844,303.6334064677954,1.55594348907,44.0527954102,-72.7357940674,0
27.200000000000003,19.873776635262193,0.864433642068108,390.99963535525643,0.5510844236064518,305.9155872803438,-0.227603778243,44.0452308655,-62.6669654846,0
27.3,19.953807194322266,0.6729912712335263,391.04128170056293,0.550000011921,308.4106019472754,-0.227603778243,44.0452308655,-62.6669654846,0
27.400000000000002,20.016949998440523,0.6584170329178985,391.0627797411714,0.550000011921,311.098308121216,-0.227603778243,44.0452308655,-62.6669654846,0
27.5,20.080092802558774,0.6438427946022713,391.08427778177986,0.550000011921,313.7860142951566,-0.227603778243,44.0452308655,-62.6669654846,0
27.6,20.14323560667703,0.6292685562866437,391.10577582238835,0.550000011921,316.47372046909726,-0.5286417015727432,43.52876037888493,-57.287713536667766,0
27.700000000000003,20.224635044232127,0.48592887645863303,391.0715507768023,0.5564060289987038,319.13534106230486,-0.817942500114,43.0099143982,-52.1906547546,0
27.8,20.310479736735818,0.311236471163907,391.02375787789254,0.5643718286734565,321.7906101527974,-0.817942500114,43.0099143982,-52.1906547546,0
27.900000000000002,20.396324429239517,0.13654406586917478,390.97596497898274,0.5723376283482096,324.44587924329,-0.817942500114,43.0099143982,-52.1906547546,0
28.0,20.482778603183963,-0.05864310973267313,390.9278470493747,0.5800858082941598,327.12015509101565,-2.72202110291,44.1594314575,-42.8789978027,0
28.1,20.58462293869056,-0.771348629808319,390.87152169190426,0.5823388204442784,330.27437510936136,-2.72202110291,44.1594314575,-42.8789978027,0
28.200000000000003,20.68646727419716,-1.484054149883965,390.8151963344338,0.5845918325943971,333.42859512770707,-2.72202110291,44.1594314575,-42.8789978027,0
28.3,20.788311609703754,-2.1967596699595857,390.75887097696335,0.5868448447445156,336.58281514605267,-2.72202110291,44.1594314575,-42.8789978027,0
28.400000000000002,20.890155945210353,-2.9094651900352315,390.70254561949287,0.5890978568946342,339.7370351643984,-3.23231649399,47.0055770874,-32.1924819946,0
28.5,20.975034654121234,-2.5948455560519874,390.64264910374607,0.589999973774,342.6597818570771,-3.23231649399,47.0055770874,-32.1924819946,0
28.6,21.04858385551783,-1.594186536086476,390.5803677975349,0.589999973774,345.42795254469627,-3.23231649399,47.0055770874,-32.1924819946,0
28.700000000000003,21.12213305691443,-0.5935275161209645,390.51808649132374,0.589999973774,348.1961232323155,-3.23231649399,47.0055770874,-32.1924819946,0
28.8,21.17282045040524,-0.4201669486843509,390.42562909861635,0.589999973774,278.84922397532506,-2.8994300953881256,46.79112874873762,-20.35773860256023,0
28.900000000000002,21.214151771438562,-0.5853738426546912,390.3208223041073,0.589999973774,179.9896185290505,-2.8581943512,46.7574310303,-18.9562892914,0
29.0,21.255483092471877,-0.7505807366250256,390.2160155095982,0.589999973774,81.13001308277939,-2.8581943512,46.7574310303,-18.9562892914,0
29.1,21.28554753088078,-0.8571167513495426,390.1188319399966,0.5884589250648231,0.4623150536513712,-3.21822857857,46.1536636353,-10.7316799164,0
29.200000000000003,21.264055096690445,-0.6951768133729432,390.05653198891224,0.579866089750888,3.0401681062659267,-3.21822857857,46.1536636353,-10.7316799164,0
29.3,21.242562662500113,-0.5332368753963496,389.9942320378278,0.5712732544369532,5.618021158880391,-3.21822857857,46.1536636353,-10.7316799164,0
29.400000000000002,21.221070228309777,-0.37129693741975023,389.9319320867435,0.562680419123018,8.195874211494946,-3.21822857857,46.1536636353,-10.7316799164,0
29.5,21.199577794119445,-0.20935699944315667,389.86963213565906,0.5540875838090832,10.77372726410941,-2.44805669785,44.0636520386,0.294870793819,0
29.6,21.153219194091076,-0.10361842914308016,389.8660195299635,0.5429028168565595,12.946292637659374,-2.44805669785,44.0636520386,0.294870793819,0
29.700000000000003,21.0842998177359,-0.04887069087030799,389.9156532542875,0.5293664211755285,14.751145323417374,-2.44805669785,44.0636520386,0.294870793819,0
29.8,21.015380441380728,0.005877047402462254,389.9652869786115,0.5158300254944977,16.55599800917531,-2.44805669785,44.0636520386,0.294870793819,0
29.900000000000002,20.946461065025552,0.06062478567523441,390.0149207029355,0.5022936298134667,18.36085069493331,0.0314437661954714,38.32461033749999,7.729214409594145,0
30.0,20.876352369756724,0.12535604953096555,390.0715825103297,0.4893049124296003,20.092679610637493,1.53735888004,34.4850006104,12.2323827744,0
30.1,20.79447884951756,0.2888450391081717,390.1977666016532,0.4817338666493658,21.10215234122571,1.53735888004,34.4850006104,12.2323827744,0
30.200000000000003,20.712605329278396,0.45233402868537786,390.3239506929767,0.4741628208691313,22.111625071813926,1.53735888004,34.4850006104,12.2323827744,0
30.3,20.63073180903924,0.6158230182625782,390.45013478430025,0.46659177508889704,23.121097802402105,1.53735888004,34.4850006104,12.2323827744,0
30.400000000000002,20.548936401185127,0.8035343534973426,390.5823504414557,0.4588634139998134,23.96211352333247,2.32480931282,18.3858985901,21.1301460266,0
30.5,20.467666786902576,1.1542922226003607,390.75516604366146,0.45007612508454464,23.669203904461785,2.32480931282,18.3858985901,21.1301460266,0
30.6,20.386397172620022,1.5050500917033913,390.92798164586725,0.44128883616927556,23.376294285591094,2.32480931282,18.3858985901,21.1301460266,0
30.700000000000003,20.305127558337464,1.855807960806422,391.10079724807304,0.4325015472540065,23.0833846667204,2.32480931282,18.3858985901,21.1301460266,0
30.8,20.27246302142948,2.101838621506417,391.26830333269737,0.430000007153,22.724857088734776,3.28043532372,8.76025676727,24.2702617645,0
30.900000000000002,20.259141852154823,2.3061909843253146,391.43369638806473,0.430000007153,22.34021552482279,3.28043532372,8.76025676727,24.2702617645,0
31.0,20.24582068288016,2.5105433471442047,391.59908944343204,0.430000007153,21.955573960910815,3.28043532372,8.76025676727,24.2702617645,0
31.1,20.232499513605504,2.714895709963102,391.7644824987994,0.430000007153,21.570932396998828,3.3242703105485885,-7.376779144153325,23.74895007400687,0
31.200000000000003,20.219178344330842,2.9192480727819996,391.9298755541667,0.430000007153,21.18629083308684,3.3348171711,-11.9131679535,23.6257095337,0
31.3,20.227587748488258,2.763204912182975,392.0506103516454,0.433385636483542,19.984310232174074,3.3348171711,-11.9131679535,23.6257095337,0
31.400000000000002,20.256406488226514,2.268678590876643,392.1294021523341,0.439951045923218,18.014685521840182,3.3348171711,-11.9131679535,23.6257095337,0
31.5,20.285225227964766,1.774152269570329,392.20819395302277,0.4465164553628938,16.04506081150636,3.3348171711,-11.9131679535,23.6257095337,0
31.6,20.324123663076,1.2911138251898402,392.2447063763502,0.4542333389328649,13.72999542513449,2.8031467797228853,-18.86254743475323,22.839033123508415,0
31.700000000000003,20.374415463902228,0.8210604540939904,392.23342921967026,0.46325176638807825,11.024468639950324,1.84617626667,-32.8230171204,21.4320087433,0
31.8,20.42470726472845,0.3510070829981573,392.22215206299023,0.4722701938432913,8.318941854766255,1.84617626667,-32.8230171204,21.4320087433,0
31.900000000000002,20.474999065554677,-0.11904628809769235,392.2108749063102,0.4812886212985047,5.6134150695820875,1.37166137315495,-34.465141615585964,19.92176661886201,0
32.0,20.52572099526502,-0.5872911574863288,392.196438161144,0.4902657779283759,6.074057325206738,-0.0257154479623,-39.206703186,15.5687265396,0
32.1,20.588646641954025,-1.004224794812207,392.09235683483456,0.4980719890799485,96.36598575346582,-0.0257154479623,-39.206703186,15.5687265396,0
32.2,20.65157228864303,-1.421158432138085,391.98827550852513,0.5058782002315211,186.65791418172492,-0.0257154479623,-39.206703186,15.5687265396,0
32.300000000000004,20.714497935332037,-1.838092069463963,391.8841941822157,0.5136844113830937,276.949842609984,-0.0257154479623,-39.206703186,15.5687265396,0
32.4,20.773008664669387,-2.147954002973169,391.7751138251399,0.5211569317150843,349.3058309339177,-2.88073253632,-44.5153503418,3.29808950424,0
32.5,20.812814215363158,-2.0041731640271965,391.6448535101891,0.5272156664889694,345.6705974365691,-2.88073253632,-44.5153503418,3.29808950424,0
32.6,20.852619766056925,-1.8603923250812233,391.51459319523826,0.5332744012628545,342.0353639392205,-2.88073253632,-44.5153503418,3.29808950424,0
32.7,20.892425316750693,-1.7166114861352502,391.38433288028745,0.5393331360367397,338.40013044187185,-3.2366704811470965,-45.0738350377512,-0.8148148675696874,0
32.800000000000004,20.88914344107264,-1.0204283788009652,391.2433097093755,0.5517849000272105,334.75915530275455,-3.98790502548,-46.3565979004,-9.39720249176,0
32.9,20.880532340743127,-0.25592195689194,391.10095534553477,0.5650273793554812,331.1174700144959,-3.98790502548,-46.3565979004,-9.39720249176,0
33.0,20.871921240413613,0.5085844650171398,390.958600981694,0.5782698586837529,327.47578472623695,-3.98790502548,-46.3565979004,-9.39720249176,0
33.1,20.824856425306535,-0.8076839167917961,390.8303372705326,0.5860922365782789,322.73543135526637,-3.87752580643,-45.9243888855,-21.4001922607,0
33.2,20.772012625736803,-2.436659805028361,390.7041911613602,0.5931000590481126,317.8299655675545,-3.87752580643,-45.9243888855,-21.4001922607,0
33.300000000000004,20.718265946445484,-4.03692929712047,390.5776095161081,0.600000023842,312.9405737033972,-3.87752580643,-45.9243888855,-21.4001922607,0
33.4,20.60675946250978,-3.8007683171266424,390.423165379007,0.600000023842,309.07947681828324,-4.33795022964,-48.9119873047,-33.8194351196,0
33.5,20.49525297857407,-3.5646073371327986,390.26872124190584,0.600000023842,305.21837993316905,-4.33795022964,-48.9119873047,-33.8194351196,0
33.6,20.383746494638356,-3.3284463571389544,390.1142771048047,0.600000023842,301.3572830480548,-4.33795022964,-48.9119873047,-33.8194351196,0
33.7,20.272240010702646,-3.09228537714511,389.9598329677036,0.600000023842,297.49618616294055,-4.82748794556,-49.5138473511,-46.350566864,0
33.800000000000004,20.137115344208137,-2.8443275106895367,389.78614560881675,0.6021718023145766,293.37116459214724,-4.82748794556,-49.5138473511,-46.350566864,0
33.9,19.95879709769459,-2.57479517472974,389.5772657181609,0.6083153888212961,288.7634703177496,-4.82748794556,-49.5138473511,-46.350566864,0
34.0,19.78047885118103,-2.3052628387699237,389.368385827505,0.6144589753280161,284.1557760433516,-4.82748794556,-49.5138473511,-46.350566864,0
34.1,19.601771212658463,-2.066932755824867,389.16722332689244,0.62054337939596,279.59246864038766,-4.5011040275202125,-49.21356740251498,-49.4132585827673,0
34.2,19.419482780374256,-2.115534172140399,389.0370288520324,0.6260835501394763,275.4373366202089,-2.83235383034,-46.7757263184,-64.4592285156,0
34.300000000000004,19.23719434809005,-2.1641355884559306,388.9068343771724,0.6316237208829925,271.2822046000301,-2.83235383034,-46.7757263184,-64.4592285156,0
34.4,19.054905915805854,-2.212737004771459,388.7766399023124,0.6371638916265082,267.12707257985164,-2.83235383034,-46.7757263184,-64.4592285156,0
34.5,18.89073324418423,-2.126182496202562,388.6614843689578,0.643880554660109,262.9627023862261,-1.86520814896,-46.5204811096,-79.2007293701,0
34.6,18.745560773938514,-1.8978735320641698,388.56210200253804,0.6518311482387837,258.788642996596,-1.86520814896,-46.5204811096,-79.2007293701,0
34.7,18.600388303692796,-1.6695645679257771,388.46271963611827,0.6597817418174586,254.61458360696588,-1.86520814896,-46.5204811096,-79.2007293701,0
34.800000000000004,18.45521583344708,-1.4412556037873845,388.3633372696985,0.6677323353961334,250.44052421733576,-1.3538386866877539,-47.03411160009908,-87.8976407480413,0
34.9,18.310043363201377,-1.2129466396490083,388.2639549032787,0.6756829289748076,246.26646482770593,-0.954530239105,-47.4477043152,-94.5832366943,0
35.0,18.21300026520436,-1.3318479753434993,388.1683116736684,0.6859542907878796,242.2137158677436,-0.954530239105,-47.4477043152,-94.5832366943,0
35.1,18.173140979511366,-1.8632792836515981,388.0771110138965,0.6989830202730487,238.3050991188726,-0.954530239105,-47.4477043152,-94.5832366943,0
35.2,18.133281693818372,-2.394710591959697,387.9859103541246,0.7120117497582179,234.3964823700016,-0.954530239105,-47.4477043152,-94.5832366943,0
35.300000000000004,18.118391274688943,-2.7564690153124576,387.8788560750167,0.72000002861,230.41296529586077,-0.3130237522454714,-48.689810428284694,-102.83749170165422,0
35.4,18.14307237073347,-2.849324037522518,387.7466764368334,0.72000002861,226.3107436201155,0.675533354282,-50.7138328552,-115.425590515,0
35.5,18.167753466778006,-2.9421790597325854,387.61449679865007,0.72000002861,222.20852194436995,0.675533354282,-50.7138328552,-115.425590515,0
35.6,18.192434562822537,-3.0350340819426522,387.4823171604668,0.72000002861,218.10630026862438,0.7258998683131115,-51.047547985315234,-118.4561368236958,0
35.7,18.21711565886707,-3.1278891041527195,387.35013752228343,0.72000002861,214.0040785928788,0.892035603523,-52.4993438721,-128.072174072,0
35.800000000000004,18.22533731287803,-2.576000643527511,387.2561484543249,0.7043575753875754,210.2011213496795,0.892035603523,-52.4993438721,-128.072174072,0
35.9,18.233542585966774,-2.023470515170253,387.16219739474826,0.6886995543343002,206.39846194327112,0.892035603523,-52.4993438721,-128.072174072,0
36.0,18.241747859055522,-1.4709403868129554,387.0682463351717,0.6730415332810239,202.59580253686244,0.892035603523,-52.4993438721,-128.072174072,0
36.1,18.249953132144267,-0.9184102584556579,386.97429527559507,0.6573835122277475,198.79314313045379,1.38897562027,-49.7741241455,-145.186050415,0
36.2,18.19786967769829,-0.15330077643947826,386.9430028755695,0.6407079575386532,196.07079725190323,1.38897562027,-49.7741241455,-145.186050415,0
36.300000000000004,18.091989038867073,0.8014987380739995,386.96762241130773,0.6231244313785609,194.3124429589867,1.38897562027,-49.7741241455,-145.186050415,0
36.4,17.986108400035864,1.7562982525874093,386.99224194704595,0.6055409052184699,192.55408866607027,1.38897562027,-49.7741241455,-145.186050415,0
36.5,17.799589810342844,2.1568455905354327,387.1518290669228,0.5921737912644067,191.53042615730018,2.693291846309681,-41.89516099369168,-155.39083004053464,0
36.6,17.57596929427112,2.302378717055745,387.37351545044305,0.5807466697528407,190.84479903007346,3.59124135971,-36.1723899841,-162.325180054,0
36.7,17.352348778199392,2.447911843576058,387.5952018339633,0.5693195482412747,190.1591719028467,3.59124135971,-36.1723899841,-162.325180054,0
36.800000000000004,17.128728262127666,2.59344497009637,387.8168882174835,0.5578924267297087,189.47354477561998,6.214822175332923,-26.046540885661315,-166.19002206868367,0
36.9,16.900714253945395,2.7681453634806035,388.07350815374735,0.5465031091015556,189.06993803971426,7.29083490372,-21.5296611786,-167.762405396,0
37.0,16.66289030533232,3.007971434404217,388.4081289291676,0.535198201285686,189.29603614212533,7.29083490372,-21.5296611786,-167.762405396,0
37.1,16.425066356719242,3.2477975053278305,388.7427497045879,0.5238932934698163,189.52213424453643,7.29083490372,-21.5296611786,-167.762405396,0
37.2,16.18724240810616,3.487623576251444,389.07737048000814,0.5125883856539466,189.7482323469475,8.038334061385994,-16.75231540116297,-168.30715277298734,0
37.300000000000004,15.949418459493087,3.727449647175057,389.4119912554284,0.5012834778380769,189.9743304493586,10.8706302643,3.18557405472,-170.397827148,0
37.4,15.784413142164262,3.909360798111408,389.75309378781094,0.4910189432573372,190.8981058616336,10.8706302643,3.18557405472,-170.397827148,0
37.5,15.62873394891747,4.0838545927959835,390.0950264603462,0.48088765273393946,191.91123512533747,10.8706302643,3.18557405472,-170.397827148,0
37.6,15.47305475567068,4.258348387480559,390.43695913288155,0.47075636221054173,192.92436438904136,10.8706302643,3.18557405472,-170.397827148,0
37.7,15.317375562423887,4.4328421821651345,390.77889180541683,0.460625071687144,193.93749365274522,11.15679893954777,17.67129218429721,-169.37547358794038,0
37.800000000000004,15.233771049342842,4.154008050102207,390.99854063137315,0.4579100010872267,195.25400181330392,11.2083444595,20.4981250763,-169.187973022,0
37.9,15.154905665635567,3.8453662284504384,391.2101489225962,0.45568256949730357,196.59045805879555,11.2083444595,20.4981250763,-169.187973022,0
38.0,15.076040281928286,3.5367244067986476,391.4217572138193,0.45345513790738035,197.92691430428724,11.2083444595,20.4981250763,-169.187973022,0
38.1,14.997174898221004,3.2280825851468573,391.6333655050424,0.4512277063174571,199.26337054977895,8.71271038055,26.6979064941,-165.359771729,0
38.2,14.951301785136543,2.836985730408001,391.784123895513,0.45100364490863637,200.50182739781476,8.71271038055,26.6979064941,-165.359771729,0
38.300000000000004,14.945945498512735,2.344628301500438,391.8601543323632,0.45323986284500356,201.61993410004334,8.71271038055,26.6979064941,-165.359771729,0
38.400000000000006,14.940589211888925,1.852270872592875,391.9361847692134,0.45547608078137075,202.73804080227188,8.71271038055,26.6979064941,-165.359771729,0
38.5,14.935232925265117,1.3599134436853468,392.01221520606356,0.4577122987177378,203.85614750450037,5.544648572108358,31.628441999351743,-160.7995724840238,0
38.6,14.929876638641309,0.8675560147777839,392.08824564291376,0.459948516654105,204.97425420672894,4.45606708527,33.5546722412,-159.264358521,0
38.7,14.97810126763094,1.0162178483751603,392.06665203777544,0.460000008345,206.3338204571013,4.45606708527,33.5546722412,-159.264358521,0
38.800000000000004,15.027588742228964,1.1799878291790993,392.04275753704235,0.460000008345,207.69907765408192,4.45606708527,33.5546722412,-159.264358521,0
38.900000000000006,15.078136288002746,1.3034249074754272,392.0164373757806,0.45987754142192555,209.06123333744173,4.45606708527,33.5546722412,-159.264358521,0
39.0,15.150119653678606,0.6112857734810836,391.94106765687997,0.4572786569081981,210.36067296086114,2.15899896622,37.7846260071,-154.326934814,0
39.1,15.222103019354472,-0.08085336051330927,391.8656979379793,0.4546797723944704,211.66011258428063,2.15899896622,37.7846260071,-154.326934814,0
39.2,15.294086385030338,-0.7729924945077018,391.7903282190787,0.45208088788074274,212.95955220770014,2.15899896622,37.7846260071,-154.326934814,0
39.300000000000004,15.36605397624211,-1.3383418611800268,391.7039131916564,0.4504494352107963,214.1797784883794,0.275382012129,33.8862915039,-150.479537964,0
39.400000000000006,15.437958196704813,-1.3943387400685607,391.5731258501852,0.45270444614748695,215.08178103505736,0.275382012129,33.8862915039,-150.479537964,0
39.5,15.509862417167508,-1.4503356189570908,391.44233850871393,0.4549594570841775,215.9837835817352,0.275382012129,33.8862915039,-150.479537964,0
39.6,15.581766637630208,-1.5063324978456247,391.31155116724267,0.45721446802086824,216.88578612841314,0.17443985271594076,33.8197987002382,-150.223230923581,0
39.7,15.65367085809291,-1.5623293767341588,391.18076382577146,0.45946947895755896,217.78778867509106,-1.72642254829,25.4381370544,-145.482208252,0
39.800000000000004,15.724863965152368,-1.387049322655243,391.0441874913822,0.4625191255186089,218.25191195760934,-1.72642254829,25.4381370544,-145.482208252,0
39.900000000000006,15.795838301208802,-1.1406179073861507,390.90583019803296,0.46581323833748195,218.58132355365646,-1.72642254829,25.4381370544,-145.482208252,0
40.0,15.86681263726523,-0.8941864921170758,390.76747290468364,0.46910735115635477,218.91073514970358,-1.72642254829,25.4381370544,-145.482208252,0
