t_sec,airspeed,climb,altitude,throttle,heading,pitch,roll,yaw,is_boundary
0.0,13.0740556717,-1.03544938564,404.410003662,0.449999988079,266.0,-1.1791036129,5.00152635574,-92.4598007202,0
0.1,13.058083369549205,-1.4786337888951828,404.4759573843415,0.4434040182738219,266.329798804788,0.14734531939,0.399436444044,-93.6589126587,0
0.2,13.04211106739841,-1.9218181921503656,404.541911106683,0.43680804846864385,266.65959760957605,0.14734531939,0.399436444044,-93.6589126587,0
0.30000000000000004,13.026138765247614,-2.3650025954055485,404.6078648290245,0.4302120786634658,266.9893964143641,0.14734531939,0.399436444044,-93.6589126587,0
0.4,13.017171375033595,-1.3390961769058294,404.7012078567962,0.40585261241809617,267.53660875055954,0.188678219914,1.07616996765,-92.9935531616,0
0.5,13.008436686248471,-0.26438692740879066,404.79546075046886,0.3809030472476944,268.0910435100883,0.188678219914,1.07616996765,-92.9935531616,0
0.6000000000000001,12.999701997463346,0.8103223220882492,404.88971364414147,0.3559534820772926,268.6454782696171,0.188678219914,1.07616996765,-92.9935531616,0
0.7000000000000001,12.995800976385175,1.5297452025515523,404.97610616322305,0.3299065126298095,269.11874695105917,0.10631765212257122,2.881412333047034,-92.4443343564276,0
0.8,13.000471884044646,1.619110408087707,405.0485592526768,0.30191342858988246,269.4480773480651,-0.203093543649,11.8994169235,-90.3586044312,0
0.9,13.005142791704118,1.7084756136238615,405.12101234213054,0.2739203445499554,269.77740774507106,-0.203093543649,11.8994169235,-90.3586044312,0
1.0,13.009813699363589,1.7978408191600161,405.19346543158423,0.24592726051002833,270.106738142077,-0.203093543649,11.8994169235,-90.3586044312,0
1.1,13.01448460702306,1.8872060246961708,405.265918521038,0.21793417647010124,270.436068539083,-0.203093543649,11.8994169235,-90.3586044312,0
1.2000000000000002,13.01915551468253,1.9765712302323255,405.33837161049166,0.18994109243017415,270.76539893608896,-0.203093543649,11.8994169235,-90.3586044312,0
1.3,13.01048263547628,1.9205213718109237,405.3444589534407,0.16459867598736772,271.3086471872936,-3.0488351500040745,20.563479869001256,-89.50559733561829,0
1.4000000000000001,12.968763322889503,1.5043451660524234,405.1861888135638,0.14582074615122026,272.38167174479116,-5.78520774841,30.2808895111,-88.6783447266,0
1.5,12.927044010302728,1.088168960293924,405.0279186736869,0.12704281631507286,273.4546963022887,-5.78520774841,30.2808895111,-88.6783447266,0
1.6,12.885324697715953,0.6719927545354234,404.86964853381,0.1082648864789254,274.52772085978626,-5.78520774841,30.2808895111,-88.6783447266,0
1.7000000000000002,12.852740270111171,0.14021593119867715,404.60322339967513,0.08956558365954884,275.44718932178796,-8.505732566148337,30.598541680173117,-86.5176429987784,0
1.8,12.827337279935835,-0.4824409200288849,404.25177165322094,0.07092809387912319,276.2459388591522,-11.7445392609,31.1430168152,-83.8995895386,0
1.9000000000000001,12.801934289760496,-1.1050977712564483,403.9003199067668,0.052290604098697506,277.0446883965165,-11.7445392609,31.1430168152,-83.8995895386,0
2.0,12.776531299585159,-1.7277546224840103,403.5488681603127,0.033653114318271865,277.84343793388075,-11.7445392609,31.1430168152,-83.8995895386,0
2.1,12.7965029192273,-2.620563972617063,403.0889708791375,0.0299999993294,278.59848667533475,-14.471422141936074,31.39545934026173,-81.74892837707849,0
2.2,12.827536639860929,-3.579235139259745,402.6026351236265,0.0299999993294,279.34288138318465,-15.2577104568,31.4953994751,-81.1276397705,0
2.3000000000000003,12.858570360494557,-4.5379063059024265,402.1162993681155,0.0299999993294,280.08727609103454,-15.2577104568,31.4953994751,-81.1276397705,0
2.4000000000000004,12.889604081128187,-5.496577472545107,401.6299636126045,0.0299999993294,280.83167079888443,-15.2577104568,31.4953994751,-81.1276397705,0
2.5,12.964267403410899,-5.85687868542181,401.0488660759822,0.03541523578420075,281.9025394293052,-16.3585548401,27.622505188,-78.6203765869,0
2.6,13.051679511907556,-6.042333227023225,400.4400786764462,0.04241283121663966,283.06880536077773,-16.3585548401,27.622505188,-78.6203765869,0
2.7,13.139091620404212,-6.227787768624641,399.83129127691024,0.04941042664907857,284.23507129225027,-16.3585548401,27.622505188,-78.6203765869,0
2.8000000000000003,13.226503728900868,-6.413242310226055,399.2225038773742,0.05640802208151748,285.4013372237228,-16.3585548401,27.622505188,-78.6203765869,0
2.9000000000000004,13.349756912755872,-6.589688440287874,398.60611251056855,0.07771553890384886,286.54509355037135,-17.079309107172115,26.32499164311081,-77.31566834456017,0
3.0,13.51081241938233,-6.7566332125563475,397.98170108236127,0.1141160255047455,287.6651085316917,-18.82462883,22.2693519592,-73.7727966309,0
3.1,13.671867926008785,-6.923577984824822,397.357289654154,0.15051651210564232,288.78512351301214,-18.82462883,22.2693519592,-73.7727966309,0
3.2,13.832923432635242,-7.090522757093296,396.73287822594676,0.18691699870653916,289.9051384943325,-18.82462883,22.2693519592,-73.7727966309,0
3.3000000000000003,13.997651072243094,-6.8926203736056975,396.11320134469133,0.22334079185318775,291.0258706295471,-19.68661568053124,16.20670198251883,-69.23688600440882,0
3.4000000000000004,14.162718508839298,-6.660957239795829,395.4939625697909,0.25976674164669405,292.146669125848,-19.7145500183,15.6360397339,-69.0600357056,0
3.5,14.327785945435503,-6.429294105985962,394.8747237948905,0.2961926914402002,293.2674676221489,-19.7145500183,15.6360397339,-69.0600357056,0
3.6,14.515883276643498,-6.388967037430712,394.2833608139256,0.3297299895498197,294.2653635119288,-19.18415500469458,14.951634450224029,-68.13078302946768,0
3.7,14.747430557924385,-6.7096291363291325,393.74459042511785,0.3578173377765339,295.03138200030594,-17.63032341,12.1739463806,-65.4083404541,0
3.8000000000000003,14.978977839205271,-7.030291235227553,393.2058200363102,0.3859046860032481,295.797400488683,-17.63032341,12.1739463806,-65.4083404541,0
3.9000000000000004,15.210525120486157,-7.350953334125974,392.6670496475025,0.41399203422996234,296.5634189770601,-17.63032341,12.1739463806,-65.4083404541,0
4.0,15.405522647274692,-7.436432581340951,392.18691370020554,0.436969381365221,297.23231246451013,-16.18669657968635,11.035164879593694,-64.60487462905647,0
4.1000000000000005,15.552083275171679,-7.210240022103693,391.784481982512,0.45317479228256835,297.77249280695855,-12.5775842667,7.32617712021,-62.6006507874,0
4.2,15.698643903068666,-6.984047462866436,391.3820502648185,0.4693802031999155,298.312673149407,-12.5775842667,7.32617712021,-62.6006507874,0
4.3,15.845204530965653,-6.75785490362918,390.9796185471249,0.4855856141172627,298.8528534918554,-12.5775842667,7.32617712021,-62.6006507874,0
4.4,15.95393399025626,-6.635580703101532,390.67538823747475,0.49905143270835256,298.69828590627634,-8.09104442596,10.6404476166,-60.5859985352,0
4.5,16.048499975887353,-6.55221211904155,390.40792319591935,0.5114915852896376,298.28361417004317,-8.09104442596,10.6404476166,-60.5859985352,0
4.6000000000000005,16.14306596151845,-6.468843534981568,390.14045815436396,0.5239317378709228,297.86894243380993,-8.09104442596,10.6404476166,-60.5859985352,0
4.7,16.23763194714954,-6.385474950921586,389.8729931128085,0.5363718904522079,297.4542706975767,-8.09104442596,10.6404476166,-60.5859985352,0
4.800000000000001,16.332197932780637,-6.3021063668616035,389.6055280712531,0.5488120430334931,297.0395989613435,-8.09104442596,10.6404476166,-60.5859985352,0
4.9,16.27776066983959,-5.287066642334793,389.5752549861457,0.550000011921,296.76329067101557,1.3168656826,6.85642004013,-62.13489151,0
5.0,16.207592129463126,-4.173664114783825,389.5700238548755,0.550000011921,296.5015903424288,1.3168656826,6.85642004013,-62.13489151,0
5.1000000000000005,16.13742358908666,-3.060261587232847,389.56479272360525,0.550000011921,296.23989001384206,1.3168656826,6.85642004013,-62.13489151,0
5.2,16.060350701122246,-1.9877866052064481,389.5700674398272,0.5498349281004289,296.01650839780115,1.3168656826,6.85642004013,-62.13489151,0
5.300000000000001,15.907337412579869,-1.365470622595868,389.6908951835877,0.5478540997357969,296.21459142317616,5.82979679108,6.1629152298,-63.3233108521,0
5.4,15.754324124037492,-0.7431546399852931,389.81172292734817,0.545873271371165,296.4126744485511,5.82979679108,6.1629152298,-63.3233108521,0
5.5,15.601310835495116,-0.12083865737471822,389.9325506711087,0.543892443006533,296.61075747392607,5.82979679108,6.1629152298,-63.3233108521,0
5.6000000000000005,15.448297546952737,0.5014773252358622,390.05337841486914,0.5419116146419011,296.8088404993011,5.82979679108,6.1629152298,-63.3233108521,0
5.7,15.296533942115085,1.118888858302805,390.1786802598446,0.5397977608304058,297.0,5.82979679108,6.1629152298,-63.3233108521,0
5.800000000000001,15.179274282046066,1.6008878421507338,390.4275126754971,0.5340110555173252,297.0,8.08776569366,0.622769296169,-62.9988098145,0
5.9,15.062014621977049,2.082886825998658,390.6763450911495,0.5282243502042447,297.0,8.08776569366,0.622769296169,-62.9988098145,0
6.0,14.94475496190803,2.564885809846583,390.925177506802,0.5224376448911643,297.0,8.08776569366,0.622769296169,-62.9988098145,0
6.1000000000000005,14.834810526660705,3.112530556296644,391.1509704145504,0.5168164329418631,297.0,8.112140892824122,1.8778518882687973,-62.668248820457066,0
6.2,14.730190618070349,3.7079568298237207,391.3599935746849,0.5113156785107482,297.0,8.15764904022,5.05262327194,-62.0519866943,0
6.300000000000001,14.625570709479993,4.303383103350803,391.56901673481946,0.5058149240796332,297.0,8.15764904022,5.05262327194,-62.0519866943,0
6.4,14.520950800889636,4.89880937687788,391.77803989495396,0.5003141696485183,297.0,8.15764904022,5.05262327194,-62.0519866943,0
6.5,14.457139113199704,4.7772854607595185,392.03992167481385,0.49180513621242244,297.20487163743076,7.79263973236,0.30458352148127243,-62.1637992859,0
6.6000000000000005,14.395799322712715,4.612333354699706,392.30500528683814,0.48311388075600764,297.4221530691715,7.79263973236,0.250962138176,-62.1637992859,0
6.7,14.334459532225727,4.447381248639894,392.5700888988624,0.4744226252995929,297.6394345009122,7.79263973236,0.250962138176,-62.1637992859,0
6.800000000000001,14.27311974173874,4.282429142580081,392.8351725108867,0.4657313698431781,297.8567159326529,7.79263973236,0.250962138176,-62.1637992859,0
6.9,14.217911902358765,4.096364376920559,393.0784225430428,0.45842664477947265,297.8426637278503,7.79263973236,0.250962138176,-62.1637992859,0
7.0,14.174577606078412,3.869418320896835,393.27939533797695,0.4538067141783235,297.38067091557144,5.06042575836,6.15094327927,-61.1141014099,0
7.1000000000000005,14.13124330979806,3.642472264873109,393.48036813291117,0.4491867835771744,296.91867810329256,5.06042575836,6.15094327927,-61.1141014099,0
7.2,14.08790901351771,3.4155262088493847,393.6813409278453,0.4445668529760253,296.4566852910137,5.06042575836,6.15094327927,-61.1141014099,0
7.300000000000001,14.044624508883286,3.1896127366476477,393.8815198421817,0.43997029135358257,296.0059412581497,5.06042575836,6.15094327927,-61.1141014099,0
7.4,14.00562432289316,3.0525478662095984,394.0133893567555,0.4373845118473176,296.5230976526147,3.04118776321,4.29412221909,-63.286491394,0
7.5,13.966624136903034,2.9154829957715496,394.14525887132936,0.4347987323410526,297.04025404707977,3.04118776321,4.29412221909,-63.286491394,0
7.6000000000000005,13.927623950912908,2.778418125333499,394.2771283859032,0.4322129528347876,297.55741044154485,3.04118776321,4.29412221909,-63.286491394,0
7.7,13.890898724484144,2.618986849959567,394.40314877189235,0.42966246425200055,297.96624577830636,3.04118776321,4.29412221909,-63.286491394,0
7.800000000000001,13.867676462665987,2.3268003470003906,394.4944518039456,0.42732144404785727,297.73214423232224,0.0586920306087,1.23098993301,-61.9954223633,0
7.9,13.844454200847828,2.034613844041217,394.5857548359989,0.424980423843714,297.49804268633807,0.0586920306087,1.23098993301,-61.9954223633,0
8.0,13.821231939029671,1.7424273410820432,394.67705786805215,0.4226394036395707,297.26394114035395,0.0586920306087,1.23098993301,-61.9954223633,0
8.1,13.798009677211514,1.4502408381228695,394.7683609001054,0.4202983834354274,297.02983959436983,0.0586920306087,1.23098993301,-61.9954223633,0
8.200000000000001,13.771446333452753,1.4912969600224373,394.84098396364766,0.4180942453079255,296.8094256603418,-0.996561527252,0.665264487267,-62.7234573364,0
8.3,13.744394907948585,1.58103480984015,394.91087816516347,0.41591010358999086,296.59101128024656,-0.996561527252,0.665264487267,-62.7234573364,0
8.4,13.71734348244442,1.670772659657863,394.9807723666793,0.41372596187205624,296.3725969001513,-0.996561527252,0.665264487267,-62.7234573364,0
8.5,13.690292056940253,1.7605105094755757,395.0506665681951,0.4115418201541216,296.15418252005605,-0.996561527252,0.665264487267,-62.7234573364,0
8.6,13.666640590119481,1.6927787357667627,395.07771393602667,0.41089168229253026,296.1783373437864,-1.7682534759867878,0.5898532864859972,-63.140376397054766,0
8.700000000000001,13.651150403348398,1.2470559872867462,395.00191152199267,0.4139237759621798,296.7847566560584,-3.33680820465,0.37427636981,-63.986618042,0
8.8,13.635660216577314,0.8013332388067373,394.92610910795867,0.41695586963182923,297.39117596833034,-3.33680820465,0.37427636981,-63.986618042,0
8.9,13.62017002980623,0.35561049032672876,394.8503066939247,0.4199879633014787,297.99759528060235,-3.33680820465,0.37427636981,-63.986618042,0
9.0,13.669486224617371,0.19584821367359467,394.6761546378254,0.4282003124914081,298.32801294597147,-4.48157167435,0.323604762554,-61.3874053955,0
9.1,13.719060428365252,0.03722441066277954,394.50161102944435,0.4364332854561294,298.65733178604415,-4.48157167435,0.323604762554,-61.3874053955,0
9.200000000000001,13.768634632113132,-0.12139939234803837,394.3270674210633,0.4446662584208508,298.9866506261168,-4.48157167435,0.323604762554,-61.3874053955,0
9.3,13.818208835861011,-0.2800231953588535,394.15252381268226,0.4528992313855721,299.3159694661894,-4.48157167435,0.323604762554,-61.3874053955,0
9.4,13.867783039608891,-0.43864699836966864,393.9779802043012,0.46113220435029334,299.6452883062621,-4.48157167435,0.323604762554,-61.3874053955,0
9.5,13.917357243356772,-0.5972708013804837,393.8034365959202,0.4693651773150146,299.97460714633473,-4.48157167435,0.323604762554,-61.3874053955,0
9.600000000000001,14.003821805026986,-1.5264200445238756,393.6420351331582,0.4761645402037062,298.76709238225203,-2.83766007423,4.79742240906,-59.874584198,0
9.700000000000001,14.093368536377566,-2.519946276216074,393.4817316896359,0.48284412573704893,297.43117599223586,-2.83766007423,4.79742240906,-59.874584198,0
9.8,14.182915267728147,-3.513472507908273,393.3214282461137,0.4895237112703916,296.09525960221964,-2.83766007423,4.79742240906,-59.874584198,0
9.9,14.192786694583734,-3.206859719748879,393.2245300514715,0.4921367277884324,296.0,-0.643871903419,4.79269981384,-63.466758728,0
10.0,14.196540524786018,-2.8004201889483618,393.1325002127246,0.49443750666701736,296.0,-0.643871903419,4.79269981384,-63.466758728,0
10.100000000000001,14.200294354988301,-2.393980658147837,393.0404703739777,0.49673828554560234,296.0,-0.643871903419,4.79269981384,-63.466758728,0
10.200000000000001,14.204048185190585,-1.98754112734732,392.94844053523076,0.4990390644241873,296.0,-0.643871903419,4.79269981384,-63.466758728,0
10.3,14.221713171045545,-1.7170956697477944,392.8379538619141,0.5027710394352704,296.4156563116812,-0.5603563133545945,3.1269624900130575,-63.50134934788152,0
10.4,14.249355237309583,-1.5441851572930712,392.71422994740794,0.5075294682688546,297.12942131740084,-0.438311159611,-0.0998232662678,-63.5517807007,0
10.5,14.276997303573623,-1.3712746448383482,392.59050603290177,0.5122878971024388,297.84318632312045,-0.438311159611,-0.0998232662678,-63.5517807007,0
10.600000000000001,14.304639369837664,-1.198364132383622,392.4667821183956,0.5170463259360232,298.5569513288401,-0.438311159611,-0.0998232662678,-63.5517807007,0
10.700000000000001,14.335505411968313,-1.1262947727774573,392.35273789247987,0.5219602880529217,298.9019848423365,-0.438311159611,-0.0998232662678,-63.5517807007,0
10.8,14.371647745335235,-1.219259927399782,392.25453524174736,0.527128792676853,298.64356013485053,0.54894733429,5.3073720932,-60.2577171326,0
10.9,14.407790078702156,-1.3122250820221069,392.1563325910148,0.5322972973007842,298.38513542736456,0.54894733429,5.3073720932,-60.2577171326,0
11.0,14.443932412069078,-1.4051902366444315,392.0581299402823,0.5374658019247155,298.1267107198786,0.54894733429,5.3073720932,-60.2577171326,0
11.100000000000001,14.450576376998889,-1.2835335486861756,392.02905267078336,0.5385328828521235,297.85328687397566,1.689330144972652,5.923005225583683,-60.746714683338254,0
11.200000000000001,14.428842494079666,-0.9554076111890839,392.0664749961801,0.5356543361468548,297.56543364467234,3.80737066269,7.36636590958,-61.7515563965,0
11.3,14.407108611160444,-0.6272816736919923,392.1038973215769,0.532775789441586,297.27758041536896,3.80737066269,7.36636590958,-61.7515563965,0
11.4,14.38415812191636,-0.302532198912667,392.1425719457781,0.5298477454968931,297.00761130191387,3.80737066269,7.36636590958,-61.7515563965,0
11.5,14.328333865936752,-0.06901769924973719,392.21508477872567,0.5255822428610574,297.22088663709565,5.1513428688,3.36546945572,-62.6992454529,0
11.600000000000001,14.272509609957142,0.1644968004131968,392.2875976116732,0.5213167402252216,297.4341619722775,5.1513428688,3.36546945572,-62.6992454529,0
11.700000000000001,14.216685353977534,0.3980113000761267,392.3601104446207,0.5170512375893859,297.6474373074593,5.1513428688,3.36546945572,-62.6992454529,0
11.8,14.160861097997925,0.6315257997390564,392.43262327756827,0.5127857349535502,297.8607126426411,5.1513428688,3.36546945572,-62.6992454529,0
11.9,14.112377259090055,0.7932076415328558,392.5063340403219,0.509999990463,298.0,4.989966955910135,2.65884727314066,-62.29078308820768,0
12.0,14.077712250293771,0.8196596611168341,392.5822999867136,0.509999990463,298.0,4.6938419342,1.06986629963,-61.5410766602,0
12.100000000000001,14.043047241497488,0.8461116807008128,392.6582659331053,0.509999990463,298.0,4.6938419342,1.06986629963,-61.5410766602,0
12.200000000000001,14.008382232701207,0.872563700284791,392.73423187949703,0.509999990463,298.0,4.6938419342,1.06986629963,-61.5410766602,0
12.3,13.964702451524863,1.0355240033321937,392.8079255517015,0.5084825304021432,297.848253849194,4.767583750828929,1.7164659149160952,-61.68219088896626,0
12.4,13.913005959250498,1.319879215188779,392.8795985222257,0.5056156143153548,297.56156196709713,4.92691612244,3.64891791344,-61.9901618958,0
12.5,13.861309466976133,1.6042344270453643,392.9512714927499,0.5027486982285665,297.27487008500026,4.92691612244,3.64891791344,-61.9901618958,0
12.600000000000001,13.808934980617252,1.8811402075937547,393.02433233092364,0.499901288893499,297.0197422401284,4.92691612244,3.64891791344,-61.9901618958,0
12.700000000000001,13.740796368879101,1.9848383277375266,393.12966265364895,0.49750743348596027,297.4985137782405,4.4155465545050525,3.598030091512103,-62.41376461623,0
12.8,13.672657757140948,2.088536447881298,393.2349929763743,0.49511357807842155,297.9772853163527,4.36542224884,3.5896229744,-62.4550170898,0
12.9,13.604519145402795,2.19223456802507,393.3403232990997,0.49271972267088276,298.45605685446486,4.36542224884,3.5896229744,-62.4550170898,0
13.0,13.536380533664643,2.295932688168842,393.44565362182504,0.49032586726334404,298.93482839257706,4.36542224884,3.5896229744,-62.4550170898,0
13.100000000000001,13.49758902572133,2.156952244598925,393.59234419555935,0.4818966186956562,299.0,4.316551490535392,2.0682080218491286,-60.7219846271004,0
13.200000000000001,13.463421788203624,1.979732548769072,393.74555197067997,0.472516363504198,299.0,4.31148195267,1.75792610645,-60.5387611389,0
13.3,13.429254550685917,1.802512852939219,393.8987597458006,0.46313610831273977,299.0,4.31148195267,1.75792610645,-60.5387611389,0
13.4,13.3897856323629,1.8485374717684657,394.03983403696424,0.45719218523326577,298.8596089197261,3.27655529976,3.09850001335,-60.1510047913,0
13.5,13.347653967774487,2.0066855825540153,394.17481433826345,0.4529741451018327,298.64870702629275,3.27655529976,3.09850001335,-60.1510047913,0
13.600000000000001,13.305522303186075,2.1648336933395678,394.3097946395626,0.4487561049703996,298.4378051328594,3.27655529976,3.09850001335,-60.1510047913,0
13.700000000000001,13.263390638597665,2.322981804125117,394.44477494086175,0.4445380648389666,298.22690323942606,3.27655529976,3.09850001335,-60.1510047913,0
13.8,13.221258974009253,2.481129914910667,394.5797552421609,0.4403200247075335,298.0160013459928,3.27655529976,3.09850001335,-60.1510047913,0
13.9,13.203752186927106,2.0262094756787623,394.6524453625656,0.43821577258470273,298.0,2.356613529360338,5.180814436601404,-61.32279060564357,0
14.0,13.18826710368408,1.5209560737388081,394.72002145558787,0.4362850625771977,298.0,2.21147179604,5.69821929932,-61.5084915161,0
14.100000000000001,13.172782020441051,1.0157026717988449,394.7875975486102,0.4343543525696926,298.0,2.21147179604,5.69821929932,-61.5084915161,0
14.200000000000001,13.157296937198025,0.5104492698588907,394.8551736416325,0.43242364256218757,298.0,2.21147179604,5.69821929932,-61.5084915161,0
14.3,13.141811853954998,0.005195867918936781,394.9227497346548,0.4304929325546825,298.0,2.21147179604,5.69821929932,-61.5084915161,0
14.4,13.161127040964805,0.05218924053580529,394.8380341993887,0.43664979250256925,298.44331900569006,-1.01294100285,5.1460518837,-61.7647857666,0
14.5,13.192373039532598,0.2885131026250787,394.70110749720436,0.4455793686506102,299.0386240585727,-1.01294100285,5.1460518837,-61.7647857666,0
14.600000000000001,13.223619038100388,0.5248369647143563,394.56418079502004,0.4545089447986514,299.6339291114553,-1.01294100285,5.1460518837,-61.7647857666,0
14.700000000000001,13.275979910561155,0.33312787922173837,394.41302007124295,0.4625110616761947,299.91629822561924,-1.5466326061765052,6.285195032036299,-60.89164402316506,0
14.8,13.362059756237956,-0.5421198136170463,394.2391286129478,0.46903209112411914,299.69893058599183,-2.3177754879,8.30877876282,-59.617149353,0
14.9,13.448139601914756,-1.417367506455831,394.06523715465266,0.4755531205720436,299.4815629463644,-2.3177754879,8.30877876282,-59.617149353,0
15.0,13.534219447591557,-2.2926151992946155,393.8913456963575,0.482074150019968,299.26419530673707,-2.3177754879,8.30877876282,-59.617149353,0
15.100000000000001,13.620299293268358,-3.167862892133416,393.7174542380624,0.48859517946789255,299.04682766710965,-2.3177754879,8.30877876282,-59.617149353,0
15.200000000000001,13.715787870393216,-3.2165400415846985,393.5548496882391,0.4938505954883344,299.0,-0.62350153923,11.8201475143,-61.0078430176,0
15.3,13.813859941215586,-3.0382535667493613,393.39534435078696,0.4987584934260847,299.0,-0.62350153923,11.8201475143,-61.0078430176,0
15.4,13.911932012037955,-2.8599670919140237,393.2358390133349,0.5036663913638351,299.0,-0.62350153923,11.8201475143,-61.0078430176,0
15.5,14.010004082860325,-2.6816806170786864,393.07633367588284,0.5085742893015854,299.0,-0.62350153923,11.8201475143,-61.0078430176,0
15.600000000000001,14.122075047455027,-2.5588755534853096,392.9344606517112,0.5147768531741221,299.4776857775832,0.205634370446,12.7333984375,-60.7551078796,0
15.700000000000001,14.239877520172808,-2.4587860104455497,392.79980675131037,0.5215094866680575,300.1509484313842,0.205634370446,12.7333984375,-60.7551078796,0
15.8,14.357679992890588,-2.3586964674057898,392.6651528509095,0.528242120161993,300.8242110851852,0.205634370446,12.7333984375,-60.7551078796,0
15.9,14.47548246560837,-2.2586069243660303,392.5304989505087,0.5349747536559285,301.49747373898623,0.205634370446,12.7333984375,-60.7551078796,0
16.0,14.613734867282199,-2.1889385146084153,392.3948106585839,0.5433506639463391,302.4467523140276,0.2806660338086125,13.46594943637994,-60.02260033209521,0
16.1,14.812177285674299,-2.2088082408891307,392.25607785519634,0.556563210005273,304.2084250518883,0.557864546776,18.9525051117,-57.3312568665,0
16.2,15.01061970406639,-2.228677967169845,392.11734505180885,0.5697757560642065,305.970097789749,0.557864546776,18.9525051117,-57.3312568665,0
16.3,15.209062122458487,-2.2485476934505604,391.9786122484213,0.5829883021231403,307.7317705276097,0.557864546776,18.9525051117,-57.3312568665,0
16.400000000000002,15.407504540850587,-2.2684174197312754,391.8398794450338,0.5962008481820743,309.49344326547043,0.557864546776,18.9525051117,-57.3312568665,0
16.5,15.678053408986207,-2.414506378663345,391.7104217453046,0.6081425647690938,311.30280779079675,1.74023139477,35.4545516968,-49.4155082703,0
16.6,15.977703975788467,-2.6115366068940444,391.58470741766934,0.6195713827668773,313.1314204143534,1.74023139477,35.4545516968,-49.4155082703,0
16.7,16.277354542590718,-2.808566835124737,391.4589930900341,0.6310002007646603,314.96003303790997,1.74023139477,35.4545516968,-49.4155082703,0
16.8,16.577005109392978,-3.0055970633554363,391.3332787623989,0.6424290187624438,316.7886456614666,1.74023139477,35.4545516968,-49.4155082703,0
16.900000000000002,16.903469869805583,-3.004531052562749,391.2308377411823,0.6515966962325161,318.7983584193448,1.96049643846519,35.4545516968,-48.95596689485453,0
17.0,17.282556831575818,-2.6147060013319505,391.1740700165198,0.6563269405328197,321.16347577646803,5.54834079742,40.7901115417,-41.6044006348,0
17.1,17.661643793346066,-2.2248809501011384,391.1173022918573,0.6610571848331235,323.5285931335913,5.54834079742,40.7901115417,-41.6044006348,0
17.2,18.0407307551163,-1.8350558988703403,391.06053456719485,0.665787429133427,325.8937104907145,5.54834079742,40.7901115417,-41.6044006348,0
17.3,18.41754228140617,-1.442901142524848,391.01049192211565,0.6702561034208843,328.2816956736977,5.871905321287788,41.40397304913473,-37.67467041100259,0
17.400000000000002,18.775836766653466,-1.0317877096545092,391.0151766361431,0.6725961730060087,330.8557746719763,6.38215970993,42.5117378235,-31.4371986389,0
17.5,19.134131251900747,-0.6206742767841852,391.01986135017063,0.674936242591133,333.4298536702548,6.38215970993,42.5117378235,-31.4371986389,0
17.6,19.492425737148043,-0.20956084391384655,391.02454606419815,0.6772763121762574,336.0039326685333,6.38215970993,42.5117378235,-31.4371986389,0
17.7,19.850720222395324,0.20155258895647754,391.0292307782256,0.6796163817613817,338.57801166681185,6.38215970993,42.5117378235,-31.4371986389,0
17.8,20.185705814698263,0.28684389472872074,391.0459038903905,0.6879528788132236,341.1207677986359,6.269646911670004,44.72654745593377,-23.370307876754275,0
17.900000000000002,20.516120930003364,0.3082470295422474,391.0649277232892,0.6974651731829066,343.65738204972035,6.22828054428,45.7251319885,-20.4096698761,0
18.0,20.846536045308458,0.32965016435577327,391.0839515561879,0.7069774675525892,346.1939963008047,6.22828054428,45.7251319885,-20.4096698761,0
18.1,21.187966559240063,0.2536306955833296,391.1196485704097,0.7085172325826751,348.6310221107632,6.337418177676231,46.90841185452027,-16.725042849499477,0
18.2,21.534527315808504,0.13223823472447888,391.16311084747997,0.7063439218241941,351.0216662250495,6.46392869949,48.6588401794,-12.4517192841,0
18.3,21.881088072376958,0.010845773865623853,391.20657312455023,0.7041706110657132,353.4123103393359,6.46392869949,48.6588401794,-12.4517192841,0
18.400000000000002,22.22764882894541,-0.11054668699323122,391.2500354016205,0.7019973003072322,355.80295445362225,6.46392869949,48.6588401794,-12.4517192841,0
18.5,22.566414114362086,-0.20349589688236086,391.29492567075187,0.6996041769563398,351.0732987474518,6.46392869949,48.6588401794,-12.4517192841,0
18.6,22.81671280955077,0.02634198066732127,391.35602145024365,0.6947165192583575,265.53920745889917,6.67100048065,47.8286781311,-1.27774810791,0
18.7,23.067011504739444,0.2561798582169953,391.4171172297355,0.6898288615603755,180.0051161703496,6.67100048065,47.8286781311,-1.27774810791,0
18.8,23.317310199928126,0.4860177357666773,391.4782130092273,0.6849412038623932,94.47102488179695,6.67100048065,47.8286781311,-1.27774810791,0
18.900000000000002,23.56760889511681,0.7158556133163595,391.53930878871915,0.6800535461644109,8.936933593244305,6.67100048065,47.8286781311,-1.27774810791,0
19.0,23.785727830124667,0.9642314646669384,391.6098121428195,0.6773141830664664,10.685826647737914,6.58664941788,45.1404914856,8.73122692108,0
19.1,24.00349036665347,1.2128126284757452,391.68041968804073,0.6745986128409278,13.401399462846701,6.58664941788,45.1404914856,8.73122692108,0
19.200000000000003,24.22125290318227,1.461393792284552,391.751027233262,0.6718830426153893,16.116972277955487,6.58664941788,45.1404914856,8.73122692108,0
19.3,24.42094315409865,1.6450820520498177,391.82722025108495,0.6693666935271575,18.6966561424277,6.585817014283437,45.15788111770732,9.987944093405533,0
19.400000000000002,24.579758003679565,1.6819973162188864,391.91604633808026,0.6673009373587458,20.968990094805434,6.58059597015,45.359500885,18.2981243134,0
19.5,24.738572853260475,1.718912580387954,392.0048724250756,0.6652351811903342,23.24132404718309,6.58059597015,45.359500885,18.2981243134,0
19.6,24.89738770284139,1.7558278445570226,392.0936985120709,0.6631694250219226,25.513657999560827,6.58059597015,45.359500885,18.2981243134,0
19.700000000000003,25.056202552422306,1.7927431087260912,392.18252459906626,0.6611036688535108,27.785991951938563,6.58059597015,45.359500885,18.2981243134,0
19.8,25.17929907047044,1.969462172086865,392.2701958776068,0.656553047746771,30.034092475413274,7.216533170587901,45.42019908923717,24.543376205126926,0
19.900000000000002,25.261423009309027,2.306550490963468,392.3565424727466,0.6491520324267048,32.254394777564826,7.80611753464,45.493473053,30.3181552887,0
20.0,25.34354694814761,2.643638809840059,392.4428890678863,0.6417510171066388,34.47469707971629,7.80611753464,45.493473053,30.3181552887,0
20.1,25.425670886986197,2.9807271287166626,392.5292356630261,0.6343500017865726,36.694999381867845,7.80611753464,45.493473053,30.3181552887,0
20.200000000000003,25.490217858131643,3.031547595299689,392.6081643507312,0.6328176040388125,39.033122161811626,7.795405033965823,45.183792995444264,32.05009491833713,0
20.3,25.52970429010742,2.6742187809221925,392.67651688201,0.6396524470523816,41.53922867764479,7.75487804413,43.614315033,38.5857467651,0
20.400000000000002,25.569190722083196,2.3168899665446827,392.74486941328877,0.646487290065951,44.04533519347804,7.75487804413,43.614315033,38.5857467651,0
20.5,25.608677154058974,1.959561152167186,392.81322194456754,0.65332213307952,46.551441709311206,7.75487804413,43.614315033,38.5857467651,0
20.6,25.64926410874968,1.595974141630157,392.88118247109685,0.6599264142456813,49.051528128231986,7.75487804413,43.614315033,38.5857467651,0
20.700000000000003,25.736676035209207,0.9661137915994208,392.93246400401966,0.6567207643223909,51.29547183955796,6.22125291824,48.4743347168,49.7315292358,0
20.8,25.824087961668734,0.33625344156870707,392.9837455369425,0.6535151143991005,53.53941555088386,6.22125291824,48.4743347168,49.7315292358,0
20.900000000000002,25.91149988812826,-0.29360690846202897,393.03502706986535,0.65030946447581,55.78335926220984,6.22125291824,48.4743347168,49.7315292358,0
21.0,25.97362125924159,-0.012697007099912838,393.1165230566779,0.649999976158,57.96261934966232,6.768119988262488,47.38611926817508,54.71672415284258,0
21.1,26.033040042413777,0.3655392148934887,393.2012478068614,0.649999976158,60.134967244817126,7.00692224503,46.8343353271,56.8897247314,0
21.200000000000003,26.092458825585965,0.7437754368868901,393.28597255704483,0.649999976158,62.307315139971934,7.00692224503,46.8343353271,56.8897247314,0
21.3,26.151877608758152,1.1220116588802782,393.3706973072283,0.649999976158,64.47966303512666,7.00692224503,46.8343353271,56.8897247314,0
21.400000000000002,26.213896663984077,1.3317217008396556,393.4493302032154,0.652320481821323,66.77350108861879,6.6333850686433635,47.599247056383454,62.527138138274694,0
21.5,26.281978945359164,1.1484681141923585,393.5137583202807,0.6600518638569556,69.35062577123034,6.35166692734,48.314250946,66.9474945068,0
21.6,26.350061226734258,0.9652145275450545,393.578186437346,0.6677832458925885,71.927750453842,6.35166692734,48.314250946,66.9474945068,0
21.700000000000003,26.41814350810935,0.7819609408977508,393.64261455441135,0.6755146279282214,74.50487513645363,6.35166692734,48.314250946,66.9474945068,0
21.8,26.49330094551413,0.7270749241729012,393.66742949201836,0.682512488191178,77.13061754545005,5.808986513288714,48.934660291149136,68.68627311373295,0
21.900000000000002,26.578234948041267,0.8495692933615153,393.63750629705964,0.6884967561956555,79.82354071570576,3.37946653366,52.6540222168,76.4685668945,0
22.0,26.663168950568398,0.9720636625501252,393.60758310210093,0.6944810242001328,82.51646388596136,3.37946653366,52.6540222168,76.4685668945,0
22.1,26.74841376189808,1.0263273948251233,393.5708080917612,0.6997913876115927,85.2086006663498,3.37946653366,52.6540222168,76.4685668945,0
22.200000000000003,26.837345070853896,0.27130876781636104,393.4527638222185,0.6971085807458948,87.89141009064298,1.90902245045,52.3615837097,85.0706558228,0
22.3,26.926276379809703,-0.4837098591923743,393.33471955267584,0.6944257738801971,90.57421951493606,1.90902245045,52.3615837097,85.0706558228,0
22.400000000000002,27.015207688765514,-1.2387284862011367,393.21667528313316,0.6917429670144992,93.25702893922926,1.90902245045,52.3615837097,85.0706558228,0
22.5,27.07546127224336,-1.7366518772870643,393.08786621837567,0.6907896578242713,95.86862705750804,1.624849455421581,51.57172132577281,88.31799308808813,0
22.6,27.08253076839635,-1.7577809881352209,392.93909337339517,0.6930437771824125,98.34816071619467,1.03887331486,49.4783592224,95.1946334839,0
22.700000000000003,27.08960026454934,-1.7789100989833775,392.79032052841467,0.6952978965405537,100.82769437488132,1.03887331486,49.4783592224,95.1946334839,0
22.8,27.09666976070233,-1.8000392098315332,392.64154768343417,0.697552015898695,103.30722803356787,1.03887331486,49.4783592224,95.1946334839,0
22.900000000000002,27.10373925685532,-1.8211683206796896,392.4927748384537,0.6998061352568362,105.7867616922545,1.03887331486,49.4783592224,95.1946334839,0
23.0,27.020074172329412,-1.8313773688151789,392.3844255190341,0.6979226699506629,108.49278413137276,2.75709986687,48.0609779358,106.391906738,0
23.1,26.927871767886252,-1.8405589358271879,392.27987969512094,0.6956498945964387,111.22011715749935,2.75709986687,48.0609779358,106.391906738,0
23.200000000000003,26.835669363443092,-1.8497405028391969,392.1753338712078,0.6933771192422143,113.94745018362592,2.75709986687,48.0609779358,106.391906738,0
23.3,26.743466958999935,-1.8589220698512054,392.0707880472947,0.6911043438879902,116.6747832097524,2.75709986687,48.0609779358,106.391906738,0
23.400000000000002,26.621016153956344,-1.818534797376398,391.999370784842,0.689999997616,119.44318794886712,3.3725859414609074,47.65305887994306,110.73300958277149,0
23.5,26.4699759300557,-1.7312973018743736,391.959265138902,0.689999997616,122.25041181172006,4.42019319534,46.5619544983,118.254837036,0
23.6,26.31880740120413,-1.6426664056360494,391.9200943904114,0.6898329402981885,125.04454866056761,4.42019319534,46.5619544983,118.254837036,0
23.700000000000003,26.161517910289398,-1.4875614334987062,391.92552419536213,0.6816961865862196,127.21435171969486,6.11012649536,45.76640221258805,125.105133057,0
23.8,26.00422841937467,-1.3324564613613683,391.9309540003129,0.6735594328742509,129.38415477882202,6.11012649536,45.7501754761,125.105133057,0
23.900000000000002,25.846938928459934,-1.177351489224025,391.9363838052637,0.6654226791622819,131.55395783794927,6.11012649536,45.7501754761,125.105133057,0
24.0,25.6732863674509,-0.8749541731786321,391.94248380467235,0.660000026226,133.99258583408908,6.166526539799844,44.78753610266846,128.04838840834927,0
24.1,25.466941118355855,-0.2782732887632109,391.94992282287404,0.660000026226,136.96831412771846,6.26435089111,42.3562698364,133.129577637,0
24.200000000000003,25.26059586926081,0.31840759565221033,391.95736184107574,0.660000026226,139.9440424213478,6.26435089111,42.3562698364,133.129577637,0
24.3,25.054250620165774,0.9150884800676102,391.96480085927743,0.660000026226,142.91977071497706,6.26435089111,42.3562698364,133.129577637,0
24.400000000000002,24.81302800014452,1.302240457829771,391.9889363451269,0.660000026226,145.70132943250132,6.116104770959589,42.3562698364,133.94395529396772,0
24.5,24.490785828244352,1.2026602745399024,392.05185744729033,0.660000026226,148.03183545807119,3.96574664116,42.3745765686,145.62348938,0
24.6,24.168543656344173,1.1030800912500303,392.1147785494537,0.660000026226,150.36234148364116,3.96574664116,42.3745765686,145.62348938,0
24.700000000000003,23.846301484443995,1.0034999079601583,392.17769965161716,0.660000026226,152.69284750921113,3.96574664116,42.3745765686,145.62348938,0
24.8,23.523537094960663,0.9064131047918362,392.2413446699698,0.6599411364922916,155.02061136502795,3.96574664116,42.3745765686,145.62348938,0
24.900000000000002,23.14918156053811,1.0556533870884035,392.3765071290372,0.6540643867608937,157.07746960269117,6.7764749527,44.4964561462,155.299041748,0
25.0,22.774826026115573,1.2048936693849652,392.51166958810455,0.648187637029496,159.1343278403543,6.7764749527,44.4964561462,155.299041748,0
25.1,22.40047049169302,1.3541339516815323,392.64683204717187,0.6423108872980982,161.19118607801752,6.7764749527,44.4964561462,155.299041748,0
25.200000000000003,22.035636771824883,1.7374464992200958,392.8278564856093,0.6339106889267438,163.52232564386796,7.680245052122747,44.29995801597896,159.89349114122615,0
25.3,21.676973807335706,2.272453104813336,393.0386024707403,0.6238751316456452,166.03121735680992,8.28734397888,44.0939445496,162.967651367,0
25.400000000000002,21.318310842846515,2.807459710406595,393.24934845587126,0.6138395743645463,168.54010906975196,8.28734397888,44.0939445496,162.967651367,0
25.5,20.959647878357334,3.342466315999835,393.46009444100224,0.6038040170834477,171.04900078269392,8.28734397888,44.0939445496,162.967651367,0
25.6,20.66238524758385,3.741771435030665,393.67516068958895,0.5935629565438715,173.126486172869,8.121201505909841,43.20290049713325,166.9497294856649,0
25.700000000000003,20.4026038098128,4.058238997638539,393.8928641979202,0.5831964486845904,174.9406240750489,7.89168930054,41.6040534973,172.467666626,0
25.8,20.142822372041753,4.374706560246403,394.1105677062514,0.5728299408253099,176.75476197722872,7.89168930054,41.6040534973,172.467666626,0
25.900000000000002,19.8830409342707,4.691174122854277,394.3282712145826,0.5624634329660289,178.5688998794086,7.89168930054,41.6040534973,172.467666626,0
26.0,19.627720562719073,4.3701982256294185,394.51310821404155,0.560000002384,180.55293538442515,6.59510755539,42.6071510315,179.505371094,0
26.1,19.373790728874184,3.850527863175641,394.6877005505368,0.560000002384,182.589928862135,6.59510755539,42.6071510315,179.505371094,0
26.200000000000003,19.119860895029298,3.330857500721864,394.86229288703214,0.560000002384,184.62692233984487,6.59510755539,42.6071510315,179.505371094,0
26.3,18.866311553497514,2.7733646350198957,395.00574191930366,0.557853307268289,186.57245143943763,6.509798526534799,42.6071510315,151.33199404069236,0
26.400000000000002,18.613549127235945,2.1376491499916432,395.084781919342,0.5512669241249546,188.3288184630988,5.52570056915,44.2104454041,-173.755111694,0
26.5,18.360786700974383,1.5019336649634134,395.16382191938027,0.5446805409816204,190.0851854867599,5.52570056915,44.2104454041,-173.755111694,0
26.6,18.108024274712815,0.8662181799351609,395.24286191941854,0.5380941578382861,191.84155251042108,5.52570056915,44.2104454041,-173.755111694,0
26.700000000000003,17.855261848451242,0.23050269490690845,395.3219019194568,0.5315077746949517,193.59791953408228,5.52570056915,44.2104454041,-173.755111694,0
26.8,17.58892366804631,0.28524442978182885,395.4440592535878,0.5171921103292302,195.1206880766069,4.994829430201418,40.14313148927298,-167.680389273746,0
26.900000000000002,17.318554918542127,0.5449792357963779,395.57901789456326,0.5005816635355668,196.57410247425287,4.84711170197,38.6392326355,-165.994781494,0
27.0,17.048186169037955,0.8047140418109177,395.71397653553873,0.4839712167419039,198.02751687189877,4.84711170197,38.6392326355,-165.994781494,0
27.1,16.777817419533772,1.0644488478254666,395.8489351765142,0.4673607699482405,199.48093126954473,4.84711170197,38.6392326355,-165.994781494,0
27.200000000000003,16.50744867002959,1.3241836538400158,395.98389381748973,0.4507503231545771,200.93434566719068,4.84711170197,38.6392326355,-165.994781494,0
27.3,16.351082133795884,1.6264158397212012,396.1449316148832,0.4384374343302211,202.15625578837808,3.58049225807,28.5975952148,-158.841323853,0
27.400000000000002,16.200108993323234,1.9306585583969242,396.3072032059693,0.42632786112816384,203.36721354164652,3.58049225807,28.5975952148,-158.841323853,0
27.5,16.04913585285059,2.2349012770726366,396.46947479705545,0.41421828792610704,204.5781712949149,3.58049225807,28.5975952148,-158.841323853,0
27.6,15.898162712377937,2.5391439957483595,396.63174638814155,0.4021087147240498,205.78912904818336,3.58049225807,28.5975952148,-158.841323853,0
27.700000000000003,15.767532785414689,2.7001386382433474,396.72596203508573,0.3965282765728986,207.04151825746004,0.608278155327,21.9062919617,-153.689498901,0
27.8,15.64119227891926,2.830929044339764,396.8058279058933,0.39232452384617794,208.3026433990087,0.608278155327,21.9062919617,-153.689498901,0
27.900000000000002,15.514851772423825,2.9617194504361857,396.8856937767009,0.3881207711194572,209.5637685405574,0.608278155327,21.9062919617,-153.689498901,0
28.0,15.388511265928393,3.092509856532603,396.9655596475085,0.3839170183927366,210.82489368210605,0.608278155327,21.9062919617,-153.689498901,0
28.1,15.261946253950235,3.144005848239534,397.0365485040593,0.38019053185633755,212.01905368060525,0.608278155327,21.9062919617,-153.689498901,0
28.200000000000003,15.132314264304387,2.1122579246753137,396.9862681419209,0.38298399632293284,212.29840039367775,-2.34668016434,19.0031738281,-147.781204224,0
28.3,15.002682274658543,1.0805100011111293,396.9359877797825,0.38577746078952807,212.57774710675022,-2.34668016434,19.0031738281,-147.781204224,0
28.400000000000002,14.873050285012695,0.04876207754690842,396.88570741764414,0.3885709252561234,212.85709381982272,-2.34668016434,19.0031738281,-147.781204224,0
28.5,14.778830797787688,-0.43007635740812555,396.84021994973006,0.38914054821730304,213.08594382973433,-2.1075464905315426,16.289115798260223,-147.05092709143935,0
28.6,14.721701941507131,-0.3298040154974468,396.799752501828,0.38738094621787095,213.26190419749094,-1.87043786049,13.029460907,-146.328201294,0
28.700000000000003,14.664573085226575,-0.22953167358676807,396.7592850539259,0.3856213442184389,213.43786456524754,-1.87043786049,13.029460907,-146.328201294,0
28.8,14.607444228946022,-0.12925933167609288,396.71881760602383,0.38386174221900693,213.61382493300414,-1.87043786049,13.029460907,-146.328201294,0
28.900000000000002,14.550315372665466,-0.02898698976541414,396.67835015812176,0.3821021402195749,213.78978530076074,-1.87043786049,13.029460907,-146.328201294,0
29.0,14.493186516384911,0.07128535214526105,396.6378827102197,0.3803425382201429,213.96574566851734,-1.87043786049,13.029460907,-146.328201294,0
29.1,14.451034758468325,-0.08909054428726006,396.5862837396964,0.379999995232,214.0,-2.10142683983,5.135402816916263,-145.230377197,0
29.200000000000003,14.41250338614361,-0.31247244520158185,396.53199396731463,0.379999995232,214.0,-2.10142683983,4.42393255234,-145.230377197,0
29.3,14.373972013818896,-0.5358543461158957,396.4777041949328,0.379999995232,214.0,-2.10142683983,4.42393255234,-145.230377197,0
29.400000000000002,14.341720532706761,-0.7406583380655389,396.4139758051423,0.3816266236161909,213.9186686244166,-2.10142683983,4.42393255234,-145.230377197,0
29.5,14.323742179753339,-0.9032378922665424,396.3287950380168,0.3869503025715203,213.65248481943112,-2.217015028,4.32586145401,-145.018264771,0
29.6,14.305763826799916,-1.0658174464675516,396.2436142708912,0.3922739815268499,213.38630101444565,-2.217015028,4.32586145401,-145.018264771,0
29.700000000000003,14.287785473846494,-1.228397000668561,396.15843350376565,0.3975976604821795,213.12011720946015,-2.217015028,4.32586145401,-145.018264771,0
29.8,14.291420095985037,-1.1726165947916878,396.08143234400956,0.40000000596,213.0,-2.2781159094529078,1.8707053260643685,-145.50015390665146,0
29.900000000000002,14.312828051217586,-0.9372688554799783,396.0111576476735,0.40000000596,213.0,-2.37259531021,-3.22682332993,-146.244888306,0
30.0,14.334236006450134,-0.7019211161682771,395.94088295133747,0.40000000596,213.0,-2.37259531021,-3.22682332993,-146.244888306,0
30.1,14.355643961682683,-0.4665733768565675,395.8706082550014,0.40000000596,213.0,-2.37259531021,-3.22682332993,-146.244888306,0
30.200000000000003,14.392098819260788,-0.630236262683988,395.78662130070404,0.40188121023228374,212.43563818013945,-2.70896649361,-3.08040618896,-146.723770142,0
30.3,14.431233257370385,-0.8649557074247595,395.7001924418451,0.404097422882239,211.77077375113817,-2.70896649361,-3.08040618896,-146.723770142,0
30.400000000000002,14.47036769547998,-1.0996751521655392,395.6137635829861,0.4063136355321943,211.10590932213685,-2.70896649361,-3.08040618896,-146.723770142,0
30.5,14.509502133589578,-1.3343945969063107,395.5273347241272,0.4085298481821495,210.44104489313554,-2.70896649361,-3.08040618896,-146.723770142,0
30.6,14.556149600618985,-1.3632333115734958,395.4319280201406,0.4114642939053865,209.85357011221117,-2.744687169363153,-3.1525514869130467,-147.51107472198171,0
30.700000000000003,14.617601776380562,-0.9863762309976947,395.3188301314702,0.41581404516853826,209.41859457105983,-2.82045555115,-3.37792897224,-149.652206421,0
30.8,14.680672021115816,-0.6367823771039661,395.2035253911734,0.4203659913575629,209.01220014853402,-2.82045555115,-3.37792897224,-149.652206421,0
30.900000000000002,14.785089932332282,-0.9838651311847295,395.0318274028124,0.43008476819175273,209.33615936346837,-3.38893151283,-5.11403465271,-150.073120117,0
31.0,14.889507843548742,-1.3309478852654806,394.86012941445136,0.4398035450259422,209.6601185784027,-3.38893151283,-5.11403465271,-150.073120117,0
31.1,14.993925754765208,-1.6780306393462436,394.68843142609035,0.449522321860132,209.98407779333704,-3.38893151283,-5.11403465271,-150.073120117,0
31.200000000000003,15.087080516253701,-1.8844503450644952,394.54430808398,0.4523394364998569,209.76605563202597,-3.35244178772,-7.39236402512,-149.933105469,0
31.3,15.179653093807051,-2.083599281148799,394.40161005507713,0.45479980929094843,209.52001885153496,-3.35244178772,-7.39236402512,-149.933105469,0
31.400000000000002,15.272225671360403,-2.2827482172331095,394.2589120261742,0.4572601820820401,209.27398207104392,-3.35244178772,-7.39236402512,-149.933105469,0
31.5,15.364798248913752,-2.4818971533174135,394.1162139972713,0.4597205548731316,209.0279452905529,-3.35244178772,-7.39236402512,-149.933105469,0
31.6,15.445576930900913,-2.6038963863368028,393.9936466325715,0.4659086017630343,208.40914009469347,-2.03315424919,-2.7629263401,-150.51385498,0
31.700000000000003,15.524844394644566,-2.716009993517093,393.8736587232201,0.47257429652359606,207.74256998292938,-2.03315424919,-2.7629263401,-150.51385498,0
31.8,15.604111858388217,-2.8281236006973796,393.7536708138687,0.4792399912841576,207.07599987116532,-2.03315424919,-2.7629263401,-150.51385498,0
31.900000000000002,15.666358243027666,-2.5723236751524943,393.6972861979902,0.479999989271,206.3594785540794,-0.44705336996953005,-4.900114249174678,-152.1437411081879,0
32.0,15.726414202667534,-2.269177339028684,393.6490866239193,0.479999989271,205.63652906823725,-0.408152133226,-5.00790929794,-152.222564697,0
32.1,15.786470162307406,-1.9660310029048627,393.6008870498483,0.479999989271,204.91357958239504,-0.408152133226,-5.00790929794,-152.222564697,0
32.2,15.846526121947278,-1.6628846667810413,393.5526874757774,0.479999989271,204.19063009655284,-0.408152133226,-5.00790929794,-152.222564697,0
32.300000000000004,15.889680738177399,-1.3329868715617177,393.49887302747544,0.4815224616994608,203.84775306569756,0.21672641097193496,-3.8350760664614496,-153.86900455403108,0
32.4,15.926782776216864,-0.9935090510175595,393.44304782390446,0.48359015016152107,203.64098463852844,0.76674669981,-2.6507730484,-155.323394775,0
32.5,15.963884814256334,-0.6540312304733772,393.3872226203335,0.4856578386235815,203.43421621135928,0.76674669981,-2.6507730484,-155.323394775,0
32.6,16.000986852295803,-0.3145534099291949,393.3313974167625,0.4877255270856419,203.22744778419013,0.76674669981,-2.6507730484,-155.323394775,0
32.7,16.038088890335274,0.02492441061498729,393.27557221319154,0.4897932155477023,203.02067935702098,0.76674669981,-2.6507730484,-155.323394775,0
32.800000000000004,16.050650090881536,-0.03991714904152794,393.21545217700304,0.490000009537,202.74029020848997,1.17836403847,-2.79480266571,-156.356582642,0
32.9,16.060484163285814,-0.14968915414019662,393.154854872714,0.490000009537,202.45171987457303,1.17836403847,-2.79480266571,-156.356582642,0
33.0,16.0703182356901,-0.2594611592388731,393.09425756842495,0.490000009537,202.16314954065606,1.17836403847,-2.79480266571,-156.356582642,0
33.1,16.073658394665305,-0.38449202361968104,393.04951656033705,0.49116461121970917,201.8835397206609,1.452557356181624,-1.9512109133093611,-156.64561245655645,0
33.2,16.06855115855181,-0.5293718764982416,393.0254016970411,0.4938441469467756,201.6155858924067,1.98999392986,0.0888389870524,-157.211669922,0
33.300000000000004,16.063443922438314,-0.674251729376802,393.0012868337451,0.496523682673842,201.3476320641525,1.98999392986,0.0888389870524,-157.211669922,0
33.4,16.058336686324818,-0.8191315822553522,392.97717197044915,0.4992032184009082,201.0796782358983,1.98999392986,0.0888389870524,-157.211669922,0
33.5,16.05026332146283,-0.6740687552038466,392.9824565814757,0.49844282005272056,201.0,2.3211446245152416,1.5133872476133368,-157.87370553528473,0
33.6,16.040934690832348,-0.40630217797750184,393.00018305084956,0.4962266415086346,201.0,2.66396331787,3.19037866592,-158.560440063,0
33.7,16.031606060201863,-0.138535600751157,393.01790952022344,0.4940104629645486,201.0,2.66396331787,3.19037866592,-158.560440063,0
33.800000000000004,16.022277429571382,0.12923097647518778,393.0356359895973,0.49179428442046264,201.0,2.66396331787,3.19037866592,-158.560440063,0
33.9,16.01518923931294,0.349266294012342,393.05198892629096,0.490000009537,201.0,2.66396331787,3.19037866592,-158.560440063,0
34.0,16.017629209776068,0.36630977144597976,393.0625004934499,0.490000009537,201.0,2.72621488571,4.02326774597,-158.78314209,0
34.1,16.020069180239197,0.3833532488796175,393.07301206060885,0.490000009537,201.0,2.72621488571,4.02326774597,-158.78314209,0
34.2,16.022509150702327,0.40039672631325535,393.08352362776776,0.490000009537,201.0,2.72621488571,4.02326774597,-158.78314209,0
34.300000000000004,16.026765380800903,0.28301540838772077,393.0796059808516,0.49094445031027706,201.0,2.7010866842165218,4.02326774597,-158.75379257937536,0
34.4,16.033932365734344,-0.04979635537375743,393.0525639392659,0.493402460781087,201.0,2.18221592903,1.89032018185,-158.155151367,0
34.5,16.04109935066779,-0.3826081191352593,393.02552189768016,0.49586047125189714,201.0,2.18221592903,1.89032018185,-158.155151367,0
34.6,16.04826633560123,-0.715419882896761,392.99847985609443,0.4983184817227073,201.0,2.18221592903,1.89032018185,-158.155151367,0
34.7,16.064105258547833,-0.8833513796109528,392.9596242367922,0.500814248511763,200.91857507116873,2.1246712414868316,2.081137002662646,-158.23594446581714,0
34.800000000000004,16.09872353612338,-0.6942294700970263,392.89518594323204,0.5033917777959777,200.66082189692807,1.74942326546,3.95741128922,-158.764312744,0
34.9,16.133341813698927,-0.5051075605831132,392.8307476496719,0.5059693070801919,200.40306872268744,1.74942326546,3.95741128922,-158.764312744,0
35.0,16.167960091274477,-0.31598565106918675,392.7663093561117,0.5085468363644066,200.1453155484468,1.74942326546,3.95741128922,-158.764312744,0
35.1,16.20724678179002,-0.3214878913612076,392.6946746306739,0.5111033768299524,200.11033874191426,1.5386736866401007,3.150928122653365,-159.02519701386777,0
35.2,16.2525669773886,-0.5785243922742371,392.61373916237727,0.5136327911295505,200.36328041307925,1.31836700439,2.12699508667,-159.297714233,0
35.300000000000004,16.29788717298718,-0.8355608931872667,392.53280369408066,0.5161622054291485,200.61622208424424,1.31836700439,2.12699508667,-159.297714233,0
35.4,16.34320736858576,-1.092597394100278,392.45186822578404,0.5186916197287463,200.8691637554092,1.31836700439,2.12699508667,-159.297714233,0
35.5,16.369489855811132,-1.0773101401808,392.386007716062,0.5211997038545654,200.76005518565157,1.3755613325518428,2.679690908415851,-159.0595480943244,0
35.6,16.37537339485666,-0.7702273584556361,392.336300059023,0.523684932650265,200.26300895247866,1.49910330772,4.25390386581,-158.545227051,0
35.7,16.381256933902186,-0.46314457673047205,392.286592401984,0.5261701614459645,199.76596271930575,1.49910330772,4.25390386581,-158.545227051,0
35.800000000000004,16.387140472947713,-0.15606179500530803,392.2368847449451,0.5286553902416641,199.26891648613284,1.49910330772,4.25390386581,-158.545227051,0
35.9,16.380726136188144,-0.049302021438093487,392.21623134479506,0.52999997139,198.8217360859256,2.347355861498467,4.545482455232907,-159.3155344005555,0
36.0,16.35981521758726,-0.17868049877569406,392.22982673846155,0.52999997139,198.43333690453434,3.11612129211,4.88190174103,-160.026351929,0
36.1,16.338904298986375,-0.30805897611329464,392.24342213212805,0.52999997139,198.0449377231431,3.11612129211,4.88190174103,-160.026351929,0
36.2,16.31799338038549,-0.43743745345089524,392.25701752579454,0.52999997139,197.65653854175184,3.11612129211,4.88190174103,-160.026351929,0
36.300000000000004,16.29708246178461,-0.5668159307884958,392.27061291946103,0.52999997139,197.2681393603606,3.11612129211,4.88190174103,-160.026351929,0
36.4,16.27420539108055,-0.501479108506448,392.3028974559839,0.5289095148690218,197.10904575609476,3.987904458740512,4.822752833613252,-161.12820683580324,0
36.5,16.246944455817253,-0.0019919985805373353,392.3768525585217,0.5253877033740351,197.46122724146892,5.00548171997,4.73476696014,-162.41619873,0
36.6,16.219683520553957,0.4974951113453734,392.45080766105946,0.5218658918790482,197.81340872684308,5.00548171997,4.73476696014,-162.41619873,0
36.7,16.196306900953235,0.8298633358887504,392.52492522712436,0.5184811421851654,198.0,5.001566869180313,4.620142427920575,-162.31379239921543,0
36.800000000000004,16.177307227278952,0.9739177393761936,392.59922586123383,0.5152508372234121,198.0,4.97754192352,3.17151355743,-161.688964844,0
36.9,16.158307553604672,1.1179721428636267,392.67352649534325,0.5120205322616592,198.0,4.97754192352,3.17151355743,-161.688964844,0
37.0,16.12968544203583,1.1353933782942394,392.75973963747884,0.5088645290145456,197.772907493731,4.9865773539379346,2.3928589738771615,-161.4498609471556,0
37.1,16.084991971572865,0.9413123817498956,392.86584900486577,0.5058326242064662,197.16652595380904,4.99394893646,1.48324072361,-161.253112793,0
37.2,16.040298501109906,0.7472313852055519,392.97195837225263,0.5028007193983869,196.56014441388712,4.99394893646,1.48324072361,-161.253112793,0
37.300000000000004,15.9952725222828,0.6368968063001998,393.0821762514465,0.499469614421333,195.92044220587871,4.99394893646,1.48324072361,-161.253112793,0
37.4,15.946218336715393,1.5411168082353148,393.2421671190475,0.49251381825653195,194.8770733408738,5.52485656738,5.1144194603,-163.187072754,0
37.5,15.897164151147983,2.445336810170494,393.40215798664855,0.4855580220917305,193.8337044758688,5.52485656738,5.1144194603,-163.187072754,0
37.6,15.856672823424052,3.060192470681969,393.55701762744604,0.4793716338550541,192.9371643984791,5.52485656738,5.1144194603,-163.187072754,0
37.7,15.850230639380412,2.5244266661192327,393.6914735803765,0.4762447009512058,192.6244708098784,5.06524467468,5.70261621475,-166.6300354,0
37.800000000000004,15.843788455336771,1.9886608615564962,393.825929533307,0.4731177680473575,192.31177722127768,5.06524467468,5.70261621475,-166.6300354,0
37.9,15.837407027936694,1.454020970914689,393.96006796751067,0.469999998808,192.00229523521898,5.06524467468,5.70261621475,-166.6300354,0
38.0,15.851696937269514,1.302452698872525,393.9861764623622,0.469999998808,192.78550227380666,2.99088358879,6.54728746414,-167.563522339,0
38.1,15.865986846602334,1.1508844268303609,394.0122849572137,0.469999998808,193.56870931239436,2.99088358879,6.54728746414,-167.563522339,0
38.2,15.880276755935155,0.999316154788197,394.03839345206524,0.469999998808,194.35191635098204,2.99088358879,6.54728746414,-167.563522339,0
38.300000000000004,15.892895402843088,0.8509466258109751,394.05227494816813,0.4704064463981234,195.12193439332586,2.99088358879,6.54728746414,-167.563522339,0
38.400000000000006,15.897498280947143,0.7179190230864918,394.007512874192,0.4727623125025436,195.8286948986894,0.403336316347,9.20146369934,-164.720108032,0
38.5,15.902101159051199,0.5848914203620177,393.96275080021593,0.4751181786069636,196.5354554040529,0.403336316347,9.20146369934,-164.720108032,0
38.6,15.906704037155253,0.4518638176375343,393.91798872623986,0.47747404471138377,197.24221590941644,0.403336316347,9.20146369934,-164.720108032,0
38.7,15.911306915259308,0.3188362149130508,393.8732266522638,0.47982991081580395,197.94897641478,0.403336316347,9.20146369934,-164.720108032,0
38.800000000000004,15.909118459057591,-0.049641116644639605,393.82473986710573,0.4875428362776854,198.37714242900617,-0.31561239162095517,16.808582719598952,-162.08747323332247,0
38.900000000000006,15.906401561930767,-0.4364390413169004,393.77596325822026,0.49567260020977877,198.7836307104043,-0.368872463703,18.0025196075,-161.895324707,0
39.0,15.903684664803944,-0.8232369659891337,393.7271866493347,0.5038023641418716,199.1901189918024,-0.368872463703,18.0025196075,-161.895324707,0
39.1,15.90096776767712,-1.2100348906613945,393.67841004044925,0.5119321280739649,199.59660727320053,-0.368872463703,18.0025196075,-161.895324707,0
39.2,15.898462631849865,-1.5933524198948994,393.6291887930476,0.5200421912761222,200.012663091654,-0.368872463703,18.0025196075,-161.895324707,0
39.300000000000004,15.923552863941953,-1.5231272440533605,393.52202511957864,0.5255849823092288,201.67549868365512,0.331081032753,29.5153579712,-159.445114136,0
39.400000000000006,15.948643096034044,-1.4529020682118214,393.4148614461096,0.5311277733423355,203.33833427565622,0.331081032753,29.5153579712,-159.445114136,0
39.5,15.97373332812613,-1.3826768923702877,393.30769777264067,0.5366705643754418,205.00116986765724,0.331081032753,29.5153579712,-159.445114136,0
39.6,15.998823560218218,-1.3124517165287488,393.20053409917165,0.5422133554085484,206.66400545965834,0.331081032753,29.5153579712,-159.445114136,0
39.7,16.023913792310307,-1.24222654068721,393.0933704257027,0.547756146441655,208.32684105165947,0.331081032753,29.5153579712,-159.445114136,0
39.800000000000004,16.03056534136372,-1.3685515433873372,392.95640744383354,0.5534658926291993,210.38635360544515,-1.5613231597026,30.28762000056095,-151.23592692052233,0
39.900000000000006,16.02467525415381,-1.6285661833349079,392.7991755476352,0.5592891984898964,212.71567817120084,-1.83952403069,30.4640293121,-150.034286499,0
40.0,16.0187851669439,-1.8885808232824601,392.64194365143686,0.5651125043505931,215.04500273695638,-1.83952403069,30.4640293121,-150.034286499,0
40.1,15.99914590980334,-2.109604112068818,392.49546328783595,0.5707640415649126,217.3056197786193,-1.83952403069,30.4640293121,-150.034286499,0
40.2,15.90769893415337,-2.1269874733098013,392.40513489778624,0.5755184835603891,219.20739839044114,-1.36242568493,29.8235702515,-142.384185791,0
