t_sec,airspeed,climb,altitude,throttle,heading,pitch,roll,yaw,is_boundary
0.0,20.1535625458,0.226291209459,432.489990234,0.430000007153,273.0,1.6857984066,12.4079914093,-86.0192489624,0
0.1,20.095818672283,0.3569928803402271,432.64785229156433,0.42632872654059345,274.1013819516613,1.6857984066,12.4079914093,-86.0192489624,0
0.2,20.038074798765994,0.48769455122145416,432.8057143491286,0.42265744592818694,275.2027639033226,1.6857984066,12.4079914093,-86.0192489624,0
0.30000000000000004,19.963383802724326,0.8312979085237345,432.9573718977758,0.4087834051471635,276.0623143456817,0.759269952774,23.981464386,-83.8976898193,0
0.4,19.844270508663204,1.732965453376226,433.0927660044268,0.36816558811906863,276.2879688944411,0.759269952774,23.981464386,-83.8976898193,0
0.5,19.72515721460208,2.6346329982287173,433.2281601110778,0.32754777109097377,276.5136234432005,0.759269952774,23.981464386,-83.8976898193,0
0.6000000000000001,19.60604392054096,3.5363005430812096,433.3635542177288,0.2869299540628788,276.7392779919599,0.759269952774,23.981464386,-83.8976898193,0
0.7000000000000001,19.486930626479836,4.437968087933701,433.4989483243798,0.24631213703478394,276.9649325407193,-0.27705317949603014,12.719537194378253,-83.26064204023311,0
0.8,19.357202966473537,4.12321822530045,433.62732363250865,0.20853912050606482,277.37012794326785,-1.75592899323,-3.41339087486,-82.3858337402,0
0.9,19.225522294610084,3.584651166959021,433.7544075025236,0.1712895388330139,277.80835833048764,-1.75592899323,-3.41339087486,-82.3858337402,0
1.0,19.093841622746634,3.046084108617591,433.8814913725385,0.13403995715996292,278.2465887177074,-1.75592899323,-3.41339087486,-82.3858337402,0
1.1,18.96216095088318,2.5075170502761606,434.00857524255343,0.09679037548691194,278.6848191049272,-1.75592899323,-3.41339087486,-82.3858337402,0
1.2000000000000002,18.840572987633443,2.0083874234517993,434.06862508325526,0.06721317548262311,278.79098814390795,-8.19253063202,-26.6137638092,-80.7451324463,0
1.3,18.744836646191143,1.6102734509633096,433.9569729121031,0.05728813396763942,278.0466100483093,-8.19253063202,-26.6137638092,-80.7451324463,0
1.4000000000000001,18.649100304748842,1.212159478474819,433.8453207409509,0.0473630924526557,277.30223195271066,-8.19253063202,-26.6137638092,-80.7451324463,0
1.5,18.553363963306538,0.8140455059863294,433.7336685697988,0.037438050937672,276.557853857112,-8.19253063202,-26.6137638092,-80.7451324463,0
1.6,18.451818989867512,0.2646831541430182,433.5560308599921,0.030770187361734834,275.6149059752257,-11.8185987473,-31.7332191467,-83.1854782104,0
1.7000000000000002,18.332901648149676,-0.7370305515488161,433.1810446042236,0.03384384205355218,274.078078594969,-11.8185987473,-31.7332191467,-83.1854782104,0
1.8,18.21398430643184,-1.7387442572406484,432.80605834845505,0.036917496745369524,272.5412512147122,-11.8185987473,-31.7332191467,-83.1854782104,0
1.9000000000000001,18.095066964714,-2.740457962932483,432.4310720926865,0.03999115143718687,271.00442383445545,-15.954904407504184,-35.342761423876,-88.23456387716152,0
2.0,18.10449313776982,-3.2625366812485517,431.8656004870568,0.04212978620502248,269.7221279499953,-16.2500915527,-35.6084861755,-88.4850463867,0
2.1,18.114289820580943,-3.783230760518988,431.2995789768955,0.04426572170126768,268.44056686232165,-16.2500915527,-35.6084861755,-88.4850463867,0
2.2,18.12408650339207,-4.303924839789423,430.73355746673417,0.04640165719751288,267.15900577464805,-16.2500915527,-35.6084861755,-88.4850463867,0
2.3000000000000003,18.133883186203196,-4.824618919059859,430.16753595657286,0.048537592693758076,265.8774446869744,-16.2500915527,-35.6084861755,-88.4850463867,0
2.4000000000000004,18.19272179953321,-5.368684931935368,429.5837175258384,0.04920854745540054,264.1294015240391,-18.6106052399,-38.891166687,-94.1753616333,0
2.5,18.35804354816363,-5.963497657714898,428.9612572251514,0.04669863759518413,261.36850113036786,-18.6106052399,-38.891166687,-94.1753616333,0
2.6,18.523365296794047,-6.5583103834944305,428.3387969244645,0.044188727734967716,258.60760073669655,-18.6106052399,-38.891166687,-94.1753616333,0
2.7,18.68868704542447,-7.153123109273963,427.7163366237775,0.04167881787475129,255.8467003430253,-18.6106052399,-38.891166687,-94.1753616333,0
2.8000000000000003,18.84081047046985,-7.5501577563853175,427.06165508775024,0.0399999991059,253.23470892580715,-21.8970184326,-34.4891281128,-105.312232971,0
2.9000000000000004,18.966273047405863,-7.547677171068782,426.3418860839266,0.0399999991059,250.92351628638517,-21.8970184326,-34.4891281128,-105.312232971,0
3.0,19.091735624341876,-7.5451965857522465,425.622117080103,0.0399999991059,248.6123236469632,-21.8970184326,-34.4891281128,-105.312232971,0
3.1,19.232236252907416,-7.527250295633363,424.8938169364868,0.039353775747448326,246.61226597626313,-23.8534564972,-34.7842254639,-112.965942383,0
3.2,19.407430374113446,-7.473623896883463,424.145835051984,0.03721668469663292,245.3300113171155,-23.8534564972,-34.7842254639,-112.965942383,0
3.3000000000000003,19.58262449531948,-7.419997498133564,423.39785316748123,0.03507959364581751,244.04775665796785,-23.8534564972,-34.7842254639,-112.965942383,0
3.4000000000000004,19.757818616525512,-7.366371099383665,422.64987128297844,0.0329425025950021,242.76550199882024,-23.8534564972,-34.7842254639,-112.965942383,0
3.5,19.933012737731545,-7.3127447006337665,421.90188939847565,0.0308054115441867,241.4832473396726,-23.79204497982051,-34.62605585467858,-113.1988808409457,0
3.6,20.121427703854874,-7.513747399580592,421.1396411549031,0.03262488192766646,240.34377939688397,-22.1772289276,-30.3573226929,-118.152793884,0
3.7,20.3178387646056,-7.86875223476069,420.36876447965125,0.036837318859475894,239.29067023847594,-22.1772289276,-30.3573226929,-118.152793884,0
3.8000000000000003,20.51424982535633,-8.223757069940788,419.5978878043994,0.04104975579128533,238.2375610800679,-22.1772289276,-30.3573226929,-118.152793884,0
3.9000000000000004,20.71066088610706,-8.578761905120885,418.82701112914765,0.04526219272309477,237.18445192165987,-22.1772289276,-30.3573226929,-118.152793884,0
4.0,20.907071946857787,-8.933766740300982,418.0561344538958,0.049474629654904186,236.13134276325187,-22.450887673755172,-24.051210953755177,-122.05533020139796,0
4.1000000000000005,21.095632995105465,-9.002133397752846,417.2046827107618,0.05792975698249985,234.61229275667694,-22.5919342041,-21.0643062592,-123.887649536,0
4.2,21.283075492775545,-9.029656897421852,416.341749802638,0.06698942650552908,233.0268507023644,-22.5919342041,-21.0643062592,-123.887649536,0
4.3,21.47051799044562,-9.057180397090857,415.4788168945142,0.07604909602855832,231.4414086480519,-22.5919342041,-21.0643062592,-123.887649536,0
4.4,21.6579604881157,-9.084703896759862,414.6158839863904,0.08510876555158763,229.85596659373934,-22.5919342041,-21.0643062592,-123.887649536,0
4.5,21.824931952183736,-9.152257127458789,413.77271316276716,0.09580432220314068,228.76782724108747,-21.9868907928,-12.6735992432,-130.600402832,0
4.6000000000000005,21.967882702945122,-9.266781249393816,412.9527311714892,0.10841942900932736,228.26322293876257,-21.9868907928,-12.6735992432,-130.600402832,0
4.7,22.110833453706505,-9.38130537132884,412.1327491802112,0.12103453581551392,227.75861863643766,-21.9868907928,-12.6735992432,-130.600402832,0
4.800000000000001,22.253784204467888,-9.495829493263868,411.31276718893326,0.1336496426217006,227.25401433411275,-21.9868907928,-12.6735992432,-130.600402832,0
4.9,22.3966391394253,-9.423886359858034,410.52615549439713,0.1463362180942712,227.0,-21.1944484711,-7.33576154709,-132.334640503,0
5.0,22.53939694923514,-9.16292785589618,409.7733701088968,0.1590952388679486,227.0,-21.1944484711,-7.33576154709,-132.334640503,0
5.1000000000000005,22.68215475904498,-8.901969351934325,409.0205847233965,0.17185425964162612,227.0,-21.1944484711,-7.33576154709,-132.334640503,0
5.2,22.82491256885482,-8.64101084797247,408.2677993378962,0.18461328041530353,227.0,-20.418984320623274,-4.753938207622554,-132.4953969461685,0
5.300000000000001,22.964833617234813,-8.705825579325612,407.5516038663443,0.19367171076819448,226.63282860817023,-18.9080314636,0.170044660568,-132.796585083,0
5.4,23.102681930622666,-9.008672870356465,406.86214352810407,0.2000262326513582,225.99737628726675,-18.9080314636,0.170044660568,-132.796585083,0
5.5,23.240530244010515,-9.311520161387318,406.17268318986385,0.20638075453452187,225.36192396636324,-18.9080314636,0.170044660568,-132.796585083,0
5.6000000000000005,23.34631754178652,-9.086737222464567,405.5552279286994,0.21205269408543614,225.0,-15.97016716,10.1880331039,-134.416885376,0
5.7,23.40968272959379,-8.163810846387278,405.03304748150225,0.21682146253559764,225.0,-15.97016716,10.1880331039,-134.416885376,0
5.800000000000001,23.47304791740106,-7.240884470309982,404.5108670343051,0.2215902309857592,225.0,-15.97016716,10.1880331039,-134.416885376,0
5.9,23.536413105208332,-6.317958094232694,403.9886865871079,0.22635899943592067,225.0,-15.97016716,10.1880331039,-134.416885376,0
6.0,23.58574978749209,-5.742062970811593,403.4733937729529,0.2309965949039049,225.29897750467643,-14.2241764069,20.0566539764,-134.387145996,0
6.1000000000000005,23.589795196068934,-6.2865642732651015,402.98033780168754,0.23521069612093093,226.56320907535545,-14.2241764069,20.0566539764,-134.387145996,0
6.2,23.59384060464578,-6.831065575718604,402.4872818304222,0.2394247973379569,227.8274406460345,-14.244208553639329,21.33727649109067,-133.74876681364174,0
6.300000000000001,23.580370792722107,-6.510955012884645,401.98915796196206,0.2484476350114942,228.8447638990926,-14.3051204681,25.1933078766,-131.875335693,0
6.4,23.56413237032373,-6.054176260991075,401.4902330169035,0.2582305840477847,229.82305864237915,-14.3051204681,25.1933078766,-131.875335693,0
6.5,23.547893947925356,-5.5973975090975046,400.99130807184497,0.2680135330840752,230.8013533856657,-14.3051204681,25.1933078766,-131.875335693,0
6.6000000000000005,23.53165552552698,-5.140618757203931,400.4923831267865,0.2777964821203658,231.77964812895226,-14.054028938678375,29.73686631978759,-129.8568486779982,0
6.7,23.548095896918348,-5.1083880304020095,399.97982531531454,0.2839621389458236,232.7924271256672,-13.8108310699,34.1939468384,-127.718032837,0
6.800000000000001,23.5740367644802,-5.199583428582633,399.463304108009,0.28907616360218535,233.81523150825612,-13.8108310699,34.1939468384,-127.718032837,0
6.9,23.599977632042055,-5.290778826763255,398.9467829007035,0.294190188258547,234.83803589084505,-13.8108310699,34.1939468384,-127.718032837,0
7.0,23.62591849960391,-5.381974224943877,398.43026169339805,0.29930421291490866,235.86084027343398,-13.411581450520808,36.552324239461974,-123.33410863646695,0
7.1000000000000005,23.636930157846287,-5.180920777778009,397.9546589898187,0.3198159646137132,237.62130544872537,-13.3882694244,36.6730270386,-123.22013855,0
7.2,23.64559070733405,-4.933842869160975,397.4855002880802,0.3427526090229071,239.49794025567948,-13.3882694244,36.6730270386,-123.22013855,0
7.300000000000001,23.654251256821816,-4.68676496054394,397.01634158634164,0.36568925343210124,241.37457506263365,-13.3882694244,36.6730270386,-123.22013855,0
7.4,23.662911806309577,-4.439687051926906,396.5471828846031,0.38862589784129514,243.25120986958777,-13.3882694244,36.6730270386,-123.22013855,0
7.5,23.676405588693687,-4.218252489595723,396.08398028154863,0.4124051167440041,245.13528802102476,-12.1978807449,40.6107063293,-114.8514328,0
7.6000000000000005,23.756013269722136,-4.347593822737475,395.7022512828416,0.44770993059718456,247.12118384466336,-12.1978807449,40.6107063293,-114.8514328,0
7.7,23.835620950750585,-4.476935155879226,395.32052228413454,0.48301474445036474,249.1070796683019,-12.1978807449,40.6107063293,-114.8514328,0
7.800000000000001,23.915228631779033,-4.606276489020979,394.9387932854275,0.5183195583035453,251.0929754919405,-12.1978807449,40.6107063293,-114.8514328,0
7.9,23.994836312807482,-4.73561782216273,394.55706428672045,0.5536243721567254,253.07887131557908,-12.1978807449,40.6107063293,-114.8514328,0
8.0,24.075670965530893,-4.918201187533684,394.23264228470237,0.5792099466321602,255.65779128607824,-8.47754669189,41.7197265625,-105.066749573,0
8.1,24.157567069891545,-5.146844166595589,393.95779649190786,0.596387419606479,258.74973568427424,-8.47754669189,41.7197265625,-105.066749573,0
8.200000000000001,24.2394631742522,-5.375487145657497,393.6829506991133,0.6135648925807982,261.8416800824703,-8.47754669189,41.7197265625,-105.066749573,0
8.3,24.32608670300624,-5.140196240244118,393.49050300806294,0.6286597730507248,264.5876241220582,-7.17738389969,41.4686584473,-95.783203125,0
8.4,24.415542151757272,-4.626990018709239,393.3474151401692,0.6425070956819628,267.12629983687276,-7.17738389969,41.4686584473,-95.783203125,0
8.5,24.504997600508304,-4.113783797174358,393.2043272722754,0.656354418313201,269.6649755516874,-7.17738389969,41.4686584473,-95.783203125,0
8.6,24.594453049259336,-3.6005775756394787,393.06123940438164,0.6702017409444391,272.203651266502,-7.17738389969,41.4686584473,-95.783203125,0
8.700000000000001,24.665848370068353,-3.04039206472178,392.9606948792447,0.6828109604642597,274.77301174593356,-3.96990156174,42.7138595581,-86.0040664673,0
8.8,24.693540189897377,-2.366521898514103,392.96310051192717,0.6924241081557462,277.41662594299163,-3.96990156174,42.7138595581,-86.0040664673,0
8.9,24.721232009726396,-1.6926517323064267,392.9655061446096,0.7020372558472326,280.06024014004964,-3.96990156174,42.7138595581,-86.0040664673,0
9.0,24.74892382955542,-1.0187815660987503,392.96791177729204,0.7116504035387191,282.7038543371077,-3.96990156174,42.7138595581,-86.0040664673,0
9.1,24.764903013573942,-0.39511936180052315,392.982096771322,0.7206366277342833,285.381959838826,-0.893044710159,44.2276382446,-74.7577362061,0
9.200000000000001,24.703482619579198,-0.10324200316564369,393.0741222798452,0.7254800086948954,288.28799118653006,-0.893044710159,44.2276382446,-74.7577362061,0
9.3,24.642062225584457,0.18863535546923055,393.1661477883684,0.7303233896555075,291.194022534234,-0.893044710159,44.2276382446,-74.7577362061,0
9.4,24.580641831589716,0.48051271410410484,393.25817329689164,0.7351667706161195,294.10005388193804,-0.893044710159,44.2276382446,-74.7577362061,0
9.5,24.519188600731116,0.7729568221000249,393.3502783492431,0.7400060596717084,297.0054451264307,0.45562294210436627,46.00718000604745,-66.14569915311937,0
9.600000000000001,24.44208680088251,1.3354881258389106,393.4802904042202,0.7428953312612606,299.60579203697847,1.13083910942,46.9031066895,-62.08020401,0
9.700000000000001,24.364985001033904,1.8980194295777864,393.6103024591974,0.7457846028508128,302.20613894752626,1.13083910942,46.9031066895,-62.08020401,0
9.8,24.2878832011853,2.460550733316662,393.74031451417454,0.7486738744403649,304.806485858074,1.1689350580860773,47.08895228771104,-61.275939551360466,0
9.9,24.189494131550585,2.565775810941015,393.89354438428546,0.75,307.5308750722104,1.62411403656,49.3920707703,-53.7348136902,0
10.0,24.073045589532665,2.2830361920981406,394.06647154274856,0.75,310.3604980048329,1.62411403656,49.3920707703,-53.7348136902,0
10.100000000000001,23.956597047514745,2.000296573255261,394.23939870121166,0.75,313.1901209374554,1.6867827276315879,49.36838660721881,-53.62564098650547,0
10.200000000000001,23.83625974775565,1.9868197892419146,394.43976038838946,0.7480273220284112,315.9863399264175,3.48570132256,48.6865158081,-44.9024772644,0
10.3,23.709020537211334,2.451240623816034,394.6888138898243,0.7425534623751426,318.72327236312736,3.48570132256,48.6865158081,-44.9024772644,0
10.4,23.581781326667016,2.9156614583901534,394.93786739125915,0.7370796027218741,321.46020479983724,3.48570132256,48.6865158081,-44.9024772644,0
10.5,23.4545421161227,3.380082292964273,395.186920892694,0.7316057430686056,324.1971372365471,3.491768517315208,48.68512200463591,-44.61203116260941,0
10.600000000000001,23.301424138747645,3.65631063848324,395.4604200315148,0.7251507214235793,326.93971705578195,4.89209890366,48.1509132385,-34.9718589783,0
10.700000000000001,23.13756347793168,3.854417319662442,395.74406693918667,0.7182884039923723,329.6846411923922,4.89209890366,48.1509132385,-34.9718589783,0
10.8,22.973702817115715,4.052524000841644,396.02771384685855,0.7114260865611652,332.42956532900234,4.89209890366,48.1509132385,-34.9718589783,0
10.9,22.80984215629975,4.250630682020846,396.3113607545304,0.7045637691299582,335.1744894656125,4.89209890366,48.1509132385,-34.9718589783,0
11.0,22.638434846065078,4.415855191269734,396.60119141411155,0.697751276880957,337.8994853370564,4.66760015488,47.9944725037,-22.5775127411,0
11.100000000000001,22.45204354170645,4.5157916178676665,396.90330001283246,0.6910377133347448,340.5849133166339,4.66760015488,47.9944725037,-22.5775127411,0
11.200000000000001,22.265652237347823,4.615728044465597,397.20540861155337,0.6843241497885327,343.2703412962114,4.66760015488,47.9944725037,-22.5775127411,0
11.3,22.093082979146725,4.696775288198636,397.50823541238344,0.6791982225325928,345.8819639234888,5.74710464478,48.8755493164,-14.5802631378,0
11.4,21.945527521918464,4.743638717513967,397.8123619458588,0.6769454457298866,348.3600207695406,5.74710464478,48.8755493164,-14.5802631378,0
11.5,21.797972064690203,4.790502146829298,398.1164884793341,0.6746926689271804,350.83807761559245,5.74710464478,48.8755493164,-14.5802631378,0
11.600000000000001,21.65041660746194,4.83736557614463,398.4206150128095,0.6724398921244741,353.3161344616443,5.74710464478,48.8755493164,-14.5802631378,0
11.700000000000001,21.502861150233677,4.88422900545996,398.72474154628486,0.6701871153217679,355.79419130769617,5.9026582315472425,50.29141968879411,-9.547729278151419,0
11.8,21.37154548991644,5.084566318912105,399.0315392906602,0.6559229922186274,286.01707119603486,6.10331106186,52.1284255981,-3.34942865372,0
11.9,21.241700747887784,5.298804516977091,399.3385789797463,0.6405709423981415,209.69544428949655,6.10331106186,52.1284255981,-3.34942865372,0
12.0,21.111856005859128,5.513042715042077,399.6456186688323,0.6252188925776556,133.37381738295824,6.10331106186,52.1284255981,-3.34942865372,0
12.100000000000001,20.98201126383047,5.727280913107066,399.9526583579184,0.6098668427571695,57.052190476418616,6.101088649580895,52.117007102900686,-3.222285476029663,0
12.200000000000001,20.848384144915432,5.825191627241462,400.2517925063998,0.591104985797474,8.59300231637036,5.54591846466,48.7201423645,8.94372653961,0
12.3,20.70795329641252,5.713852769459391,400.5367061892493,0.5662095767304959,10.252695638625527,5.54591846466,48.7201423645,8.94372653961,0
12.4,20.567522447909603,5.6025139116773195,400.8216198720988,0.5413141676635178,11.912388960880694,5.54591846466,48.7201423645,8.94372653961,0
12.5,20.42709159940669,5.491175053895248,401.10653355494827,0.5164187585965397,13.572082283135861,5.372702668089475,43.1099085011977,11.842051536505746,0
12.600000000000001,20.258624159149374,5.368037172128088,401.423036107136,0.4887337735288869,15.36711408545418,5.16113090515,36.3697357178,15.1454153061,0
12.700000000000001,20.080416832601337,5.240800320237779,401.75051260359277,0.4600796923141741,17.209162351760718,5.16113090515,36.3697357178,15.1454153061,0
12.8,19.902209506053296,5.113563468347468,402.07798910004954,0.43142561109946137,19.051210618067255,5.16113090515,36.3697357178,15.1454153061,0
12.9,19.72400217950526,4.986326616457159,402.4054655965063,0.4027715298847486,20.893258884373793,5.16113090515,36.3697357178,15.1454153061,0
13.0,19.545794852957222,4.85908976456685,402.7329420929631,0.3741174486700358,22.735307150680327,3.174460481052468,25.48788731796695,20.232371773121066,0
13.100000000000001,19.366489107296438,4.797774868858395,402.99968388963,0.35597758676929353,23.467413914718303,1.89677810669,20.700876236,23.2282581329,0
13.200000000000001,19.186999038127098,4.747522204417916,403.25623391812155,0.3396020949265713,24.013263621120615,1.89677810669,20.700876236,23.2282581329,0
13.3,19.00750896895776,4.697269539977438,403.5127839466132,0.323226603083849,24.55911332752293,1.89677810669,20.700876236,23.2282581329,0
13.4,18.835419198178176,4.548003143339903,403.7529437974418,0.30835280647206365,25.054906528216257,0.5633008225702416,13.326505593767862,24.488321546016746,0
13.5,18.694413636861505,3.9828395180743725,403.924258354638,0.299786729718243,25.340442408664988,-0.183433905244,9.20797920227,25.1756286621,0
13.600000000000001,18.553408075544834,3.417675892808832,404.09557291183427,0.2912206529644222,25.625978289113725,-0.183433905244,9.20797920227,25.1756286621,0
13.700000000000001,18.412402514228162,2.852512267543302,404.2668874690305,0.2826545762106015,25.911514169562455,-0.4154928954180743,6.5447673790339085,25.554404449691773,0
13.8,18.28264561515829,2.268752067774955,404.40401539589647,0.27579832594230064,26.0,-1.2318675518,-2.18129658699,26.6654090881,0
13.9,18.157939956725826,1.676641028521502,404.5257917287158,0.2697098776434322,26.0,-1.2318675518,-2.18129658699,26.6654090881,0
14.0,18.033234298293358,1.084529989268049,404.6475680615351,0.2636214293445637,26.0,-1.2318675518,-2.18129658699,26.6654090881,0
14.100000000000001,17.923656343569423,0.8240376427044577,404.7342988102171,0.259999990463,25.821284225143586,-3.02834606171,-8.06586647034,26.9173126221,0
14.200000000000001,17.836285054946792,1.050343935471707,404.7695845015226,0.259999990463,25.38022317860968,-3.02834606171,-8.06586647034,26.9173126221,0
14.3,17.748913766324158,1.2766502282389565,404.8048701928281,0.259999990463,24.939162132075776,-3.02834606171,-8.06586647034,26.9173126221,0
14.4,17.661542477701527,1.502956521006206,404.8401558841336,0.259999990463,24.498101085541872,-3.02834606171,-8.06586647034,26.9173126221,0
14.5,17.574171189078893,1.7292628137734551,404.8754415754391,0.259999990463,24.05704003900797,-4.480898044707705,-12.066331670984486,25.543085213474267,0
14.600000000000001,17.525818760498836,1.2492691005355498,404.8229697492305,0.26219357150552575,23.780642340297657,-5.54464149475,-15.0195055008,24.6024665833,0
14.700000000000001,17.483261945323402,0.6643660747748479,404.75746297929715,0.264712973130209,23.52870268841023,-5.54464149475,-15.0195055008,24.6024665833,0
14.8,17.44070513014797,0.07946304901414614,404.69195620936375,0.2672323747548922,23.27676303652281,-5.54464149475,-15.0195055008,24.6024665833,0
14.9,17.398148314972534,-0.5054399767465558,404.62644943943036,0.2697517763795754,23.024823384635383,-6.859131109877077,-15.940268465455075,23.989814813449605,0
15.0,17.392105809524015,-0.8671141138775807,404.47253914795255,0.2744683443734485,22.32974931411464,-9.03760719299,-17.4317550659,23.0019397736,0
15.100000000000001,17.390054250061063,-1.2043897496100568,404.30896651636596,0.2794250585556606,21.58624147769941,-9.03760719299,-17.4317550659,23.0019397736,0
15.200000000000001,17.38800269059811,-1.5416653853425268,404.1453938847794,0.2843817727378725,20.842733641284195,-9.03760719299,-17.4317550659,23.0019397736,0
15.3,17.385951131135155,-1.878941021074997,403.98182125319283,0.28933848692008446,20.09922580486898,-10.400325237582654,-17.477613860347926,21.33564302005123,0
15.4,17.420376918928874,-1.978997664707269,403.74319378495534,0.29788350378296047,19.40873690758605,-11.1944189072,-17.5044517517,20.4637336731,0
15.5,17.460420578964566,-2.0425202374376097,403.49300712957415,0.30698115474731513,18.72641345129187,-11.1944189072,-17.5044517517,20.4637336731,0
15.600000000000001,17.500464239000262,-2.106042810167952,403.2428204741929,0.3160788057116699,18.044089994997677,-11.1944189072,-17.5044517517,20.4637336731,0
15.700000000000001,17.54050789903596,-2.169565382898293,402.9926338188117,0.3251764566760246,17.361766538703495,-11.1944189072,-17.5044517517,20.4637336731,0
15.8,17.597787850157633,-2.339965151303033,402.72059370452075,0.33476560813453904,16.285160597635766,-11.9781732559,-16.8063335419,17.8028926849,0
15.9,17.67451992670255,-2.6309818554958624,402.42389073082904,0.3449094455872903,14.763584662284302,-11.9781732559,-16.8063335419,17.8028926849,0
16.0,17.751252003247465,-2.9219985596886917,402.1271877571374,0.3550532830400416,13.242008726932836,-11.9781732559,-16.8063335419,17.8028926849,0
16.1,17.827984079792387,-3.2130152638815264,401.8304847834457,0.36519712049279296,11.720432791581343,-11.981025140786178,-16.782158087644188,17.684447495211014,0
16.2,17.920027584667267,-3.3639480620264406,401.5385011157667,0.3756530527230638,10.321634002795097,-12.2270021439,-14.6968050003,11.3334589005,0
16.3,18.025839983578926,-3.3889095649359113,401.2507613124101,0.38638963805953075,9.033243301664779,-12.2270021439,-14.6968050003,11.3334589005,0
16.400000000000002,18.131652382490586,-3.4138710678453825,400.96302150905353,0.39712622339599774,7.744852600534463,-12.2270021439,-14.6968050003,11.3334589005,0
16.5,18.23746478140224,-3.438832570754853,400.67528170569693,0.4078628087324643,6.456461899404191,-12.2270021439,-14.6968050003,11.3334589005,0
16.6,18.343277180313898,-3.4637940736643236,400.38754190234033,0.41859939406893126,5.168071198273874,-10.516442486196528,-12.603394297295436,7.168249921230745,0
16.7,18.408656824649675,-3.457080974432989,400.1833354549796,0.4243289871656797,4.350650306541697,-9.88253307343,-11.8194570541,5.37326717377,0
16.8,18.46797071587328,-3.4456160268913454,399.9916607462901,0.4293074274142168,3.6038846698635525,-9.88253307343,-11.8194570541,5.37326717377,0
16.900000000000002,18.527284607096885,-3.434151079349702,399.79998603760055,0.4342858676627539,2.857119033185408,-9.88253307343,-11.8194570541,5.37326717377,0
17.0,18.586598498320487,-3.422686131808059,399.60831132891104,0.4392643079112909,2.11035339650729,-9.38875463850334,-11.004310568995933,4.457075527745278,0
17.1,18.60149956982381,-3.166285359344619,399.4753656439286,0.4421796869006559,79.81498167436364,-8.05801773071,-8.79139232635,2.14825701714,0
17.2,18.608699492299447,-2.8674129018627204,399.352603526814,0.4447373326429495,171.1230217547239,-8.05801773071,-8.79139232635,2.14825701714,0
17.3,18.615899414775086,-2.568540444380811,399.2298414096993,0.44729497838524324,262.4310618350874,-8.05801773071,-8.79139232635,2.14825701714,0
17.400000000000002,18.623099337250725,-2.2696679868989014,399.1070792925847,0.44985262412753696,353.73910191545093,-4.13801193237,-3.12031388283,-0.11011350356201044,0
17.5,18.56417859665915,-1.8594761357523542,399.06023744983355,0.446940978654016,358.38819753152717,-4.13801193237,-3.12031388283,-0.171394392848,0
17.6,18.501215257305887,-1.4424782481550753,399.01803735132535,0.44369494225229283,357.738989632033,-4.13801193237,-3.12031388283,-0.171394392848,0
17.7,18.438251917952623,-1.0254803605578113,398.97583725281714,0.4404489058505698,357.08978173253877,-3.767993051973713,-2.611938682906223,-0.8399285907011231,0
17.8,18.363439658325117,-0.9704989034249708,398.92643040754234,0.44181528948310533,357.0,-2.82098078728,-1.3040766716,-2.48245072365,0
17.900000000000002,18.286725777619132,-0.9736170924196881,398.87586695886046,0.4439219156826379,357.0,-2.82098078728,-1.3040766716,-2.48245072365,0
18.0,18.210011896913148,-0.9767352814144052,398.8253035101786,0.44602854188217034,357.0,-2.82098078728,-1.3040766716,-2.48245072365,0
18.1,18.133298016207164,-0.9798534704091225,398.7747400614968,0.4481351680817029,357.0,-2.82098078728,-1.3040766716,-2.48245072365,0
18.2,18.05555231720047,-0.9799850589907284,398.72645262516477,0.449999988079,356.9495965176906,-1.7862688060098801,3.8690823938680445,-2.569596891318173,0
18.3,17.969849190373672,-0.95708385468771,398.69571789552407,0.449999988079,356.5104791774443,-1.58143985271,4.89845132828,-2.58684492111,0
18.400000000000002,17.884146063546872,-0.9341826503846915,398.66498316588337,0.449999988079,356.0713618371981,-1.58143985271,4.89845132828,-2.58684492111,0
18.5,17.79844293672008,-0.9112814460816739,398.6342484362427,0.449999988079,355.63224449695184,-1.58143985271,4.89845132828,-2.58684492111,0
18.6,17.71273980989328,-0.8883802417786555,398.603513706602,0.449999988079,355.1931271567056,-1.58143985271,4.89845132828,-2.58684492111,0
18.7,17.62256277195396,-0.6537035219885495,398.5961624362197,0.449999988079,355.30823906341544,0.474335193634,10.8134088516,-4.13893079758,0
18.8,17.528873261605863,-0.25276161804678454,398.6071695447594,0.449999988079,355.85847694583333,0.474335193634,10.8134088516,-4.13893079758,0
18.900000000000002,17.435183751257767,0.14818028589498056,398.61817665329914,0.449999988079,356.4087148282512,0.474335193634,10.8134088516,-4.13893079758,0
19.0,17.34149424090967,0.5491221898367311,398.6291837618389,0.449999988079,356.95895271066905,0.15183121069365446,12.391208938123341,-2.9237903380183785,0
19.1,17.278873571242567,0.46885208751508145,398.62338342744664,0.449999988079,278.2014718148155,0.0934450998902,12.6760654449,-2.71899199486,0
19.200000000000003,17.21875744841887,0.3497901286297447,398.61622819769246,0.449999988079,193.05077210647053,0.0934450998902,12.6760654449,-2.71899199486,0
19.3,17.158641325595173,0.23072816974441207,398.60907296793823,0.449999988079,107.90007239812863,0.0934450998902,12.6760654449,-2.71899199486,0
19.400000000000002,17.098525202771476,0.11166621085907524,398.60191773818406,0.449999988079,22.749372689783684,-1.15669855217341,14.791702612659217,-0.9584327847914205,0
19.5,17.06198044583434,-0.04789018246654968,398.5524035572949,0.45198326005776723,0.19832679594764116,-1.97558510303,16.173620224,0.131902366877,0
19.6,17.03402899633121,-0.2222094506372983,398.48744676304864,0.45468956463128635,0.46895670484097896,-1.97558510303,16.173620224,0.131902366877,0
19.700000000000003,17.00607754682808,-0.39652871880804696,398.4224899688024,0.45739586920480546,0.7395866137343168,-1.97558510303,16.173620224,0.131902366877,0
19.8,16.97909840428262,-0.5667866993483935,398.3564497439841,0.4601644578736248,1.041112421365126,-1.9919599282629017,19.35300123624825,1.5535819122769283,0
19.900000000000002,16.97690281643219,-0.6335247540806712,398.2627934863604,0.46452063292176365,2.130157222021857,-1.99299454689,19.5586910248,1.62271606922,0
20.0,16.97470722858176,-0.7002628088129466,398.16913722873676,0.46887680796990233,3.2192020226785494,-1.99299454689,19.5586910248,1.62271606922,0
20.1,16.97251164073133,-0.7670008635452242,398.0754809711131,0.4732329830180412,4.308246823335281,-1.99299454689,19.5586910248,1.62271606922,0
20.200000000000003,16.9703160528809,-0.8337389182775019,397.98182471348946,0.47758915806617996,5.397291623992012,-1.99299454689,19.5586910248,1.62271606922,0
20.3,16.97462548394801,-0.8606520263800822,397.883948010461,0.4832887889354144,6.438506604498583,-2.79242491722,22.0264320374,6.02743196487,0
20.400000000000002,16.986996473206077,-0.838210762300635,397.7808409819478,0.49065334152371615,7.420446910589724,-2.79242491722,22.0264320374,6.02743196487,0
20.5,16.999367462464146,-0.8157694982211885,397.6777339534346,0.49801789411201763,8.402387216680829,-2.79242491722,22.0264320374,6.02743196487,0
20.6,17.011738451722216,-0.7933282341417414,397.5746269249214,0.5053824467003194,9.38432752277197,-2.79242491722,22.0264320374,6.02743196487,0
20.700000000000003,17.022568489498973,-0.8121292926231289,397.4910058803878,0.5108249887596686,10.41249954169385,-1.16009604931,26.8695373535,10.778301239,0
20.8,17.030808287726888,-0.9002560218206185,397.44013951175657,0.5130367557130205,11.518384072941291,-1.16009604931,26.8695373535,10.778301239,0
20.900000000000002,17.039048085954807,-0.9883827510181111,397.3892731431253,0.5152485226663724,12.624268604188774,-1.16009604931,26.8695373535,10.778301239,0
21.0,17.047287884182722,-1.0765094802156006,397.3384067744941,0.5174602896197243,13.730153135436218,-1.16009604931,26.8695373535,10.778301239,0
21.1,17.05552768241064,-1.1646362094130933,397.28754040586284,0.5196720565730764,14.836037666683701,-0.38772326042658756,28.18164815354063,14.693764753091857,0
21.200000000000003,17.080537946624943,-0.8418268000477533,397.25030870858046,0.5226986863386822,16.079483194176042,-0.229086890817,28.444437027,15.4119663239,0
21.3,17.10846748032877,-0.4474848922757224,397.2154504265687,0.5258671609491419,17.346874247070712,-0.229086890817,28.444437027,15.4119663239,0
21.400000000000002,17.1363970140326,-0.05314298450367749,397.18059214455695,0.5290356355596015,18.614265299965428,-0.8740589987235938,30.157607244782564,17.61015987227219,0
21.5,17.181613345912034,-0.06665718251976717,397.1291889346375,0.5332634960326784,19.81587950724898,-1.30638873577,31.3161888123,19.0045604706,0
21.6,17.234392848960365,-0.2586130739610717,397.0705471302444,0.537954849891372,20.988715595111422,-1.30638873577,31.3161888123,19.0045604706,0
21.700000000000003,17.2871723520087,-0.4505689654023762,397.0119053258513,0.5426462037500657,22.16155168297386,-1.30638873577,31.3161888123,19.0045604706,0
21.8,17.33995185505703,-0.642524856843674,396.95326352145815,0.5473375576087592,23.334387770836262,-1.354334284620024,31.834786354196137,19.95168195939451,0
21.900000000000002,17.39798358855927,-0.6478281477784953,396.875594232435,0.5520176659608163,24.807062385621872,-1.62264382839,34.5527114868,24.8908290863,0
22.0,17.462907641420212,-0.40819372261088094,396.77295583708377,0.5566830172256183,26.67320467128261,-1.62264382839,34.5527114868,24.8908290863,0
22.1,17.534498417168052,-0.26358673618911743,396.67602067152677,0.5614522429692824,28.508284689574538,-1.88355720043,35.3079032898,28.2339763641,0
22.200000000000003,17.62248935364789,-0.3527475688026503,396.5931154704523,0.5664770002804332,30.266951425629838,-1.88355720043,35.3079032898,28.2339763641,0
22.3,17.710480290127723,-0.44190840141617993,396.5102102693778,0.5715017575915837,32.025618161685074,-1.88355720043,35.3079032898,28.2339763641,0
22.400000000000002,17.79847122660756,-0.5310692340297127,396.4273050683033,0.5765265149027345,33.78428489774037,-1.88355720043,35.3079032898,28.2339763641,0
22.5,17.890374481399846,-0.6629180147053679,396.354775930242,0.5815218121862176,35.53263902690652,-1.17666006088,36.4451446533,35.1506271362,0
22.6,17.991037751193918,-0.890348758696638,396.30547968388214,0.5864511459504494,37.2579023480553,-1.17666006088,36.4451446533,35.1506271362,0
22.700000000000003,18.09170102098799,-1.1177795026879078,396.2561834375222,0.5913804797146813,38.983165669204084,-1.17666006088,36.4451446533,35.1506271362,0
22.8,18.19236429078206,-1.3452102466791698,396.20688719116237,0.5963098134789131,40.7084289903528,-1.17666006088,36.4451446533,35.1506271362,0
22.900000000000002,18.299600189153313,-1.5101999040279732,396.14618473878744,0.6017413362293765,42.52239421440292,-2.94707417488,38.2857551575,42.687953949,0
23.0,18.42640991049153,-1.4892349221555885,396.05151367634403,0.608668418663006,44.60052092633191,-2.94707417488,38.2857551575,42.687953949,0
23.1,18.553219631829744,-1.468269940283203,395.95684261390056,0.6155955010966356,46.67864763826098,-2.94707417488,38.2857551575,42.687953949,0
23.200000000000003,18.680029353167964,-1.4473049584108173,395.86217155145715,0.6225225835302652,48.75677435019005,-2.94707417488,38.2857551575,42.687953949,0
23.3,18.80683907450618,-1.4263399765384326,395.7675004890137,0.6294496659638946,50.834901062119044,-1.5934763796244162,40.92107832615636,50.66998401704678,0
23.400000000000002,18.925832127176726,-1.1361128596390442,395.69873257163675,0.6318013857502786,52.981531459893,-1.41412043571,41.2807731628,51.483215332,0
23.5,19.044150582378112,-0.8226477672603846,395.63220015851977,0.6337582406404346,55.13407389194434,-1.41412043571,41.2807731628,51.483215332,0
23.6,19.1624690375795,-0.5091826748817139,395.5656677454028,0.6357150955305907,57.28661632399576,-1.41412043571,41.2807731628,51.483215332,0
23.700000000000003,19.280787492780888,-0.19571758250304305,395.49913533228573,0.6376719504207469,59.43915875604718,-1.41412043571,41.2807731628,51.483215332,0
23.8,19.399105947982275,0.11774750987561644,395.43260291916874,0.6396288053109028,61.59170118809852,-0.6577110712214188,40.416445034782114,56.20471925112475,0
23.900000000000002,19.488110575038547,-0.015273521965599057,395.41416573042505,0.6380608487631033,63.93913878125342,0.375362217426,39.2277755737,62.4530220032,0
24.0,19.570253315907774,-0.2528096295356226,395.40698684456004,0.6356677916928376,66.33219813377981,0.375362217426,39.2277755737,62.4530220032,0
24.1,19.652396056777008,-0.49034573710565443,395.399807958695,0.6332747346225718,68.7252574863063,0.375362217426,39.2277755737,62.4530220032,0
24.200000000000003,19.73453879764624,-0.7278818446756864,395.39262907283,0.630881677552306,71.11831683883278,0.375362217426,39.2277755737,62.4530220032,0
24.3,19.771158658574716,-0.5443457650214449,395.4361812844582,0.6263529018812417,73.45883873154919,1.34750461578,37.286567688,72.8701858521,0
24.400000000000002,19.78122208906511,-0.11517113473101659,395.50932821556324,0.6205782238742258,75.76871213720483,1.34750461578,37.286567688,72.8701858521,0
24.5,19.791285519555505,0.31400349555939655,395.58247514666834,0.6148035458672101,78.07858554286038,1.34750461578,37.286567688,72.8701858521,0
24.6,19.8013489500459,0.7431781258498248,395.6556220777734,0.6090288678601942,80.38845894851602,1.34750461578,37.286567688,72.8701858521,0
24.700000000000003,19.811412380536293,1.1723527561402531,395.7287690088785,0.6032541898531782,82.69833235417167,2.41334052994591,36.17329809237931,75.94426204664771,0
24.8,19.770228324936145,1.411115518997468,395.86187207194115,0.5948954154230388,84.63807571007443,5.31128787994,33.1565246582,84.1206817627,0
24.900000000000002,19.66288000284189,1.4040425833341497,396.0723829025925,0.5832003828185186,86.09995400141486,5.31128787994,33.1565246582,84.1206817627,0
25.0,19.55553168074764,1.3969696476708315,396.28289373324384,0.5715053502139988,87.56183229275521,5.31128787994,33.1565246582,84.1206817627,0
25.1,19.447534187542047,1.3971159693595607,396.4939700507449,0.559753193637643,89.01851065294265,6.23578809737816,28.31456137028495,88.03818097089614,0
25.200000000000003,19.300161159552452,1.8351470243862247,396.73934602627776,0.5445361771796319,90.15978670022407,6.78530216217,25.4212493896,90.2577667236,0
25.3,19.15278813156286,2.273178079412873,396.98472200181055,0.5293191607216213,91.30106274750545,6.78530216217,25.4212493896,90.2577667236,0
25.400000000000002,19.005415103573267,2.711209134439536,397.23009797734335,0.5141021442636102,92.44233879478688,6.78530216217,25.4212493896,90.2577667236,0
25.5,18.85804207558368,3.149240189466185,397.47547395287614,0.49888512780559974,93.58361484206826,6.78530216217,25.4212493896,90.2577667236,0
25.6,18.710669047594084,3.5872712444928485,397.72084992840894,0.48366811134758864,94.72489088934968,6.180983414303245,16.434078154205615,93.67192872491779,0
25.700000000000003,18.550536321660186,3.713345661336661,397.96854335422296,0.47165734798562214,95.33370577076165,5.85711336136,11.7501773834,95.4127044678,0
25.8,18.386350902180546,3.740337430641709,398.21697284101884,0.46066494424980775,95.77340207744722,5.85711336136,11.7501773834,95.4127044678,0
25.900000000000002,18.222165482700902,3.7673291999467584,398.46540232781473,0.449672540513993,96.21309838413279,5.85711336136,11.7501773834,95.4127044678,0
26.0,18.057980063221265,3.7943209692518067,398.7138318146106,0.4386801367781787,96.65279469081834,5.85711336136,11.7501773834,95.4127044678,0
26.1,17.896574482940412,3.7318873749875925,398.9542860577178,0.42812889741638677,97.0,5.32664346695,1.81794667244,97.3202896118,0
26.200000000000003,17.74560424182271,3.3337566659265487,399.16480174436583,0.4192337609945163,97.0,5.32664346695,1.81794667244,97.3202896118,0
26.3,17.594634000705017,2.9356259568655187,399.3753174310139,0.41033862457264614,97.0,5.32664346695,1.81794667244,97.3202896118,0
26.400000000000002,17.443663759587317,2.5374952478044746,399.585833117662,0.4014434881507757,97.0,4.553875932033444,-0.7946845733330481,97.21548882741111,0
26.5,17.31740642452559,2.400396039779347,399.7496701727715,0.3958169044556938,96.79084503697541,4.00782203674,-2.65765595436,97.1468887329,0
26.6,17.19593630028548,2.3138620232259948,399.9044649707895,0.3908234818687912,96.5411740415538,4.00782203674,-2.65765595436,97.1468887329,0
26.700000000000003,17.074466176045373,2.227328006672642,400.0592597688074,0.38583005928188857,96.29150304613219,4.00782203674,-2.65765595436,97.1468887329,0
26.8,16.95299605180527,2.1407939901192923,400.2140545668253,0.38083663669498613,96.0418320507106,3.127249009632173,-5.194551881119773,96.67071371635612,0
26.900000000000002,16.856185329040155,2.229362376119439,400.315352954716,0.37556685049346256,95.55668510337901,2.63506388664,-6.59433794022,96.4278030396,0
27.0,16.764337840352418,2.3531738807437157,400.40588404129846,0.3702414401799256,95.02414356416708,2.63506388664,-6.59433794022,96.4278030396,0
27.1,16.672490351664678,2.476985385367996,400.49641512788094,0.3649160298663885,94.49160202495511,2.63506388664,-6.59433794022,96.4278030396,0
27.200000000000003,16.584039324249737,2.5469644082285026,400.57901169312584,0.36016250057559873,93.9837513574438,0.5881526047222883,-7.969982864533833,95.14549312832767,0
27.3,16.536373031820062,1.9705225459410847,400.5663304606874,0.36227612332409054,93.77238888101822,-0.348026752472,-8.59619426727,94.5804977417,0
27.400000000000002,16.488706739390388,1.3940806836536463,400.55364922824907,0.36438974607258245,93.56102640459264,-0.348026752472,-8.59619426727,94.5804977417,0
27.5,16.441040446960713,0.8176388213662285,400.5409679958107,0.36650336882107426,93.34966392816706,-0.348026752472,-8.59619426727,94.5804977417,0
27.6,16.39337415453104,0.24119695907879013,400.5282867633723,0.3686169915695662,93.13830145174148,-0.348026752472,-8.59619426727,94.5804977417,0
27.700000000000003,16.362983504464857,-0.29200537136661475,400.4811393215793,0.37114265399775825,92.77146993612207,-4.0329914093,-8.07499408722,93.050491333,0
27.8,16.365294919952337,-0.7433570837535913,400.3687487927862,0.3744482902372131,92.11034205777956,-4.0329914093,-8.07499408722,93.050491333,0
27.900000000000002,16.367606335439817,-1.194708796140584,400.2563582639931,0.37775392647666806,91.44921417943702,-4.0329914093,-8.07499408722,93.050491333,0
28.0,16.378712895577515,-1.510127724696924,400.1308231686122,0.38237918377687324,90.76208115496598,-5.41151380539,-7.54620981216,91.0674133301,0
28.1,16.408463383443728,-1.5373966456678445,399.97742425072096,0.3898017708157152,90.01982248057419,-5.41151380539,-7.54620981216,91.0674133301,0
28.200000000000003,16.438213871309944,-1.5646655666387648,399.82402533282965,0.39722435785455723,89.27756380618241,-5.41151380539,-7.54620981216,91.0674133301,0
28.3,16.467964359176158,-1.5919344876096844,399.6706264149384,0.4046469448933989,88.53530513179065,-5.41151380539,-7.54620981216,91.0674133301,0
28.400000000000002,16.50618884630683,-1.6417353176222282,399.50781165794723,0.4114103873868717,87.85896097937321,-6.40252780914,-6.48004627228,88.6074676514,0
28.5,16.566332143021718,-1.7498170854115491,399.32064193255604,0.4164688894705636,87.35311104236722,-6.40252780914,-6.48004627228,88.6074676514,0
28.6,16.62647543973661,-1.857898853200874,399.13347220716486,0.42152739155425567,86.84726110536121,-6.40252780914,-6.48004627228,88.6074676514,0
28.700000000000003,16.6866187364515,-1.9659806209901989,398.9463024817737,0.42658589363794774,86.34141116835521,-6.40252780914,-6.48004627228,88.6074676514,0
28.8,16.747898945761946,-2.0565665720668664,398.76490468954455,0.4324659858551185,85.91780071319543,-6.35031843185,-5.40019369125,86.6734619141,0
28.900000000000002,16.81153963648898,-2.1108273470661056,398.59549070417967,0.44005188047935934,85.66493756910117,-6.35031843185,-5.40019369125,86.6734619141,0
29.0,16.87518032721601,-2.1650881220653435,398.4260767188148,0.4476377751036,85.4120744250069,-6.35031843185,-5.40019369125,86.6734619141,0
29.1,16.938821017943045,-2.2193488970645827,398.2566627334499,0.45522366972784084,85.15921128091264,-6.215339743033987,-5.11013127068033,86.62673104934005,0
29.200000000000003,16.994003112002133,-2.2582178222453533,398.10222257660297,0.46101641578831504,84.89835915873363,-3.89136624336,-0.0851272642612,85.8857116699,0
29.3,17.034805310515353,-2.2709200910248417,397.9732384260492,0.46376074967624853,84.6239255082129,-3.89136624336,-0.0851272642612,85.8857116699,0
29.400000000000002,17.075607509028575,-2.2836223598043306,397.84425427549536,0.46650508356418213,84.34949185769217,-3.89136624336,-0.0851272642612,85.8857116699,0
29.5,17.1164097075418,-2.296324628583819,397.7152701249416,0.4692494174521156,84.07505820717145,-3.7003361903832004,0.35095741640549777,85.70985899151373,0
29.6,17.168866751153914,-2.313964589744049,397.61884529088405,0.47226480676791505,83.54703797602711,-2.50029587746,3.13169050217,84.7306289673,0
29.700000000000003,17.225711455369005,-2.3334634274611745,397.53467795394795,0.47538223941521973,82.9235508519465,-2.50029587746,3.13169050217,84.7306289673,0
29.8,17.282556159584093,-2.352962265178299,397.45051061701184,0.47849967206252425,82.30006372786593,-2.50029587746,3.13169050217,84.7306289673,0
29.900000000000002,17.325077279787664,-2.097347188780428,397.4179884758903,0.4790017209272601,82.09982692957894,-1.3291593906587351,0.6257706522381161,83.16574148432963,0
30.0,17.35430935515032,-1.5864886524989932,397.43338139027765,0.47707728544737926,82.2922706611006,-0.999349296093,-0.0663349032402,82.738861084,0
30.1,17.38354143051298,-1.0756301162175401,397.44877430466494,0.4751528499674984,82.48471439262228,-0.999349296093,-0.0663349032402,82.738861084,0
30.200000000000003,17.41277350587564,-0.5647715799360873,397.46416721905223,0.4732284144876175,82.67715812414396,-0.999349296093,-0.0663349032402,82.738861084,0
30.3,17.4420055812383,-0.05391304365465244,397.4795601334395,0.47130397900773663,82.86960185566562,-0.999349296093,-0.0663349032402,82.738861084,0
30.400000000000002,17.47282702512791,0.20402787743730338,397.47973437954926,0.469999998808,83.0,-2.41069102287,0.0988489538431,83.0121688843,0
30.5,17.50698876630494,-0.06957565427168072,397.44792430263783,0.469999998808,83.0,-2.41069102287,0.0988489538431,83.0121688843,0
30.6,17.541150507481966,-0.3431791859806746,397.41611422572646,0.469999998808,83.0,-2.41069102287,0.0988489538431,83.0121688843,0
30.700000000000003,17.575312248658996,-0.6167827176896683,397.38430414881503,0.469999998808,83.0,-2.7991537578984707,2.713782912037024,83.14262783177185,0
30.8,17.61145415177728,-0.6229104823684573,397.3012716309681,0.4738406130056552,82.80796939313205,-3.30163621902,6.09056138992,83.300994873,0
30.900000000000002,17.647905505697015,-0.5872383372770843,397.2102343004494,0.4782814211151048,82.5859291067731,-3.30163621902,6.09056138992,83.300994873,0
31.0,17.68435685961675,-0.5515661921857126,397.11919696993067,0.4827222292245542,82.36388882041413,-3.30163621902,6.09056138992,83.300994873,0
31.1,17.720808213536483,-0.5158940470943396,397.02815963941197,0.48716303733400373,82.14184853405517,-3.2970774553461064,6.129778197612154,83.29476451708159,0
31.200000000000003,17.759701497657325,-0.5621924214476038,396.9232234808052,0.4926986213797833,82.17990762775746,-2.31538081169,11.1080675125,82.7939376831,0
31.3,17.80291423121456,-0.753485732124402,396.79370214563426,0.5001707183115633,82.67804789826924,-2.31538081169,11.1080675125,82.7939376831,0
31.400000000000002,17.8461269647718,-0.944779042801207,396.6641808104633,0.5076428152433438,83.17618816878104,-2.31538081169,11.1080675125,82.7939376831,0
31.5,17.889339698329035,-1.136072353478005,396.53465947529236,0.5151149121751238,83.67432843929281,-2.31538081169,11.1080675125,82.7939376831,0
31.6,17.932465534067006,-1.2544296210788348,396.4110787180515,0.5214408889630161,84.14409094102115,-1.15412890911,12.2791938782,84.0832595825,0
31.700000000000003,17.975427281209107,-1.2350622254217916,396.2987155160888,0.5256026544198164,84.56026788360911,-1.15412890911,12.2791938782,84.0832595825,0
31.8,18.01838902835121,-1.2156948297647494,396.18635231412605,0.5297644198766165,84.97644482619708,0.19337992398524184,13.896755731136441,85.75475866976561,0
31.900000000000002,18.0351880020489,-1.1446628879270457,396.1385619249511,0.52999997139,85.69054061481235,0.244765490294,13.957857132,85.802947998,0
32.0,18.050417351429644,-1.0705313539080443,396.09464555384915,0.52999997139,86.42250991619551,0.244765490294,13.957857132,85.802947998,0
32.1,18.065646700810387,-0.99639981988904,396.0507291827472,0.52999997139,87.1544792175787,0.244765490294,13.957857132,85.802947998,0
32.2,18.08087605019113,-0.9222682858700358,396.00681281164526,0.52999997139,87.88644851896188,1.7433700108648738,13.109240413511026,87.75979201666819,0
32.300000000000004,18.04452361028955,-0.7702291912819794,396.04800553274777,0.5281534591266478,88.36930280487454,2.45479249954,12.7097854614,88.6070632935,0
32.4,17.998699922349974,-0.6038850126623231,396.10482565518265,0.5259678974449886,88.80641555808079,2.45479249954,12.7097854614,88.6070632935,0
32.5,17.952876234410397,-0.4375408340426549,396.16164577761754,0.5237823357633293,89.24352831128706,2.45479249954,12.7097854614,88.6070632935,0
32.6,17.907052546470823,-0.2711966554229869,396.2184659000524,0.5215967740816702,89.68064106449334,2.45479249954,12.7097854614,88.6070632935,0
32.7,17.859218905857343,-0.0952796761373325,396.2841073878348,0.5186595890774937,90.06701965638861,4.0638961792,10.2424163818,90.9716339111,0
32.800000000000004,17.805934092968542,0.10659959881082798,396.37367321116847,0.5136839340782863,90.31580264360088,4.0638961792,10.2424163818,90.9716339111,0
32.9,17.752649280079748,0.30847887375897415,396.46323903450207,0.5087082790790792,90.56458563081313,4.0638961792,10.2424163818,90.9716339111,0
33.0,17.69936446719095,0.5103581487071347,396.5528048578357,0.5037326240798718,90.8133686180254,4.0638961792,10.2424163818,90.9716339111,0
33.1,17.6481826415738,0.7013791064761712,396.6395403110652,0.49915025035630256,91.0,3.68341302872,7.7223200798,91.8138504028,0
33.2,17.603315752140247,0.8597942653553869,396.7177766131945,0.4957488377309448,91.0,3.68341302872,7.7223200798,91.8138504028,0
33.300000000000004,17.55844886270669,1.0182094242346027,396.7960129153237,0.4923474251055871,91.0,3.68341302872,7.7223200798,91.8138504028,0
33.4,17.516604062475604,1.1564177331533487,396.87157780724874,0.4894007699594441,91.11984767262788,2.97933578491,2.64367771149,91.8812637329,0
33.5,17.48148992548305,1.249622240700369,396.94119305267037,0.48746693053207585,91.50661477427934,2.97933578491,2.64367771149,91.8812637329,0
33.6,17.446375788490492,1.342826748247389,397.010808298092,0.48553309110470755,91.89338187593079,2.97933578491,2.64367771149,91.8812637329,0
33.7,17.411261651497934,1.4360312557944093,397.08042354351363,0.48359925167733925,92.28014897758224,2.97933578491,2.64367771149,91.8812637329,0
33.800000000000004,17.37614751450538,1.5292357633414293,397.15003878893526,0.48166541224997095,92.66691607923369,2.97933578491,2.64367771149,91.8812637329,0
33.9,17.343090618424647,1.5761886276549764,397.21774798771673,0.47966276514730866,92.93255511093953,1.75917172432,1.57664394379,93.1758346558,0
34.0,17.32279812746246,1.3361674636772576,397.27363088489705,0.4772331923318267,92.446640084426,1.75917172432,1.57664394379,93.1758346558,0
34.1,17.30250563650027,1.0961462996995386,397.32951378207736,0.47480361951634475,91.96072505791244,1.75917172432,1.57664394379,93.1758346558,0
34.2,17.282213145538087,0.8561251357218199,397.3853966792576,0.4723740467008628,91.4748100313989,1.75917172432,1.57664394379,93.1758346558,0
34.300000000000004,17.261994141875558,0.6198202136059354,397.44026614384063,0.469999998808,90.99120954768779,1.378970402021062,1.6574138459251313,91.6405202535247,0
34.4,17.2449171933601,0.5424085550067077,397.4518048407485,0.469999998808,90.60657066903383,1.26636350155,1.67417883873,91.2195587158,0
34.5,17.22784024484464,0.46499689640747466,397.4633435376563,0.469999998808,90.22193179037986,1.26636350155,1.67417883873,91.2195587158,0
34.6,17.21076329632918,0.3875852378082415,397.47488223456423,0.469999998808,89.83729291172588,1.26636350155,1.67417883873,91.2195587158,0
34.7,17.19368634781372,0.31017357920900834,397.4864209314721,0.469999998808,89.45265403307191,1.26636350155,1.67417883873,91.2195587158,0
34.800000000000004,17.17660939929826,0.23276192060977524,397.49795962837993,0.469999998808,89.06801515441792,1.2597140826883826,0.9782167399906188,90.00951759854158,0
34.9,17.164099735934347,0.04486843370252033,397.50798727746627,0.469999998808,88.73374658127643,1.25416588783,0.385179877281,89.0976791382,0
35.0,17.152571188579987,-0.16675807773055512,397.5176903325849,0.469999998808,88.41029824630807,1.25416588783,0.385179877281,89.0976791382,0
35.1,17.141042641225628,-0.3783845891636305,397.5273933877035,0.469999998808,88.08684991133973,0.9727866083086507,0.27057356274994493,88.90846829337754,0
35.2,17.14718140724645,-0.22029055142481763,397.5113917476894,0.47232537874434716,88.0,0.143947735429,-0.0724560320377,88.4259109497,0
35.300000000000004,17.15980544301976,0.07351950852407868,397.4859544975006,0.47550435287716253,88.0,0.143947735429,-0.0724560320377,88.4259109497,0
35.4,17.172429478793067,0.3673295684729541,397.46051724731177,0.47868332700997773,88.0,-0.058225927398808636,0.7447994844096661,88.50007134908486,0
35.5,17.18557450126351,0.41384472576957904,397.4469535143969,0.479999989271,87.69717021451774,-0.32637450099,1.8340473175,88.5944824219,0
35.6,17.199087863501852,0.2855213554290911,397.44178440771896,0.479999989271,87.18023850760272,-0.32637450099,1.8340473175,88.5944824219,0
35.7,17.21260122574019,0.15719798508860316,397.436615301041,0.479999989271,86.6633068006877,-0.32637450099,1.8340473175,88.5944824219,0
35.800000000000004,17.22611458797853,0.0288746147481152,397.43144619436305,0.479999989271,86.14637509377269,-0.32637450099,1.8340473175,88.5944824219,0
35.9,17.23962795021687,-0.09944875559236355,397.4262770876851,0.479999989271,85.62944338685772,-0.32637450099,1.8340473175,88.5944824219,0
36.0,17.25314131245521,-0.22777212593285157,397.42110798100714,0.479999989271,85.11251167994268,-0.019038623083794837,2.10012531694926,87.64781971634018,0
36.1,17.27091339444549,-0.11787602787969773,397.43989716007286,0.478008687711982,84.8008696541876,0.590934216976,2.62780332565,85.8873443604,0
36.2,17.289870273631113,0.05829392111174625,397.4653516543994,0.4754633960715259,84.54634024739728,0.590934216976,2.62780332565,85.8873443604,0
36.300000000000004,17.308827152816736,0.23446387010319025,397.49080614872594,0.4729181044310698,84.29181084060698,0.590934216976,2.62780332565,85.8873443604,0
36.4,17.327784032002356,0.4106338190946217,397.5162606430524,0.4703728127906138,84.03728143381669,-0.13293167447881582,3.512298569796254,85.59261721407702,0
36.5,17.367656612504035,0.0681860798250159,397.4597079913383,0.47388912975431324,84.58336932899851,-2.07883262634,5.8089966774,84.8336105347,0
36.6,17.41111848925401,-0.3632604692213651,397.3890822785698,0.4784456656756641,85.26684935054828,-2.07883262634,5.8089966774,84.8336105347,0
36.7,17.454580366003984,-0.7947070182677461,397.3184565658012,0.4830022015970149,85.95032937209805,-2.07883262634,5.8089966774,84.8336105347,0
36.800000000000004,17.49804224275396,-1.2261535673141273,397.24783085303267,0.48755873751836576,86.63380939364781,-2.07883262634,5.8089966774,84.8336105347,0
36.9,17.545025749234348,-1.3193364682892084,397.1932869784321,0.490000009537,87.13920963607124,-1.89538025856,8.20251750946,87.4788894653,0
37.0,17.596073645084697,-1.0221219451428092,397.1573035025967,0.490000009537,87.4390841370932,-1.89538025856,8.20251750946,87.4788894653,0
37.1,17.647121540935046,-0.7249074219964098,397.1213200267612,0.490000009537,87.73895863811516,-1.89538025856,8.20251750946,87.4788894653,0
37.2,17.69477061998556,-0.4834850282666916,397.09125295901384,0.490000009537,88.04188907201333,-1.05290305614,9.27205848694,88.5704727173,0
37.300000000000004,17.719572414836545,-0.6171045129171904,397.10095674829984,0.490000009537,88.36536188022272,-1.05290305614,9.27205848694,88.5704727173,0
37.4,17.744374209687525,-0.7507239975676796,397.1106605375858,0.490000009537,88.6888346884321,-1.05290305614,9.27205848694,88.5704727173,0
37.5,17.768896931985605,-0.8672929030396627,397.1196417613132,0.490000009537,89.0,-0.975863039494,5.51772499084,89.2910690308,0
37.6,17.786363979161084,-0.552779116633124,397.11035466096865,0.490000009537,89.0,-0.975863039494,5.51772499084,89.2910690308,0
37.7,17.803831026336564,-0.23826533022658514,397.1010675606241,0.490000009537,89.0,-0.975863039494,5.51772499084,89.2910690308,0
37.800000000000004,17.821298073512047,0.07624845617995368,397.09178046027955,0.490000009537,89.0,-1.20313747987345,5.360714513359899,89.69593508233191,0
37.9,17.841249015148588,0.07971097593582258,397.0570776484483,0.4921946760411408,89.0,-1.35227835178,5.25625753403,89.9328918457,0
38.0,17.861790598448966,0.00920906582115602,397.01633127141923,0.4949112091124321,89.0,-1.35227835178,5.25625753403,89.9328918457,0
38.1,17.88233218174934,-0.061292844293510534,396.9755848943902,0.4976277421837234,89.0,-1.35227835178,5.25625753403,89.9328918457,0
38.2,17.902515166161326,-0.1248881178428481,396.9389582011035,0.5,89.0,-0.431357979774,7.14167451859,89.6578063965,0
38.300000000000004,17.92022719454757,-0.14089262691628857,396.93071853771846,0.5,89.0,-0.431357979774,7.14167451859,89.6578063965,0
38.400000000000006,17.937939222933817,-0.15689713598972904,396.9224788743334,0.5,89.0,-0.431357979774,7.14167451859,89.6578063965,0
38.5,17.955651251320063,-0.17290164506316835,396.9142392109483,0.5,89.0,-0.431357979774,7.14167451859,89.6578063965,0
38.6,17.966665930320275,-0.11186604992979532,396.92038826517205,0.49884610935299956,89.0,0.858347177505,7.74537658691,89.146522522,0
38.7,17.970596158664325,0.03066250388619382,396.94175769301364,0.49647163413140105,89.0,0.858347177505,7.74537658691,89.146522522,0
38.800000000000004,17.974526387008375,0.17319105770218293,396.96312712085523,0.49409715890980255,89.0,0.858347177505,7.74537658691,89.146522522,0
38.900000000000006,17.978456615352425,0.31571961151817207,396.9844965486968,0.49172268368820404,89.0,0.858347177505,7.74537658691,89.146522522,0
39.0,17.980956910531862,0.42337122716031905,397.00326822973267,0.490000009537,89.05447271167642,0.401910543442,5.59163618088,89.3826675415,0
39.1,17.979677971505478,0.4388450256828155,397.0151742097491,0.490000009537,89.25291378519397,0.401910543442,5.59163618088,89.3826675415,0
39.2,17.97839903247909,0.454318824205312,397.0270801897655,0.490000009537,89.45135485871153,0.401910543442,5.59163618088,89.3826675415,0
39.300000000000004,17.977120093452704,0.4697926227278085,397.0389861697819,0.490000009537,89.64979593222908,0.401910543442,5.59163618088,89.3826675415,0
39.400000000000006,17.975841154426316,0.48526642125030495,397.0508921497983,0.490000009537,89.84823700574663,0.401910543442,5.59163618088,89.3826675415,0
39.5,17.972224040212964,0.4691223547114307,397.0548918040767,0.4905673381825211,90.0,-0.186727240682,4.94989442825,90.0129852295,0
39.6,17.96100488938935,0.35018010218772655,397.0331858662132,0.4929792048923168,90.0,-0.186727240682,4.94989442825,90.0129852295,0
39.7,17.94978573856574,0.2312378496640224,397.0114799283497,0.49539107160211254,90.0,-0.186727240682,4.94989442825,90.0129852295,0
39.800000000000004,17.938566587742127,0.11229559714031823,396.9897739904861,0.49780293831190825,90.0,-0.186727240682,4.94989442825,90.0129852295,0
39.900000000000006,17.92623160649166,-0.010829418677996928,396.9712959374895,0.4997842053413694,90.0,0.624349176884,4.08143091202,90.6149368286,0
40.0,17.902483725012832,-0.17673643704003336,396.9858332307747,0.49736122682264533,90.0,0.624349176884,4.08143091202,90.6149368286,0
40.1,17.878735843534006,-0.34264345540208163,397.0003705240599,0.4949382483039211,90.0,0.624349176884,4.08143091202,90.6149368286,0
40.2,17.85498796205518,-0.5085504737641298,397.0149078173451,0.49251526978519683,90.0,0.624349176884,4.08143091202,90.6149368286,0
40.300000000000004,17.831240080576354,-0.674457492126178,397.0294451106303,0.4900922912664726,90.0,0.259255290031,4.49303865433,90.5660171509,0
40.400000000000006,17.8108922203346,-0.3963530118749072,397.04199690813863,0.490000009537,89.75997881845618,0.259255290031,4.49303865433,90.5660171509,0
