t_sec,airspeed,climb,altitude,throttle,heading,pitch,roll,yaw,is_boundary
0.0,20.7822761536,6.04833459854,404.299987793,0.389999985695,269.0,1.8607070446,0.44890448451,-92.4642028809,0
0.1,20.69187421809663,5.383422726325139,404.44137249265884,0.35717839569674265,268.74752622152266,1.8607070446,0.44890448451,-92.4642028809,0
0.2,20.601472282593257,4.718510854110279,404.5827571923176,0.32435680569848535,268.4950524430453,1.8607070446,0.44890448451,-92.4642028809,0
0.30000000000000004,20.511070347089884,4.0535989818954175,404.72414189197644,0.291535215700228,268.24257866456804,0.8819280589598216,17.48932270653583,-91.23757176246316,0
0.4,20.41826513466085,3.412740730085867,404.86421648850484,0.2585575656517942,268.0192323319624,0.556716442108,22.3982887268,-90.8470077515,0
0.5,20.266543601251705,3.3615568538751117,404.97217391379695,0.22175410430788525,268.509945179131,0.556716442108,22.3982887268,-90.8470077515,0
0.6000000000000001,20.11482206784256,3.3103729776643562,405.08013133908906,0.18495064296397623,269.00065802629956,0.556716442108,22.3982887268,-90.8470077515,0
0.7000000000000001,19.963100534433416,3.259189101453601,405.1880887643811,0.14814718162006724,269.4913708734681,0.029576293040187718,8.615176651491646,-91.66429459851427,0
0.8,19.81137900102427,3.2080052252428457,405.29604618967323,0.11134372027615827,269.98208372063664,-0.0245710723102,6.85272741318,-91.7406692505,0
0.9,19.68033311401299,2.554115092435076,405.1713030535439,0.09570180578144387,269.7957400919762,-0.0245710723102,6.85272741318,-91.7406692505,0
1.0,19.550070715466102,1.8773858478347378,405.0377419002157,0.08086179259255181,269.58373990446626,-0.0245710723102,6.85272741318,-91.7406692505,0
1.1,19.419808316919216,1.2006566032343988,404.9041807468875,0.06602177940365973,269.37173971695637,-2.168446902057882,-2.952371669163785,-90.98216393356996,0
1.2000000000000002,19.28954591837233,0.5239273586340598,404.77061959355933,0.05118176621476766,269.1597395294464,-5.64402294159,-21.9371337891,-89.4540481567,0
1.3,19.168362452944738,-0.10494697717304385,404.5960844808547,0.0399999991059,268.6610152412032,-5.64402294159,-21.9371337891,-89.4540481567,0
1.4000000000000001,19.074929585349057,-0.5875483632013105,404.2963086759567,0.0399999991059,267.28589225020283,-5.64402294159,-21.9371337891,-89.4540481567,0
1.5,18.98149671775338,-1.070149749229576,403.9965328710587,0.0399999991059,265.91076925920254,-5.64402294159,-21.9371337891,-89.4540481567,0
1.6,18.888063850157703,-1.5527511352578427,403.6967570661607,0.0399999991059,264.53564626820224,-11.1689529419,-32.6312522888,-90.8088302612,0
1.7000000000000002,18.819226264691785,-2.215770900690851,403.2884226557256,0.0399999991059,263.1589448118579,-11.1689529419,-32.6312522888,-90.8088302612,0
1.8,18.766082230613776,-2.9939105128316115,402.810820080542,0.0399999991059,261.7812361815824,-11.1689529419,-32.6312522888,-90.8088302612,0
1.9000000000000001,18.712938196535767,-3.772050124972374,402.33321750535845,0.0399999991059,260.403527551307,-11.1689529419,-32.6312522888,-90.8088302612,0
2.0,18.659794162457757,-4.550189737113135,401.85561493017485,0.0399999991059,259.0258189210315,-15.1898031235,-33.7463302612,-95.62084198,0
2.1,18.620114504299394,-5.261573623484251,401.34656975740353,0.045171778803522494,257.59775045064856,-15.1898031235,-33.7463302612,-95.62084198,0
2.2,18.619685813746557,-5.778353107445246,400.7458640140483,0.06542018430138871,256.02287439969325,-15.1898031235,-33.7463302612,-95.62084198,0
2.3000000000000003,18.619257123193716,-6.29513259140624,400.1451582706932,0.08566858979925494,254.44799834873797,-15.1898031235,-33.7463302612,-95.62084198,0
2.4000000000000004,18.61882843264088,-6.8119120753672355,399.54445252733797,0.10591699529712117,252.87312229778266,-17.890806728307947,-34.039516291383535,-101.05512851497998,0
2.5,18.61839974208804,-7.328691559328228,398.9437467839828,0.1261654007949873,251.2982462468274,-18.0164871216,-34.0546913147,-101.225639343,0
2.6,18.658114251242914,-7.281623723596462,398.34344357514914,0.14824528874446433,249.7836471474988,-18.0164871216,-34.0546913147,-101.225639343,0
2.7,18.70720701446154,-7.10282988057715,397.74323440642786,0.1707530476127911,248.2831299492309,-18.0164871216,-34.0546913147,-101.225639343,0
2.8000000000000003,18.773136630049844,-7.015747893617457,397.1339640623942,0.1950712934379035,246.8309568126532,-18.0164871216,-34.0546913147,-101.225639343,0
2.9000000000000004,18.938445899329942,-7.469995859223747,396.47121005972826,0.2300759527819069,245.66413488088148,-20.3560848236,-29.7602443695,-108.886489868,0
3.0,19.10375516861004,-7.924243824830035,395.80845605706236,0.26508061212591016,244.49731294910976,-20.3560848236,-29.7602443695,-108.886489868,0
3.1,19.269064437890137,-8.378491790436325,395.1457020543964,0.30008527146991354,243.33049101733803,-20.5677280426,-25.7453727722,-112.363830566,0
3.2,19.434373707170238,-8.832739756042615,394.48294805173043,0.3350899308139169,242.1636690855663,-20.5677280426,-25.7453727722,-112.363830566,0
3.3000000000000003,19.59108920947502,-8.746029781432606,393.8952995660264,0.3618645396607687,240.90677296770073,-20.5677280426,-25.7453727722,-112.363830566,0
3.4000000000000004,19.746402598445083,-8.571059985061684,393.3199048972044,0.3872963772199461,239.63518082447186,-20.5677280426,-25.7453727722,-112.363830566,0
3.5,19.90171598741515,-8.396090188690764,392.74451022838247,0.41272821477912336,238.363588681243,-20.310317389186856,-25.297538748751442,-112.96284941890657,0
3.6,20.043511786568093,-8.315643452762187,392.2738554755032,0.43145947332834755,237.5088793114263,-17.6182460785,-16.8632049561,-117.654937744,0
3.7,20.179894784051264,-8.273046258528217,391.8451413643785,0.4475076422333265,236.82110086661552,-17.6182460785,-16.8632049561,-117.654937744,0
3.8000000000000003,20.316277781534435,-8.230449064294246,391.4164272532538,0.46355581113830546,236.13332242180473,-17.6182460785,-16.8632049561,-117.654937744,0
3.9000000000000004,20.452660779017606,-8.187851870060276,390.98771314212917,0.4796039800432844,235.44554397699395,-14.756402090318318,-12.906420231230376,-120.9464894988611,0
4.0,20.547099249875718,-7.963590449159919,390.6401115674705,0.4925881588509431,234.6549130957097,-14.291431427,-12.195646286,-121.447975159,0
4.1000000000000005,20.56438878576151,-7.405192426000012,390.441700991132,0.49993671385273497,233.67510482772698,-14.291431427,-12.195646286,-121.447975159,0
4.2,20.5816783216473,-6.84679440284011,390.2432904147935,0.5072852688545268,232.69529655974424,-14.291431427,-12.195646286,-121.447975159,0
4.3,20.598967857533093,-6.288396379680208,390.044879838455,0.5146338238563186,231.71548829176152,-9.376448928696988,-6.061391025069478,-124.11651914352733,0
4.4,20.58498617803638,-5.601253797800604,389.9111721340903,0.519999980927,231.0,-8.11086082458,-4.45132446289,-124.764877319,0
4.5,20.48635638077272,-4.565612302941206,389.9526087680478,0.519999980927,231.0,-8.11086082458,-4.45132446289,-124.764877319,0
4.6000000000000005,20.387726583509053,-3.529970808081798,389.9940454020053,0.519999980927,231.0,-8.11086082458,-4.45132446289,-124.764877319,0
4.7,20.28909678624539,-2.4943293132223996,390.03548203596284,0.519999980927,231.0,-1.97597181797,2.47460007668,-128.597717285,0
4.800000000000001,20.190466988981726,-1.4586878183629919,390.0769186699204,0.519999980927,231.0,-1.97597181797,2.47460007668,-128.597717285,0
4.9,20.052922888104824,-0.6989486211990062,390.2404953563494,0.5168528131277025,231.62943416008792,-1.97597181797,2.47460007668,-128.597717285,0
5.0,19.912267262109992,0.038729872067873705,390.4138381648951,0.5134540028538234,232.30919686308545,-1.97597181797,2.47460007668,-128.597717285,0
5.1000000000000005,19.771611636115157,0.7764083653347604,390.5871809734407,0.5100551925799442,232.988959566083,0.03559728469515244,5.884636605715336,-128.50242261758436,0
5.2,19.643476523316895,1.4413930997993254,390.79258696258194,0.5037981128019597,233.20672924715396,1.64749872684,8.68047904968,-128.425689697,0
5.300000000000001,19.51554812099463,2.1051776788670393,390.9985223066481,0.4974938437242672,233.41687154139407,1.64749872684,8.68047904968,-128.425689697,0
5.4,19.387619718672365,2.768962257934748,391.20445765071423,0.49118957464657464,233.62701383563416,1.9637379122308962,9.536001399690809,-127.90299724638649,0
5.5,19.259691316350104,3.4327468370024565,391.4103929947804,0.48488530556888215,233.83715612987424,2.80890512466,12.2602481842,-126.573173523,0
5.6000000000000005,19.136139581535783,3.903814469400207,391.6048668661378,0.47950859566292775,234.09827881534295,2.80890512466,12.2602481842,-126.573173523,0
5.7,19.027656286919893,3.7113764137717227,391.7598800026361,0.4773253816952581,234.5349220253035,2.80890512466,12.2602481842,-126.573173523,0
5.800000000000001,18.919172992304006,3.5189383581432367,391.9148931391344,0.4751421677275885,234.97156523526405,2.80890512466,12.2602481842,-126.573173523,0
5.9,18.810689697688115,3.3265003025147526,392.0699062756327,0.47295895375991887,235.4082084452246,3.79612398148,14.0553808212,-125.77936554,0
6.0,18.70220640307223,3.1340622468862684,392.224919412131,0.4707757397922493,235.84485165518515,3.79612398148,14.0553808212,-125.77936554,0
6.1000000000000005,18.605989309686112,2.838827923606269,392.3604544686485,0.46848196488124305,236.15180353745072,3.79612398148,14.0553808212,-125.77936554,0
6.2,18.516532839862275,2.4869365427596293,392.48525401186424,0.4661272533440893,236.38727491573516,3.79612398148,14.0553808212,-125.77936554,0
6.300000000000001,18.427076370038442,2.1350451619129864,392.6100535550799,0.4637725418069355,236.62274629401958,3.79612398148,14.0553808212,-125.77936554,0
6.4,18.33761990021461,1.7831537810663467,392.73485309829556,0.4614178302697818,236.85821767230402,2.51054906845,12.7898597717,-123.040489197,0
6.5,18.251816481618167,1.624168386515323,392.8472478105263,0.45906873595834186,237.09312704993454,2.51054906845,12.7898597717,-123.040489197,0
6.6000000000000005,18.171541330230752,1.7571131544720593,392.9408699361989,0.45672814235570297,237.3271859358547,2.51054906845,12.7898597717,-123.040489197,0
6.7,18.091266178843338,1.8900579224287943,393.03449206187156,0.4543875487530641,237.56124482177484,2.51054906845,12.7898597717,-123.040489197,0
6.800000000000001,18.010991027455923,2.023002690385531,393.12811418754416,0.45204695515042526,237.79530370769498,1.83008348942,11.3346948624,-123.00605011,0
6.9,17.934178095442885,2.1023216153267414,393.21163536723844,0.449999988079,238.0986588208707,1.83008348942,11.3346948624,-123.00605011,0
7.0,17.881501432806157,1.8077971604599505,393.22473953208583,0.449999988079,238.88510071363626,1.83008348942,11.3346948624,-123.00605011,0
7.1000000000000005,17.82882477016943,1.513272705593157,393.23784369693317,0.449999988079,239.67154260640183,1.83008348942,11.3346948624,-123.00605011,0
7.2,17.776148107532702,1.2187482507263658,393.2509478617805,0.449999988079,240.4579844991674,0.8876066600850382,8.759460552631465,-122.29809040972492,0
7.300000000000001,17.72957656836668,0.9331540237670701,393.25115635765127,0.4508021774677474,240.91978122369662,0.00592081341892,6.41844272614,-121.667823792,0
7.4,17.69654313991552,0.6673625763421552,393.2227687087945,0.4533832217496433,240.66167731858042,0.00592081341892,6.41844272614,-121.667823792,0
7.5,17.66350971146436,0.40157112891724034,393.1943810599377,0.45596426603153917,240.40357341346422,0.00592081341892,6.41844272614,-121.667823792,0
7.6000000000000005,17.6304762830132,0.1357796814923231,393.16599341108093,0.45854531031343504,240.145469508348,-1.84907865524,5.53847742081,-118.75983429,0
7.7,17.59974363850941,0.009238136552736871,393.13869747844393,0.461411757625541,240.0,-1.84907865524,5.53847742081,-118.75983429,0
7.800000000000001,17.571982501105076,0.06254054189175895,393.1128115184823,0.4646468084875121,240.0,-1.84907865524,5.53847742081,-118.75983429,0
7.9,17.54422136370074,0.11584294723078055,393.08692555852065,0.4678818593494831,240.0,-1.8438426118811295,5.541091197289046,-118.77467812276444,0
8.0,17.516644475633438,0.16452131467819214,393.06452444331586,0.469999998808,240.09087642522428,-1.60614895821,6.36699581146,-119.209503174,0
8.1,17.489417002738872,0.20443053796107502,393.04873207716986,0.469999998808,240.35409323619552,-1.60614895821,6.36699581146,-119.209503174,0
8.200000000000001,17.462189529844306,0.2443397612439586,393.0329397110238,0.469999998808,240.61731004716677,-1.60614895821,6.36699581146,-119.209503174,0
8.3,17.434962056949743,0.28424898452684144,393.01714734487774,0.469999998808,240.880526858138,-1.3856311374699697,5.964229153740326,-119.49477423295205,0
8.4,17.411522042670327,0.2801910206390899,392.9943002528133,0.4710453066939732,241.0,-1.36787199974,5.92498064041,-119.514701843,0
8.5,17.391229990198404,0.2395895482778162,392.9655895962824,0.4729594265291906,241.0,-1.36787199974,5.92498064041,-119.514701843,0
8.6,17.37093793772648,0.19898807591654252,392.9368789397515,0.474873546364408,241.0,-1.36787199974,5.92498064041,-119.514701843,0
8.700000000000001,17.350645885254554,0.15838660355526812,392.9081682832207,0.4767876661996254,241.0,-1.56407558918,5.62507486343,-118.943031311,0
8.8,17.33035383278263,0.11778513119399445,392.8794576266898,0.47870178603484287,241.0,-1.56407558918,5.62507486343,-118.943031311,0
8.9,17.30755721484989,0.04373808175430874,392.8498163166405,0.479999989271,241.0,-1.56407558918,5.62507486343,-118.943031311,0
9.0,17.279481578635515,-0.1008041556127477,392.81821341404566,0.479999989271,241.0,-1.56407558918,5.62507486343,-118.943031311,0
9.1,17.251405942421137,-0.24534639297980415,392.7866105114508,0.479999989271,241.0,-1.56407558918,5.62507486343,-118.943031311,0
9.200000000000001,17.223330306206762,-0.38988863034686316,392.755007608856,0.479999989271,241.0,-1.3823692178932072,4.433367479180645,-118.42778927883883,0
9.3,17.18112557369257,-0.4592863614206697,392.7432612014735,0.4816843324990132,240.831566018547,-1.37458884716,4.35196208954,-118.413818359,0
9.4,17.136260483731196,-0.5145351870945784,392.7352535593873,0.48368581950998124,240.6314177230707,-1.37458884716,4.35196208954,-118.413818359,0
9.5,17.091395393769822,-0.569784012768487,392.72724591730105,0.4856873065209493,240.43126942759446,-1.37458884716,4.35196208954,-118.413818359,0
9.600000000000001,17.046530303808446,-0.6250328384423967,392.7192382752148,0.4876887935319174,240.23112113211818,-0.479350209236,2.03953194618,-118.529289246,0
9.700000000000001,17.001665213847073,-0.6802816641163053,392.7112306331286,0.48969028054288544,240.0309728366419,-0.479350209236,2.03953194618,-118.529289246,0
9.8,16.96207121639822,-0.13495825616073787,392.7133834466281,0.490000009537,240.33886822409931,-0.479350209236,2.03953194618,-118.529289246,0
9.9,16.92344225659986,0.5203186037436882,392.7173964479659,0.490000009537,240.73977683053587,-0.479350209236,2.03953194618,-118.529289246,0
10.0,16.88406288495373,0.8652254414335914,392.72242427321345,0.490000009537,241.0,-0.2619985988430325,1.3694886314782195,-118.77811697415403,0
10.100000000000001,16.84329549082546,0.6360467687436964,392.7293291988911,0.490000009537,241.0,-0.0434196181595,0.690637946129,-119.022796631,0
10.200000000000001,16.802528096697188,0.4068680960538055,392.73623412456874,0.490000009537,241.0,-0.0434196181595,0.690637946129,-119.022796631,0
10.3,16.76533727854947,0.22765193369302153,392.7435017541721,0.490000009537,240.91223074540525,-0.14537556326874526,1.0655260176603978,-118.75155363382365,0
10.4,16.732412829005412,0.1080342494819701,392.7512020402182,0.490000009537,240.71976470980957,-0.190298140049,1.23625910282,-118.63318634,0
10.5,16.699488379461354,-0.011583434729081299,392.75890232626426,0.490000009537,240.52729867421388,-0.190298140049,1.23625910282,-118.63318634,0
10.600000000000001,16.666563929917295,-0.13120111894013486,392.76660261231035,0.490000009537,240.3348326386182,-0.309041410685,3.55064129829,-118.221748352,0
10.700000000000001,16.633639480373237,-0.25081880315118626,392.77430289835644,0.490000009537,240.1423666030225,-0.309041410685,3.55064129829,-118.221748352,0
10.8,16.60344755370409,-0.3355716468166125,392.77942344046124,0.490000009537,240.0,-0.309041410685,3.55064129829,-118.221748352,0
10.9,16.581020585227115,-0.3212497373667706,392.77721317335863,0.490000009537,240.0,-0.309041410685,3.55064129829,-118.221748352,0
11.0,16.55859361675014,-0.30692782791692874,392.77500290625596,0.490000009537,240.0,-0.309041410685,3.55064129829,-118.221748352,0
11.100000000000001,16.536166648273166,-0.29260591846708656,392.77279263915335,0.490000009537,240.0,-0.2841280022108446,5.2771003472391405,-119.44256915584275,0
11.200000000000001,16.513739679796196,-0.2782840090172447,392.7705823720507,0.490000009537,240.0,-0.279231786728,5.60083055496,-119.694107056,0
11.3,16.500164813797568,-0.30293107368875277,392.7663221177138,0.490000009537,240.36689116193614,-0.279231786728,5.60083055496,-119.694107056,0
11.4,16.48983840896952,-0.34187860535100745,392.76130957837483,0.490000009537,240.86842058594524,-0.279231786728,5.60083055496,-119.694107056,0
11.5,16.479512004141466,-0.3808261370132622,392.75629703903587,0.490000009537,241.36995000995435,-0.279231786728,5.60083055496,-119.694107056,0
11.600000000000001,16.469185599313413,-0.4197736686755176,392.7512844996969,0.490000009537,241.87147943396346,-0.749213933945,6.97881174088,-119.013031006,0
11.700000000000001,16.458197136485026,-0.12247642318281277,392.76608025647,0.490000009537,242.2680151782508,-0.749213933945,6.97881174088,-119.013031006,0
11.8,16.446980560926512,0.2906742884223761,392.7877009809996,0.490000009537,242.62837524772593,-0.749213933945,6.97881174088,-119.013031006,0
11.9,16.435763985368002,0.7038250000275649,392.80932170552916,0.490000009537,242.98873531720105,-0.7367544339803401,6.97262093388204,-118.89029499371803,0
12.0,16.42009448310446,0.7962526445052817,392.85218815145237,0.48789028248314875,243.0,-0.502817630768,6.56410074234,-117.084579468,0
12.100000000000001,16.404281292872607,0.8783311301129881,392.8957401587478,0.4857124783163906,243.0,-0.502817630768,6.56410074234,-117.084579468,0
12.200000000000001,16.388468102640754,0.9604096157206933,392.9392921660433,0.48353467414963247,243.0,-0.4384860024004773,6.823827923285121,-116.94001768727001,0
12.3,16.3726549124089,1.0424881013283984,392.9828441733387,0.4813568699828743,243.0,-0.205287098885,7.81670427322,-116.405426025,0
12.4,16.352154944870588,0.9284480134303389,393.03333570751363,0.479999989271,243.0,-0.205287098885,7.81670427322,-116.405426025,0
12.5,16.323908338239253,0.4902491893588321,393.09529738560536,0.479999989271,243.0,-0.205287098885,7.81670427322,-116.405426025,0
12.600000000000001,16.295661731607918,0.05205036528731766,393.15725906369715,0.479999989271,243.0,-0.205287098885,7.81670427322,-116.405426025,0
12.700000000000001,16.267415124976583,-0.38614845878418924,393.2192207417889,0.479999989271,243.0,0.413038283587,7.94462823868,-116.647186279,0
12.8,16.243886433817273,-0.07307014863646599,393.2662350018055,0.4776880907695157,243.46238014126882,0.413038283587,7.94462823868,-116.647186279,0
12.9,16.220417928385167,0.24959208918461617,393.31305857989236,0.47534669973189897,243.9306587953895,0.413038283587,7.94462823868,-116.647186279,0
13.0,16.19694942295306,0.5722543270056983,393.3598821579792,0.47300530869428226,244.39893744951019,0.5579934133114364,7.729654736788825,-116.4303776261516,0
13.100000000000001,16.173480917520955,0.8949165648267862,393.40670573606604,0.4706639176566655,244.8672161036309,0.629456043243,7.61865663528,-116.325241089,0
13.200000000000001,16.155191038260416,0.8886045303757844,393.4505560492849,0.469999998808,245.40765844339535,0.629456043243,7.61865663528,-116.325241089,0
13.3,16.13895078315946,0.7520893119161017,393.4932295879492,0.469999998808,245.97666210978184,0.629456043243,7.61865663528,-116.325241089,0
13.4,16.122710528058498,0.6155740934564191,393.5359031266135,0.469999998808,246.54566577616833,0.629456043243,7.61865663528,-116.325241089,0
13.5,16.112648939452185,0.5134393218040462,393.57440729974087,0.469999998808,247.110738663359,0.590196311474,12.0013151169,-114.793319702,0
13.600000000000001,16.1270679760553,0.5475240456612411,393.596391941484,0.469999998808,247.6602373271541,0.590196311474,12.0013151169,-114.793319702,0
13.700000000000001,16.14148701265842,0.5816087695184354,393.61837658322713,0.469999998808,248.20973599094918,0.590196311474,12.0013151169,-114.793319702,0
13.8,16.155906049261535,0.6156934933756298,393.64036122497026,0.469999998808,248.7592346547443,0.359959602356,16.9015846252,-112.994613647,0
13.9,16.178399315632877,0.4520276694796622,393.6521673054367,0.47217128569315214,249.21712889559103,0.359959602356,16.9015846252,-112.994613647,0
14.0,16.207189261374673,0.13414629434500736,393.65603564587695,0.47603584831228124,249.60358552606763,0.359959602356,16.9015846252,-112.994613647,0
14.100000000000001,16.235979207116472,-0.18373508078965317,393.65990398631715,0.47990041093141045,249.99004215654423,0.359959602356,16.9015846252,-112.994613647,0
14.200000000000001,16.281922214477206,-0.22868176225230324,393.62926332152006,0.479999989271,250.92215393534448,-0.272045791149,20.811170578,-110.736717224,0
14.3,16.328318895284642,-0.2664097193872198,393.5977099438967,0.479999989271,251.86869749649074,-0.272045791149,20.811170578,-110.736717224,0
14.4,16.374715576092083,-0.3041376765221364,393.5661565662734,0.479999989271,252.815241057637,-0.4168152031636737,21.11800044760433,-110.33861741099328,0
14.5,16.43816507105762,-0.21700892492203683,393.5143342795146,0.4826858578264284,254.34293155612912,-0.79235470295,22.1390895844,-109.429489136,0
14.600000000000001,16.505750459332738,-0.0995981318051947,393.45759608592033,0.4860231417837846,256.0115701531442,-0.79235470295,22.1390895844,-109.429489136,0
14.700000000000001,16.57333584760785,0.017812661311645384,393.400857892326,0.4893604257411407,257.6802087501593,-0.79235470295,22.1390895844,-109.37829422410375,0
14.8,16.667199286553515,-0.16511294387020237,393.32154885271694,0.4994400645268269,259.1800079990725,-2.09276103973,22.76587677,-106.082725525,0
14.9,16.76729285278891,-0.419243754285837,393.2368886078199,0.511118213389979,260.63977799911265,-2.09276103973,22.76587677,-106.082725525,0
15.0,16.867386419024303,-0.6733745647014716,393.15222836292276,0.5227963622531311,262.09954799915283,-2.131546473724603,23.028881573823725,-105.84910013848804,0
15.100000000000001,16.98178567767481,-0.813686425377735,393.0658588544346,0.5331041092554698,263.7242980869798,-3.02255940437,24.9690418243,-101.607154846,0
15.200000000000001,17.119215822828664,-0.7707599472645913,392.9767375842961,0.5412056317141415,265.61465137434953,-3.02255940437,24.9690418243,-101.607154846,0
15.3,17.25664596798252,-0.7278334691514476,392.8876163141575,0.5493071541728131,267.5050046617192,-3.02255940437,24.9690418243,-101.607154846,0
15.4,17.394076113136375,-0.684906991038304,392.79849504401903,0.5574086766314847,269.395357949089,-3.0113922937742035,32.91090358558332,-96.206715219535,0
15.5,17.536506031440233,-0.9842551668255562,392.7155012166371,0.5640362959052311,271.41270407965607,-3.01031017303,33.8416290283,-95.7540969849,0
15.600000000000001,17.681287234391675,-1.4445676733588324,392.63538899241,0.5699707705448586,273.48977218432174,-3.01031017303,33.8416290283,-95.7540969849,0
15.700000000000001,17.826068437343114,-1.9048801798921005,392.555276768183,0.575905245184486,275.56684028898735,-3.01031017303,33.8416290283,-95.7540969849,0
15.8,17.976626220317737,-2.1081913427358114,392.47366345803204,0.5813861020962313,277.83166958571877,-2.07591128349,36.6867103577,-89.649307251,0
15.9,18.14004105227366,-1.7394895063973936,392.38870915110255,0.5858573330142636,280.5144026998454,-2.07591128349,36.6867103577,-89.649307251,0
16.0,18.303455884229585,-1.3707876700589758,392.303754844173,0.5903285639322959,283.197135813972,-2.07591128349,36.6867103577,-89.649307251,0
16.1,18.46687071618551,-1.0020858337205518,392.2188005372435,0.5947997948503284,285.87986892809863,-1.9892640781897284,38.75199499040191,-84.06263195239602,0
16.2,18.63028554814143,-0.6333839973821407,392.133846230314,0.5992710257683607,288.5626020422252,-1.96139514446,39.4491500854,-82.3448638916,0
16.3,18.792376683067484,-0.7399325274209642,392.0716663795756,0.6042023180170494,291.10114909139054,-1.96139514446,39.4491500854,-82.3448638916,0
16.400000000000002,18.954209957880344,-0.9390612404659033,392.01392306055016,0.6092232315794697,293.61160826682567,-1.96139514446,39.4491500854,-82.3448638916,0
16.5,19.116043232693197,-1.1381899535108353,391.9561797415247,0.6142441451418899,296.1220674422607,-1.96139514446,39.4491500854,-82.14786532944841,0
16.6,19.277876507506054,-1.3373186665557746,391.8984364224993,0.6192650587043103,298.63252661769576,-1.29352986813,40.8684539795,-70.9285125732,0
16.7,19.413057369518864,-1.1915948858805727,391.8651657679527,0.6219090360911167,301.2908397722848,-1.29352986813,40.8684539795,-70.9285125732,0
16.8,19.543667948187014,-0.9867367363870572,391.8360916194301,0.6241454229195658,303.9745065255683,-1.29352986813,40.8684539795,-70.9285125732,0
16.900000000000002,19.674278526855165,-0.7818785868935415,391.8070174709074,0.6263818097480148,306.65817327885185,-1.149705545600531,41.107749908988815,-67.66013219916945,0
17.0,19.80488910552331,-0.5770204374000331,391.7779433223848,0.6286181965764639,309.3418400321353,-0.784736096859,41.8256149292,-60.1483383179,0
17.1,19.91903872609573,-0.3904491134387169,391.76350020869023,0.6291199438998014,312.0560626056996,-0.784736096859,41.8256149292,-60.1483383179,0
17.2,20.00657233384881,-0.23344607948578064,391.77271427268124,0.6268169220817258,314.81969142278683,-0.784736096859,41.8256149292,-60.1483383179,0
17.3,20.094105941601885,-0.07644304553283876,391.7819283366722,0.6245139002636501,317.5833202398741,-0.784736096859,41.8256149292,-60.1483383179,0
17.400000000000002,20.181639549354962,0.08055998842010303,391.7911424006632,0.6222108784455743,320.3469490569615,0.5823559074484546,42.317045904120434,-49.54815257205459,0
17.5,20.26696908107614,0.24467553947897688,391.80204740868095,0.6201211489470869,323.12114429461013,0.669114470482,42.3562965393,-49.0042800903,0
17.6,20.299417093368017,0.5794388840284318,391.85352256405827,0.6231488572226113,326.1488554573598,0.669114470482,42.3562965393,-49.0042800903,0
17.7,20.331865105659897,0.9142022285778749,391.9049977194355,0.6261765654981354,329.1765666201093,0.669114470482,42.3562965393,-49.0042800903,0
17.8,20.364313117951774,1.2489655731273297,391.95647287481285,0.6292042737736597,332.204277782859,0.6513468054435383,42.40612716471608,-45.50333285261419,0
17.900000000000002,20.37973380067999,1.0658129407870984,392.031378172642,0.6275449195074839,334.96406245254286,0.600143015385,42.5638542175,-36.0656852722,0
18.0,20.389084101895325,0.6980190492532663,392.11463650686784,0.6242145893142553,337.6283291477704,0.600143015385,42.5638542175,-36.0656852722,0
18.1,20.398434403110656,0.33022515771942107,392.1978948410937,0.6208842591210267,340.292595842998,0.600143015385,42.5638542175,-36.0656852722,0
18.2,20.38302129633379,0.4868866071969241,392.3291040370895,0.6107539438117909,343.034132925388,2.15313053131,44.5770187378,-26.7106285095,0
18.3,20.358656238455083,0.8331382200845452,392.4776474291697,0.5981654396187422,345.80360318756163,2.15313053131,44.5770187378,-26.7106285095,0
18.400000000000002,20.334291180576376,1.1793898329721664,392.6261908212499,0.5855769354256936,348.57307344973526,2.8642342810275894,44.53583386405154,-23.15519364998803,0
18.5,20.30992612269767,1.525641445859775,392.77473421333013,0.5729884312326453,351.3425437119087,3.91593694687,44.4686431885,-18.1939735413,0
18.6,20.261940236017278,1.9509704279462774,392.9333701324384,0.5584335268153735,284.14340197729325,3.91593694687,44.4686431885,-18.1939735413,0
18.7,20.206601338127598,2.4009156835345093,393.0951477899248,0.5432664947284065,195.16348393588893,3.91593694687,44.4686431885,-18.1939735413,0
18.8,20.151262440237918,2.8508609391227564,393.25692544741116,0.5280994626414389,106.18356589448146,4.101663189845551,42.53828726296677,-13.353442365077814,0
18.900000000000002,20.09592354234824,3.3008061947110043,393.41870310489753,0.5129324305544715,17.203647853074017,4.32606315613,39.9996566772,-7.80620956421,0
19.0,20.01958775005345,3.479877385314578,393.58425289488054,0.5036061728194198,1.0656362315887564,4.32606315613,39.9996566772,-7.80620956421,0
19.1,19.938219331008817,3.594024304786492,393.75070680594644,0.4956798572222913,2.386688778620353,4.32606315613,39.9996566772,-7.80620956421,0
19.200000000000003,19.856850911964184,3.708171224258406,393.91716071701234,0.48775354162516277,3.70774132565195,4.283903063649192,39.08569557235304,-6.783473563947699,0
19.3,19.775198686780627,3.8063337949316662,394.0841604942877,0.4797060476492,5.029394172692537,3.98689413071,31.729839325,0.400552004576,0
19.400000000000002,19.680809343916003,3.187124526953383,394.2756585511794,0.46622011151181914,6.377988268741811,3.98689413071,31.729839325,0.400552004576,0
19.5,19.586420001051383,2.567915258975122,394.4671566080711,0.45273417537443883,7.726582364791038,3.98689413071,31.729839325,0.400552004576,0
19.6,19.492030658186764,1.9487059909968387,394.65865466496274,0.43924823923705797,9.075176460840312,3.924778778865314,24.24599166839954,4.247975000588309,0
19.700000000000003,19.4028384347065,1.5974782493826651,394.8482402686113,0.4268677059438473,10.125292018493985,3.89819312096,20.9372959137,5.8164935112,0
19.8,19.32498824116281,1.831084965028912,395.03365219443316,0.4168995690616717,10.524017398716904,3.89819312096,20.9372959137,5.8164935112,0
19.900000000000002,19.247138047619117,2.0646916806751676,395.21906412025504,0.40693143217949573,10.922742778939838,3.89819312096,20.9372959137,5.8164935112,0
20.0,19.169287854075424,2.2982983963214143,395.4044760460769,0.3969632952973201,11.321468159162757,2.8216153974818834,11.852784438143456,9.729705138565441,0
20.1,19.09143766053173,2.53190511196767,395.58988797189886,0.38699515841514415,11.72019353938569,2.65615510941,10.310133934,10.2666530609,0
20.200000000000003,19.019930878026422,2.6233890908990487,395.7536608584916,0.3783580779267785,11.917904056448128,2.65615510941,10.310133934,10.2666530609,0
20.3,18.963349621221422,2.38046993142415,395.86651886124827,0.3728528639206839,11.64264309364078,2.65615510941,10.310133934,10.2666530609,0
20.400000000000002,18.90676836441642,2.1375507719492424,395.97937686400496,0.36734764991458907,11.367382130833422,2.65615510941,10.310133934,10.2666530609,0
20.5,18.85018710761142,1.8946316124743432,396.0922348667616,0.3618424359084944,11.092121168026074,1.4757502876347492,0.6567591000986983,11.834864395113842,0
20.6,18.808717504913638,1.5912142322008642,396.1621416010005,0.360000014305,10.642910825988574,1.29417026043,-0.842243671417,12.0581083298,0
20.700000000000003,18.7748492169865,1.257365635325229,396.21044341300615,0.360000014305,10.106202187847662,1.29417026043,-0.842243671417,12.0581083298,0
20.8,18.74098092905936,0.9235170384496056,396.2587452250118,0.360000014305,9.56949354970677,0.9352266056892407,-1.5911827059447625,11.861989887180208,0
20.900000000000002,18.707112641132223,0.5896684415739704,396.3070470370174,0.360000014305,9.032784911565859,-0.127700850368,-4.02726364136,11.3162965775,0
21.0,18.694811763997233,0.4878845549857261,396.32614843763207,0.3576929826347439,8.538594600986826,-0.127700850368,-4.02726364136,11.3162965775,0
21.1,18.68391404694032,0.40119862986088983,396.3433500806948,0.35523585716000855,8.047170501910692,-0.127700850368,-4.02726364136,11.3162965775,0
21.200000000000003,18.673016329883406,0.31451270473605364,396.3605517237575,0.3527787316852732,7.555746402834557,-0.33638369046785405,-4.143081760597187,10.94974244832553,0
21.3,18.662118612826493,0.2278267796112205,396.37775336682023,0.35032160621053793,7.0643223037584395,-1.53957664967,-4.99964475632,9.09768772125,0
21.400000000000002,18.660972760685016,-0.005744577693277214,396.3459263452794,0.3518930060471525,6.810699182902851,-1.53957664967,-4.99964475632,9.09768772125,0
21.5,18.6612955570582,-0.26143714705992094,396.3067155180696,0.35407110909039363,6.592889319970427,-1.53957664967,-4.99964475632,9.09768772125,0
21.6,18.661618353431383,-0.5171297164265738,396.26750469085977,0.35624921213363486,6.3750794570379945,-2.4199184747310944,-2.9935684356853325,8.530944202090287,0
21.700000000000003,18.661941149804566,-0.7728222857932266,396.22829386365,0.35842731517687604,6.157269594105562,-3.56646728516,-0.399100750685,7.72973012924,0
21.8,18.67090775389351,-0.9639086919287864,396.15480392171014,0.3618824162905984,6.2509871707712215,-3.56646728516,-0.399100750685,7.72973012924,0
21.900000000000002,18.70232896806805,-0.987163252171352,395.99226478054527,0.3686548625715937,7.153980869392244,-3.56646728516,-0.399100750685,7.72973012924,0
22.0,18.733750182242584,-1.010417812413917,395.8297256393804,0.3754273088525887,8.056974568013235,-3.56646728516,-0.399100750685,7.72973012924,0
22.1,18.765171396417124,-1.0336723726564825,395.66718649821553,0.3821997551335839,8.959968266634258,-5.494087668852038,7.770688007716502,6.7478360964648445,0
22.200000000000003,18.796592610591663,-1.0569269328990483,395.50464735705066,0.38897220141457917,9.86296196525528,-5.5443572998,8.22430229187,6.73923635483,0
22.3,18.8483302238901,-1.3179937769002148,395.3125701186509,0.39900061519367214,10.720050188219405,-5.5443572998,8.22430229187,6.73923635483,0
22.400000000000002,18.903702668211185,-1.6216078981674258,395.11520818430057,0.4096115579730395,11.568925408179965,-5.5443572998,8.22430229187,6.73923635483,0
22.5,18.959075112532272,-1.9252220194346261,394.9178462499503,0.42022250075240647,12.417800628140492,-5.5443572998,8.22430229187,6.73923635483,0
22.6,19.014447556853355,-2.228836140701837,394.7204843156,0.43083344353177383,13.26667584810105,-7.34078931808,13.490814209,10.7807893753,0
22.700000000000003,19.071569985892985,-2.4999096847425575,394.52353437995123,0.4408266877152801,14.082668965580245,-7.34078931808,13.490814209,10.7807893753,0
22.8,19.13979837943028,-2.5644702852231545,394.3291991202502,0.4468998184239591,14.68998171065522,-7.34078931808,13.490814209,10.7807893753,0
22.900000000000002,19.20802677296758,-2.6290308857037537,394.1348638605492,0.45297294913263825,15.297294455730214,-7.34078931808,13.490814209,10.7807893753,0
23.0,19.276255166504882,-2.6935914861843506,393.9405286008482,0.4590460798413172,15.904607200805188,-6.227104200175461,19.596516926036525,13.78621197092718,0
23.1,19.339178477608588,-2.554747779469929,393.7969187795416,0.4655614154836533,17.112281383536015,-6.08828353882,20.4597816467,14.128033638,0
23.200000000000003,19.401113222692608,-2.378001063920302,393.662761298582,0.47215915300694516,18.43182883576437,-6.08828353882,20.4597816467,14.128033638,0
23.3,19.463047967776625,-2.2012543483706812,393.52860381762235,0.4787568905302368,19.751376287992677,-6.08828353882,20.4597816467,14.128033638,0
23.400000000000002,19.52498271286064,-2.024507632821054,393.3944463366627,0.4853546280535287,21.070923740221033,-4.40589904785,23.1767959595,16.7779998779,0
23.5,19.58058145008181,-1.8550643731118097,393.26516423205925,0.49145095665051175,22.580379398912527,-4.40589904785,23.1767959595,16.7779998779,0
23.6,19.621104466991273,-1.702998752436759,393.1474824619172,0.49635424683932866,24.541697344948226,-4.40589904785,23.1767959595,16.7779998779,0
23.700000000000003,19.661627483900737,-1.550933131761708,393.0298006917752,0.5012575370281456,26.50301529098392,-4.40589904785,23.1767959595,16.7779998779,0
23.8,19.7021505008102,-1.3988675110866626,392.9121189216332,0.5061608272169624,28.46433323701955,-3.53777241707,26.2948303223,22.3174381256,0
23.900000000000002,19.739595748076155,-1.3172280940657632,392.80115542840093,0.510627394680444,30.31370240786861,-3.53777241707,26.2948303223,22.3174381256,0
24.0,19.76593700048953,-1.4896727357764306,392.7144301728748,0.5135183514076372,31.759182149874732,-3.53777241707,26.2948303223,22.3174381256,0
24.1,19.792278252902904,-1.662117377487104,392.6277049173487,0.5164093081348307,33.2046618918809,-3.53777241707,26.2948303223,22.3174381256,0
24.200000000000003,19.818619505316278,-1.8345620191977776,392.5409796618225,0.519300264862024,34.650141633887074,-3.65981388092,28.3533611298,30.3363876343,0
24.3,19.8163069710181,-1.6078999380406394,392.4846828663346,0.519999980927,35.661975117770815,-3.65981388092,28.3533611298,30.3363876343,0
24.400000000000002,19.804844590593863,-1.2537934412856442,392.43810261302673,0.519999980927,36.535334878271826,-3.65981388092,28.3533611298,30.3363876343,0
24.5,19.793382210169625,-0.8996869445306616,392.39152235971886,0.519999980927,37.4086946387728,-3.65981388092,28.3533611298,30.3363876343,0
24.6,19.76871587859139,-0.6979284243958106,392.36492319560335,0.5214106486480282,38.56426594489815,-1.47293066978,27.8817634583,35.3414268494,0
24.700000000000003,19.71636847865598,-0.8155557233779147,392.38021284865573,0.5257786727815137,40.31147205749178,-1.47293066978,27.8817634583,35.3414268494,0
24.8,19.66402107872057,-0.9331830223600146,392.3955025017081,0.5301466969149989,42.058678170085344,-1.47293066978,27.8817634583,35.3414268494,0
24.900000000000002,19.61167367878516,-1.050810321342119,392.4107921547605,0.5345147210484844,43.80588428267897,1.0381911993,25.3771247864,38.4551315308,0
25.0,19.559326278849753,-1.1684376203242186,392.42608180781286,0.5388827451819697,45.55309039527253,1.0381911993,25.3771247864,38.4551315308,0
25.1,19.504422322145132,-0.9609980783557232,392.44485538198796,0.5421230410171246,47.486115108695216,1.0381911993,25.3771247864,38.4551315308,0
25.200000000000003,19.448639681410928,-0.641833639396121,392.46482637367694,0.544975738635259,49.48300534582357,1.0381911993,25.3771247864,38.4551315308,0
25.3,19.392857040676724,-0.32266920043653025,392.484797365366,0.5478284362533935,51.47989558295186,1.0381911993,25.3771247864,38.4551315308,0
25.400000000000002,19.338200250034383,-0.09931109145011305,392.49611006152213,0.5511113055816603,53.55564736025102,1.22012650967,33.5699272156,46.1760864258,0
25.5,19.287132932118592,-0.1814059117242678,392.4798180917479,0.5557656626705134,55.88282812410988,1.22012650967,33.5699272156,46.1760864258,0
25.6,19.2360656142028,-0.26350073199842544,392.4635261219737,0.5604200197593667,58.210008887968826,1.22012650967,33.5699272156,46.1760864258,0
25.700000000000003,19.184998296287006,-0.3455955522725831,392.4472341521995,0.56507437684822,60.537189651827774,0.241581976414,38.070766449,53.7619934082,0
25.8,19.133930978371215,-0.42769037254673786,392.43094218242527,0.5697287339370731,62.86437041568663,0.241581976414,38.070766449,53.7619934082,0
25.900000000000002,19.068398661459934,-0.43273361024400914,392.43369677061696,0.5718530563698199,65.40898487687389,0.241581976414,38.070766449,53.7619934082,0
26.0,19.001971142182786,-0.43300831950665947,392.4376301023231,0.5738208013281691,67.96705576210427,0.241581976414,38.070766449,53.7619934082,0
26.1,18.935543622905634,-0.43328302876930974,392.44156343402926,0.5757885462865184,70.52512664733473,0.24983265395886223,38.501725592146315,55.46653478350362,0
26.200000000000003,18.869116103628482,-0.43355773803196007,392.4454967657354,0.5777562912448677,73.0831975325652,0.291081637144,40.9562149048,63.2446556091,0
26.3,18.802688584351333,-0.4338324472946104,392.44943009744156,0.5797240362032169,75.64126841779557,0.291081637144,40.9562149048,63.2446556091,0
26.400000000000002,18.728982175951366,-0.21655837116888882,392.4858193173232,0.579999983311,78.01582044348933,0.291081637144,40.9562149048,63.2446556091,0
26.5,18.65408851672197,0.03619982506582464,392.5275023779965,0.579999983311,80.36043892925338,0.291081637144,40.9562149048,63.2446556091,0
26.6,18.579194857492574,0.28895802130054715,392.5691854386698,0.579999983311,82.7050574150175,0.5795229673963137,41.0180977803339,67.46045801411621,0
26.700000000000003,18.504360345403715,0.5363897927132645,392.6105310995654,0.579999983311,85.05457697781902,1.22275209427,41.1703262329,76.0025482178,0
26.8,18.43225833115521,0.537749747462567,392.63628946147065,0.579999983311,87.6305180091479,1.22275209427,41.1703262329,76.0025482178,0
26.900000000000002,18.360156316906707,0.5391097022118696,392.662047823376,0.579999983311,90.20645904047687,1.22275209427,41.1703262329,76.0025482178,0
27.0,18.288054302658207,0.5404696569611721,392.68780618528126,0.579999983311,92.78240007180575,1.2633601121206126,41.740598444825494,81.36655830490437,0
27.1,18.21172141242448,0.5086210213707232,392.69816301073723,0.579999983311,95.27572216259928,1.29831933975,42.2491874695,85.9588165283,0
27.200000000000003,18.13159601802232,0.4470046219102125,392.6947140920899,0.579999983311,97.69498567132437,1.29831933975,42.2491874695,85.9588165283,0
27.3,18.051470623620162,0.38538822244970394,392.6912651734426,0.579999983311,100.11424918004937,1.29831933975,42.2491874695,85.9588165283,0
27.400000000000002,17.963436783960212,0.3896329590283631,392.66904587766436,0.579999983311,102.71438058650156,0.99402910471,43.3599624634,94.3662567139,0
27.5,17.8708350578244,0.431918825410906,392.6359848868311,0.579999983311,105.41898057015372,0.99402910471,43.3599624634,94.3662567139,0
27.6,17.778233331688586,0.4742046917934504,392.60292389599795,0.579999983311,108.12358055380598,0.99402910471,43.3599624634,94.3662567139,0
27.700000000000003,17.68178253324517,0.4268603638706845,392.58315470656476,0.5774664059229967,110.69673444615913,0.460983127356,43.2619132996,101.596595764,0
27.8,17.576610841468572,0.17643973560790283,392.59350092493685,0.5691924691999658,112.9720692149225,0.460983127356,43.2619132996,101.596595764,0
27.900000000000002,17.47143914969197,-0.07398089265488772,392.603847143309,0.5609185324769347,115.24740398368596,0.460983127356,43.2619132996,101.596595764,0
28.0,17.366267457915377,-0.3244015209176694,392.6141933616811,0.5526445957539038,117.52273875244933,0.511502904232308,41.07011680093245,110.24999425720719,0
28.1,17.261095766138776,-0.5748221491804598,392.6245395800532,0.5443706590308727,119.79807352121279,0.514902532101,40.8839035034,110.736183167,0
28.200000000000003,17.15024558213507,-0.5732995760998644,392.6789783045021,0.5359187327085762,121.81625690655534,0.514902532101,40.8839035034,110.736183167,0
28.3,17.033037025244667,-0.2896688735471828,392.7827886902887,0.5272675062557485,123.54650040949096,0.514902532101,40.8839035034,110.736183167,0
28.400000000000002,16.915828468354256,-0.00603817099449111,392.88659907607536,0.5186162798029206,125.27674391242664,0.514902532101,40.8839035034,110.736183167,0
28.5,16.798609403713165,0.2788693445054188,392.9906038623483,0.5099512901953237,127.00584403421122,3.04133415222,33.3399925232,121.115264893,0
28.6,16.678798887955534,0.8786680708364416,393.1425522449373,0.49789199253379773,128.452960271141,3.04133415222,33.3399925232,121.115264893,0
28.700000000000003,16.558988372197902,1.4784667971674643,393.29450062752636,0.4858326948722718,129.90007650807075,3.04133415222,33.3399925232,121.115264893,0
28.8,16.439177856440274,2.078265523498466,393.4464490101154,0.4737733972107463,131.34719274500046,3.0642357095379165,31.14279093169973,123.50421470557511,0
28.900000000000002,16.319367340682643,2.6780642498294887,393.59839739270444,0.4617140995492204,132.79430898193021,3.10932707787,25.9882316589,127.731834412,0
29.0,16.211138949713632,2.720830930963311,393.77578404369217,0.451502241583717,133.28325888078794,3.10932707787,25.9882316589,127.731834412,0
29.1,16.10482959422335,2.671303298486102,393.9573855464852,0.4415964848203834,133.61345075977945,3.10932707787,25.9882316589,127.731834412,0
29.200000000000003,15.998520238733065,2.6217756660088933,394.1389870492783,0.4316907280570498,133.94364263877094,3.035166438020641,23.435278258954828,129.27664033988026,0
29.3,15.917774398434403,2.6328191441133098,394.3165016893872,0.42285280962444605,134.17867984236105,2.82512593269,14.557305336,133.759857178,0
29.400000000000002,15.842289736571937,2.6563286472717906,394.4931752200609,0.41423466096751127,134.39413344320434,2.82512593269,14.557305336,133.759857178,0
29.5,15.766805074709474,2.679838150430271,394.66984875073456,0.4056165123105769,134.6095870440476,3.189279587719864,10.374506934720307,134.1007318726633,0
29.6,15.69132041284701,2.703347653588752,394.8465222814082,0.3969983636536421,134.8250406448909,3.41742753983,7.64781665802,134.309005737,0
29.700000000000003,15.620518251616584,2.6894656400762473,395.01085233972225,0.389165502261917,135.04172421144443,3.41742753983,7.64781665802,134.309005737,0
29.8,15.569947293018208,2.5140299162847195,395.1218512166622,0.3847255514184801,135.26372196532444,3.41742753983,7.64781665802,134.309005737,0
29.900000000000002,15.519376334419828,2.338594192493185,395.2328500936022,0.38028560057504307,135.48571971920447,3.41742753983,7.64781665802,134.309005737,0
30.0,15.468805375821452,2.163158468701657,395.34384897054224,0.37584564973160617,135.70771747308447,2.892069439183865,3.7330030622815777,134.76352078722385,0
30.1,15.418234417223072,1.987722744910123,395.45484784748226,0.37140569888816916,135.92971522696448,2.03635978699,-2.81391358376,135.501342773,0
30.200000000000003,15.385734608629503,1.6490141681991877,395.49560268347113,0.370000004768,135.57915619242175,2.03635978699,-2.81391358376,135.501342773,0
30.3,15.36160670512612,1.2346654231491612,395.5038152383193,0.370000004768,134.96334613123486,2.03635978699,-2.81391358376,135.501342773,0
30.400000000000002,15.337478801622735,0.8203166780991196,395.5120277931674,0.370000004768,134.34753607004797,2.03635978699,-2.81391358376,135.501342773,0
30.5,15.313350898119351,0.40596793304909284,395.5202403480156,0.370000004768,133.7317260088611,0.242440119386,-3.35411930084,136.483551025,0
30.6,15.289222994615967,-0.008380812000948534,395.52845290286376,0.370000004768,133.1159159476742,0.242440119386,-3.35411930084,136.483551025,0
30.700000000000003,15.28668174084808,-0.08164822324274501,395.492686652987,0.3723319570474502,132.7668045496798,0.242440119386,-3.35411930084,136.483551025,0
30.8,15.289146021039413,-0.07582535321568255,395.4467225538269,0.3752046447568578,132.4795355047993,0.242440119386,-3.35411930084,136.483551025,0
30.900000000000002,15.291610301230746,-0.07000248318861989,395.40075845466674,0.37807733246626546,132.19226645991876,0.11686736815856633,-3.3753537491732426,136.2358245780049,0
31.0,15.301155717418927,-0.08557639414308618,395.33408797258784,0.3813298691388189,131.86701268065252,-1.62103140354,-3.94524407387,133.647735596,0
31.1,15.325031953667056,-0.14445316190540747,395.2255118629608,0.3853511450564913,131.4648853045864,-1.62103140354,-3.94524407387,133.647735596,0
31.200000000000003,15.348908189915184,-0.20332992966772873,395.11693575333373,0.38937242097416375,131.06275792852028,-1.62103140354,-3.94524407387,133.647735596,0
31.3,15.372784426163312,-0.26220669743004793,395.0083596437066,0.39339369689183606,130.66063055245417,-2.919237126811802,-3.2334745376802547,132.7780471048778,0
31.400000000000002,15.39666066241144,-0.3210834651923692,394.8997835340796,0.39741497280950855,130.25850317638805,-2.96328473091,-3.23232865334,132.76322937,0
31.5,15.419858421332746,-0.4127093444421293,394.80697892924445,0.40079334881875767,129.76199691541296,-2.96328473091,-3.23232865334,132.76322937,0
31.6,15.441835017354734,-0.5632789766413698,394.7425607947554,0.40301459623269015,129.09562205577816,-2.96328473091,-3.23232865334,132.76322937,0
31.700000000000003,15.463811613376722,-0.7138486088406104,394.6781426602663,0.40523584364662263,128.42924719614334,-2.96328473091,-3.23232865334,132.76322937,0
31.8,15.485788209398708,-0.8644182410398455,394.61372452577723,0.407457091060555,127.76287233650856,-3.42808437347,-0.637084782124,130.92515564,0
31.900000000000002,15.507764805420695,-1.014987873239086,394.5493063912881,0.4096783384744875,127.09649747687375,-3.42808437347,-0.637084782124,130.92515564,0
32.0,15.516716464885205,-1.0207500294178262,394.5111523561344,0.409999996424,127.0,-3.42808437347,-0.637084782124,130.92515564,0
32.1,15.52346260865062,-1.0019919001963409,394.47744562735727,0.409999996424,127.0,-3.42808437347,-0.637084782124,130.92515564,0
32.2,15.530208752416033,-0.9832337709748555,394.4437388985801,0.409999996424,127.0,-3.095777578818605,0.6397520115723172,129.3896638889687,0
32.300000000000004,15.536954896181449,-0.9644756417533702,394.41003216980295,0.409999996424,127.0,-2.71317863464,2.28418755531,127.731613159,0
32.4,15.563073869156945,-0.6448843201910036,394.3924174041805,0.409999996424,127.0,-2.71317863464,2.28418755531,127.731613159,0
32.5,15.589209240765783,-0.3250383505767267,394.3748162600173,0.409999996424,127.0,-2.71317863464,2.28418755531,127.731613159,0
32.6,15.615344612374619,-0.005192380962449783,394.35721511585416,0.409999996424,127.0,-2.625760825526588,2.667997697207884,127.52960468926706,0
32.7,15.623188252938862,-0.010585741865749648,394.38199791711156,0.4073339020800446,127.0,-2.61127686501,2.75005602837,127.501190186,0
32.800000000000004,15.61834293785743,-0.2415973030970868,394.43618241918233,0.402818340739491,127.0,-2.61127686501,2.75005602837,127.501190186,0
32.9,15.613497622775997,-0.47260886432840765,394.4903669212531,0.39830277939893777,127.0,-2.61127686501,2.75005602837,127.501190186,0
33.0,15.608652307694564,-0.7036204255597448,394.54455142332387,0.3937872180583842,127.0,-2.16430544853,5.30419540405,127.768867493,0
33.1,15.60159226821849,-0.8498738891876062,394.589996338,0.389999985695,127.0,-2.16430544853,5.30419540405,127.768867493,0
33.2,15.583015900041664,-0.5553943593949964,394.589996338,0.389999985695,127.0,-2.16430544853,5.30419540405,127.768867493,0
33.300000000000004,15.564439531864839,-0.26091482960238654,394.589996338,0.389999985695,127.0,-2.16430544853,5.30419540405,127.768867493,0
33.4,15.545863163688013,0.03356470019020241,394.589996338,0.389999985695,127.0,-2.2215870105557487,3.449872293924675,127.7524776203593,0
33.5,15.527286795511188,0.32804422998281224,394.589996338,0.389999985695,127.0,-2.23295283318,2.98465275764,127.749671936,0
33.6,15.525893293358441,0.32043910682145754,394.55226104858644,0.39171522007927156,127.1715230908356,-2.23295283318,2.98465275764,127.749671936,0
33.7,15.536727038943967,0.09787194621996514,394.4876735023091,0.3946510072931057,127.46510121728295,-2.23295283318,2.98465275764,127.749671936,0
33.800000000000004,15.547560784529491,-0.12469521438152725,394.42308595603185,0.39758679450693984,127.7586793437303,-2.25790681227025,2.7152714730284195,127.76333587475432,0
33.9,15.561302396416853,-0.33309684599479705,394.3537040405574,0.40083541360379793,128.0,-2.5081346035,-0.790141761303,127.882598877,0
34.0,15.588472293330629,-0.4760832414662814,394.2621821263971,0.405528664349622,128.0,-2.5081346035,-0.790141761303,127.882598877,0
34.1,15.615642190244404,-0.6190696369377657,394.1706602122368,0.41022191509544603,128.0,-2.5081346035,-0.790141761303,127.882598877,0
34.2,15.64281208715818,-0.7620560324092501,394.07913829807654,0.41491516584127003,128.0,-2.71371817589,0.999333500862,128.981216431,0
34.300000000000004,15.669981984071956,-0.9050424278807345,393.98761638391625,0.4196084165870941,128.0,-2.71371817589,0.999333500862,128.981216431,0
34.4,15.705295633028436,-1.0370197791756521,393.8856608670072,0.4252401808041446,128.2620095553022,-2.71371817589,0.999333500862,128.981216431,0
34.5,15.741350585638179,-1.1679950070483285,393.78275560754776,0.43095737535615747,128.54786912955348,-2.71371817589,0.999333500862,128.981216431,0
34.6,15.777405538247923,-1.2989702349210046,393.67985034808834,0.4366745699081704,128.83372870380475,-2.9094741181586303,2.2045491735726492,128.93733827408826,0
34.7,15.813564510595898,-1.3451086906362886,393.5781499488311,0.44116231105449855,129.1162314546998,-3.16695284843,3.8361954689,128.879608154,0
34.800000000000004,15.849868108295011,-1.2732931102125005,393.4781247444242,0.443940663833523,129.394066997574,-3.16695284843,3.8361954689,128.879608154,0
34.9,15.886171705994121,-1.2014775297887175,393.3780995400172,0.44671901661254726,129.67190254044817,-3.16695284843,3.8361954689,128.879608154,0
35.0,15.922475303693234,-1.1296619493649291,393.27807433561026,0.44949736939157175,129.9497380833224,-3.45440483093,4.78007507324,129.400436401,0
35.1,15.954084996613295,-1.315006838007608,393.17142584149974,0.4536898654687688,130.0,-3.45440483093,4.78007507324,129.400436401,0
35.2,15.984657993608437,-1.5571481941716572,393.06331452746247,0.45819468926957285,130.0,-3.45440483093,4.78007507324,129.400436401,0
35.300000000000004,16.015230990603577,-1.7992895503357063,392.9552032134252,0.4626995130703769,130.0,-3.4151510914282963,4.8190834391107265,129.5776931443982,0
35.4,16.045803987598713,-2.0414309064997385,392.84709189938786,0.46720433687118057,130.0,-3.2982237339,4.94499731064,130.068313599,0
35.5,16.07373615630548,-2.041871258717666,392.74769370122243,0.4712424539507211,130.0,-3.2982237339,4.94499731064,130.068313599,0
35.6,16.09734874400411,-1.6469632761395498,392.6625474746855,0.4745171827030426,130.0,-3.2982237339,4.94499731064,130.068313599,0
35.7,16.120961331702738,-1.2520552935614337,392.57740124814853,0.47779191145536404,130.0,-3.2982237339,4.94499731064,130.068313599,0
35.800000000000004,16.135539080521514,-1.0249886509821424,392.5155444846636,0.479999989271,129.9259214973001,-2.01233768463,4.22449111938,130.504501343,0
35.9,16.131413777936768,-1.1453709503684903,392.5018993196825,0.479999989271,129.69849282839172,-2.01233768463,4.22449111938,130.504501343,0
36.0,16.12728847535202,-1.2657532497548467,392.4882541547014,0.479999989271,129.47106415948332,-2.01233768463,4.22449111938,130.504501343,0
36.1,16.123163172767274,-1.386135549141203,392.47460898972025,0.479999989271,129.24363549057492,-0.9138420251027144,4.233844086107131,130.2774995727492,0
36.2,16.119037870182527,-1.5065178485275594,392.46096382473917,0.479999989271,129.01620682166651,-0.555308818817,4.2371969223,130.208068848,0
36.300000000000004,16.1011136610665,-0.8554432784167086,392.47746008791194,0.47708843477723795,129.0,-0.555308818817,4.2371969223,130.208068848,0
36.4,16.082130676921913,-0.1451756652064109,392.49626906995,0.4739534798868368,129.0,-0.555308818817,4.2371969223,130.208068848,0
36.5,16.063147692777328,0.5650919480039374,392.51507805198804,0.47081852499643545,129.0,0.2980702731095475,3.5887951880800575,129.8315557122146,0
36.6,16.038435045006253,0.6490702486327478,392.5418547547085,0.469999998808,129.1561675226189,0.658714652061,3.28362369537,129.683441162,0
36.7,16.011697780753256,0.5117448659450083,392.57144690693326,0.469999998808,129.36751792521943,0.658714652061,3.28362369537,129.683441162,0
36.800000000000004,15.984960516500257,0.37441948325726904,392.60103905915804,0.469999998808,129.57886832781998,0.658714652061,3.28362369537,129.683441162,0
36.9,15.95822325224726,0.2370941005695394,392.6306312113828,0.469999998808,129.7902187304205,1.07832288742,2.90372157097,129.517349243,0
37.0,15.931497228579193,0.10229646014216802,392.66030898310265,0.46997964325903635,129.99796444316232,1.07832288742,2.90372157097,129.517349243,0
37.1,15.906273986476549,0.30543892641013626,392.7014334366077,0.46723790408783067,129.72379026456184,1.07832288742,2.90372157097,129.517349243,0
37.2,15.881050744373905,0.5085813926781044,392.7425578901128,0.46449616491662493,129.44961608596137,1.07832288742,2.90372157097,129.517349243,0
37.300000000000004,15.855827502271262,0.7117238589460727,392.78368234361784,0.46175442574541925,129.17544190736086,1.2616612784481398,2.749940260898713,130.03197766421474,0
37.4,15.832387485319726,0.8138193838990967,392.8210257161694,0.460000008345,128.79946134518647,1.41167664528,2.62311577797,130.441253662,0
37.5,15.812116163039505,0.7363599579257412,392.8516503123164,0.460000008345,128.2425763442558,1.41167664528,2.62311577797,130.441253662,0
37.6,15.791844840759286,0.6589005319523855,392.88227490846333,0.460000008345,127.68569134332513,1.41167664528,2.62311577797,130.441253662,0
37.7,15.771573518479064,0.58144110597903,392.9128995046103,0.460000008345,127.12880634239445,1.369489307572781,4.689886256822051,129.1660055460417,0
37.800000000000004,15.766154952015002,0.36849829358172503,392.93091671935645,0.460000008345,127.0,1.36717772484,4.83406257629,129.107391357,0
37.9,15.765205492134527,0.11478932965481942,392.9451404474313,0.460000008345,127.0,1.36717772484,4.83406257629,129.107391357,0
38.0,15.764256032254051,-0.1389196342721043,392.9593641755061,0.460000008345,127.0,1.36717772484,4.83406257629,129.107391357,0
38.1,15.767708515210249,-0.31012403717563347,392.96603292637786,0.4605668477203923,127.0,1.0056989193,4.96861362457,127.405815125,0
38.2,15.784215865765985,-0.23664418122289754,392.9502958372006,0.46281476594449317,127.0,1.0056989193,4.96861362457,127.405815125,0
38.300000000000004,15.800723216321721,-0.16316432527016161,392.93455874802333,0.46506268416859403,127.0,1.0056989193,4.96861362457,127.405815125,0
38.400000000000006,15.817230566877457,-0.08968446931742569,392.91882165884607,0.4673106023926949,127.0,0.0377630479634,4.90576648712,127.684577942,0
38.5,15.833737917433194,-0.016204613364694975,392.9030845696688,0.4695585206167956,127.0,0.0377630479634,4.90576648712,127.684577942,0
38.6,15.899219655738083,-0.16941915030299617,392.87173721034327,0.4752980063210029,126.11699878291742,0.0377630479634,4.90576648712,127.684577942,0
38.7,15.97667030733381,-0.37803582000362196,392.83657483712096,0.4818908006695685,125.0181997684821,0.0377630479634,4.90576648712,127.684577942,0
38.800000000000004,16.054120958929538,-0.5866524897042479,392.8014124638986,0.4884835950181341,123.91940075404679,-0.10214779786669326,0.5900256063169298,127.65084900965415,0
38.900000000000006,16.131571610525267,-0.7952691594048737,392.7662500906763,0.4950763893666997,122.82060173961148,-0.315612375736,-6.79691696167,127.593971252,0
39.0,16.226896300658208,-0.8919247755276096,392.7198160249032,0.5024454594981822,121.51090836273677,-0.315612375736,-6.79691696167,127.593971252,0
39.1,16.374944250308417,-0.6583275687463597,392.64013371641687,0.5121043193419615,119.57913743027942,-0.315612375736,-6.79691696167,127.593971252,0
39.2,16.522992199958626,-0.4247303619651096,392.5604514079305,0.5217631791857409,117.64736649782206,-0.315612375736,-6.79691696167,127.593971252,0
39.300000000000004,16.671040149608835,-0.19113315518385965,392.48076909944416,0.5314220390295202,115.71559556536471,-0.530529539485529,-27.359554291457826,122.70064004966883,0
39.400000000000006,16.826759588763938,-0.04199991671233985,392.3960473895161,0.5413419190543459,113.67794426973887,-0.542292535305,-28.817855835,122.479881287,0
39.5,17.04336095702753,-0.5631836131169997,392.2713323404689,0.5533332888658952,110.80001277034133,-0.542292535305,-28.817855835,122.479881287,0
39.6,17.25996232529114,-1.0843673095216968,392.14661729142165,0.5653246586774454,107.92208127094358,-0.542292535305,-28.817855835,122.479881287,0
39.7,17.476563693554752,-1.6055510059263938,392.02190224237444,0.5773160284889955,105.04414977154583,-0.827538192272,-37.502456665,114.259506226,0
39.800000000000004,17.693165061818362,-2.1267347023310905,391.89718719332717,0.5893073983005457,102.16621827214809,-0.827538192272,-37.502456665,114.259506226,0
39.900000000000006,17.990630247903557,-2.1468750327870563,391.7089455443971,0.6076621266275276,98.90912490869398,-0.827538192272,-37.502456665,114.259506226,0
40.0,18.293052095313584,-2.136303206174804,391.51680994327415,0.6264069059550584,95.6287902860706,-0.827538192272,-37.502456665,114.259506226,0
40.1,18.59547394272363,-2.125731379562551,391.3246743421511,0.6451516852825905,92.34845566344698,-1.124463804603637,-40.34374308699289,107.19314138099001,0
40.2,18.897895790133678,-2.1151595529502987,391.1325387410281,0.6638964646101226,89.06812104082337,-1.34144091606,-42.6018676758,102.260826111,0
40.300000000000004,19.22706412409558,-2.5153838825364696,390.95117516568604,0.6758667764931873,85.21328643539196,-1.34144091606,-42.6018676758,102.260826111,0
40.400000000000006,19.56914643946017,-3.113952540868616,390.77501263760433,0.6845661785159483,81.08106653378572,-1.34144091606,-42.6018676758,102.260826111,0
