t_sec,airspeed,climb,altitude,throttle,heading,pitch,roll,yaw,is_boundary
0.0,22.9147205353,0.827001035213,419.149993896,0.469999998808,336.0,-1.5155274868,29.0366401672,-29.332277298,0
0.1,22.806029493807277,1.5146831590409047,419.25168973949616,0.45344458120502185,337.18252994960494,-1.2641189083933488,29.293320856260404,-26.604966904838776,0
0.2,22.69733845231455,2.2023652828688096,419.3533855829923,0.4368891636020438,338.3650598992098,-1.01379668713,29.5496997833,-23.8819484711,0
0.30000000000000004,22.588647410821828,2.8900474066967146,419.45508142648845,0.42033374599906564,339.54758984881477,-1.01379668713,29.5496997833,-23.8819484711,0
0.4,22.479956369329102,3.5777295305246195,419.5567772699846,0.40377832839608757,340.7301197984197,-1.01379668713,29.5496997833,-23.8819484711,0
0.5,22.32262538469416,3.5510159961297223,419.633177803949,0.37636049879655536,341.88648145588843,-1.01379668713,29.5496997833,-23.8819484711,0
0.6000000000000001,22.150911053448443,3.313048095351044,419.7020982468377,0.3457305388637562,343.0351048720746,-1.50878953934,36.8799057007,-18.4419307709,0
0.7000000000000001,21.979196722202726,3.0750801945723665,419.77101868972636,0.3151005789309571,344.18372828826074,-1.50878953934,36.8799057007,-18.4419307709,0
0.8,21.807482390957006,2.8371122937936883,419.83993913261503,0.284470618998158,345.33235170444686,-1.50878953934,36.8799057007,-18.4419307709,0
0.9,21.63576805971129,2.5991443930150107,419.9088595755037,0.2538406590653589,346.48097512063305,-1.50878953934,36.8799057007,-18.4419307709,0
1.0,21.465483281307492,2.196473099763166,419.8974967579899,0.22528704341445682,347.49043176909197,-1.50878953934,36.8799057007,-18.4419307709,0
1.1,21.296376989586776,1.6580245557546691,419.81995048052715,0.19844511271422255,348.3851629050102,-5.62240743637,42.7515335083,-12.9230051041,0
1.2000000000000002,21.12727069786606,1.1195760117461726,419.74240420306444,0.17160318201398828,349.2798940409284,-5.62240743637,42.7515335083,-12.9230051041,0
1.3,20.964350298818665,0.561840455697111,419.63091889172915,0.147207213606521,350.2792792044353,-5.62240743637,42.7515335083,-12.9230051041,0
1.4000000000000001,20.82693881123911,-0.07542940665246267,419.3794783861997,0.13289771757659208,351.71022864904046,-7.954414026935442,43.68952470123773,-10.403236444191744,0
1.5,20.689527323659554,-0.712699269002035,419.1280378806703,0.11858822154666322,353.14117809364564,-8.87642383575,44.0576400757,-9.40550518036,0
1.6,20.55211583608,-1.3499691313516085,418.8765973751409,0.10427872551673431,354.5721275382508,-8.87642383575,44.0576400757,-9.40550518036,0
1.7000000000000002,20.414704348500443,-1.9872389937011823,418.6251568696115,0.08996922948680541,356.00307698285604,-8.87642383575,44.0576400757,-9.40550518036,0
1.8,20.29776156031727,-2.5001148461460536,418.33736464260437,0.07929614450352054,332.1539589110724,-8.87642383575,44.0576400757,-9.40550518036,0
1.9000000000000001,20.22783369166012,-2.727267885825295,417.966075500292,0.07697559669959926,250.23860434428897,-14.5036029816,42.0180931091,-1.92525017262,0
2.0,20.157905823002967,-2.954420925504535,417.5947863579796,0.07465504889567798,168.32324977750574,-14.5036029816,42.0180931091,-1.92525017262,0
2.1,20.087977954345813,-3.181573965183776,417.2234972156673,0.0723345010917567,86.4078952107223,-14.5036029816,42.0180931091,-1.92525017262,0
2.2,20.018050085688664,-3.4087270048630174,416.8522080733549,0.07001395328783541,4.4925406439389235,-14.5036029816,42.0180931091,-1.92525017262,0
2.3000000000000003,20.01480606662737,-4.062457950633525,416.3750075495135,0.06766025448508617,5.403847257643698,-15.910147422104954,41.80240482065246,1.1598690197461787,0
2.4000000000000004,20.01196542967286,-4.718769339727391,415.89716634945927,0.06530635514622765,6.816186629462264,-17.3775100708,41.576915741,4.39019584656,0
2.5,20.009124792718346,-5.3750807288212545,415.41932514940504,0.06295245580736913,8.228526001280821,-17.3775100708,41.576915741,4.39019584656,0
2.6,20.006284155763836,-6.0313921179151215,414.9414839493508,0.06059855646851062,9.640865373099388,-17.3775100708,41.576915741,4.39019584656,0
2.7,19.984605108825058,-5.680948408595608,414.39595157603895,0.056661189127269834,11.335524091269102,-17.3775100708,41.576915741,4.39019584656,0
2.8000000000000003,19.95650231059409,-4.987209040579508,413.8273370391026,0.0521838715123632,13.126451510855032,-19.0216350555,39.5177993774,10.7527656555,0
2.9000000000000004,19.956654649871638,-5.1432185370184555,413.24155090093507,0.0500000007451,14.786832236635796,-19.0216350555,39.5177993774,10.7527656555,0
3.0,19.98371215544647,-6.108377679330074,412.63941358462955,0.0500000007451,16.322903515848424,-20.2785224915,38.219909668,14.7328510284,0
3.1,20.0107696610213,-7.073536821641696,412.037276268324,0.0500000007451,17.858974795061062,-20.2785224915,38.219909668,14.7328510284,0
3.2,20.045313562826195,-7.709558840591755,411.4449733423408,0.0500000007451,19.398413219954705,-20.2785224915,38.219909668,14.7328510284,0
3.3000000000000003,20.101480681134028,-7.39492275130189,410.88107542520027,0.0500000007451,20.94757708788127,-20.685754776,37.8753890991,19.8628005981,0
3.4000000000000004,20.157647799441865,-7.080286662012026,410.3171775080598,0.0500000007451,22.496740955807837,-20.685754776,37.8753890991,19.8628005981,0
3.5,20.212283166193547,-6.7708641099159195,409.7506976681694,0.0500000007451,24.040471562171707,-20.685754776,37.8753890991,19.8628005981,0
3.6,20.216757804879595,-6.6321708254909435,409.0996668288536,0.0500000007451,25.40627752099007,-20.2832584381,38.2640609741,24.0515441895,0
3.7,20.221232443565643,-6.493477541065968,408.44863598953776,0.0500000007451,26.772083479808437,-20.2832584381,38.2640609741,24.0515441895,0
3.8000000000000003,20.225707082251695,-6.354784256640993,407.79760515022195,0.0500000007451,28.1378894386268,-20.2832584381,38.2640609741,24.0515441895,0
3.9000000000000004,20.230181720937743,-6.216090972216017,407.14657431090615,0.0500000007451,29.503695397445167,-20.2832584381,38.2640609741,24.0515441895,0
4.0,20.27355822023492,-6.418825230808139,406.46187824871737,0.047022432698211485,31.042148742642482,-20.2832584381,38.2640609741,24.0515441895,0
4.1000000000000005,20.339139598604653,-6.8164436719466295,405.75796633949443,0.042345291999198044,32.6791478714222,-20.3326950073,36.4541244507,30.4031257629,0
4.2,20.40472097697438,-7.214062113085116,405.05405443027155,0.03766815130018465,34.31614700020191,-20.3326950073,36.4541244507,30.4031257629,0
4.3,20.470302355344113,-7.611680554223603,404.3501425210486,0.03299101060117125,35.953146128981615,-20.3326950073,36.4541244507,30.4031257629,0
4.4,20.535755749432198,-7.793310674373718,403.65931128248445,0.042406304648453616,37.413543489065795,-20.3326950073,36.4541244507,30.4031257629,0
4.5,20.600982113244427,-7.591800869314292,402.99168373917087,0.07682005402891423,38.5606684085835,-20.92204206148442,32.50866941987877,36.66696108495015,0
4.6000000000000005,20.666208477056657,-7.390291064254865,402.3240561958573,0.11123380340937514,39.707793328101225,-20.9986667633,31.9948062897,37.4824447632,0
4.7,20.731434840868882,-7.188781259195439,401.65642865254364,0.14564755278983574,40.85491824761893,-20.9986667633,31.9948062897,37.4824447632,0
4.800000000000001,20.79669460140232,-6.988045887424984,400.98880982721374,0.180069991781628,42.002332820861575,-20.9986667633,31.9948062897,37.4824447632,0
4.9,20.880671370130873,-7.221337380969847,400.3260769477445,0.21936247551537855,43.31208222661255,-20.78883102657258,27.96006523940591,41.18698602967372,0
5.0,20.96464813885943,-7.454628874514709,399.66334406827536,0.25865495924912907,44.621831632363524,-20.6970405579,26.2265453339,42.8216323853,0
5.1000000000000005,21.04862490758799,-7.687920368059574,399.00061118880615,0.29794744298287995,45.931581038114516,-20.6970405579,26.2265453339,42.8216323853,0
5.2,21.151313169638996,-7.907620380989579,398.3503560240259,0.3353919130353985,47.17973003490796,-20.6970405579,26.2265453339,42.8216323853,0
5.300000000000001,21.336841018568,-8.067148144714642,397.7553422401552,0.364654850632971,48.15516149165164,-19.7824726105,21.0103111267,47.2697296143,0
5.4,21.522368867496997,-8.226675908439702,397.1603284562845,0.39391778823054324,49.13059294839531,-19.7824726105,21.0103111267,47.2697296143,0
5.5,21.707896716425996,-8.386203672164765,396.5653146724138,0.4231807258281155,50.106024405138974,-19.7824726105,21.0103111267,47.2697296143,0
5.6000000000000005,21.888041637027833,-8.483826595927711,395.98764760689295,0.45140613129445273,51.0703071579791,-19.7824726105,21.0103111267,47.2697296143,0
5.7,22.009109083741993,-7.9020457929259065,395.600360245144,0.4682446533275905,51.91223322618346,-17.05264671084794,18.586972689094516,49.36599458371515,0
5.800000000000001,22.130176530456158,-7.320264989924098,395.213072883395,0.4850831753607285,52.754159294387826,-14.1132535934,15.9749403,51.7415771484,0
5.9,22.25124397717032,-6.738484186922294,394.82578552164597,0.5019216973938663,53.59608536259219,-14.1132535934,15.9749403,51.7415771484,0
6.0,22.331041838819047,-6.114730045038561,394.57034152517303,0.5145419886037722,54.302799563209064,-14.1132535934,15.9749403,51.7415771484,0
6.1000000000000005,22.372782726800757,-5.452269959055469,394.43647760934607,0.5232724151807626,54.88482740034333,-9.02434253693,11.7221670151,54.4989395142,0
6.2,22.414523614782468,-4.789809873072382,394.30261369351916,0.532002841757753,55.4668552374776,-9.02434253693,11.7221670151,54.4989395142,0
6.300000000000001,22.4434333098997,-4.098362971221149,394.18882528341504,0.5398233684252364,56.03533042966033,-9.02434253693,11.7221670151,54.4989395142,0
6.4,22.332399203876573,-3.090770467134286,394.2939909963101,0.537720043636463,56.45599328124024,-4.720362700769397,8.07484113027347,56.19187176006771,0
6.5,22.22136509785345,-2.0831779630474228,394.39915670920504,0.5356167188476896,56.87665613282016,-3.6523501873,7.20946121216,56.6129646301,0
6.6000000000000005,22.110330991830324,-1.0755854589605511,394.5043224221,0.5335133940589162,57.29731898440007,-3.6523501873,7.20946121216,56.6129646301,0
6.7,21.9992968858072,-0.06799295487368884,394.609488134995,0.5314100692701428,57.71798183597999,-3.6523501873,7.20946121216,56.6129646301,0
6.800000000000001,21.857568604769764,0.7222861354430798,394.7605766225656,0.5276064142430924,58.0,-3.6523501873,7.20946121216,56.6129646301,0
6.9,21.653405079829422,1.0705264354752555,395.0050769590045,0.520344105152435,58.0,0.934924304485,4.90690851212,58.1670646667,0
7.0,21.44924155488908,1.418766735507431,395.24957729544343,0.5130817960617777,58.0,0.934924304485,4.90690851212,58.1670646667,0
7.1000000000000005,21.245078029948736,1.7670070355396095,395.4940776318823,0.5058194869711204,58.0,0.934924304485,4.90690851212,58.1670646667,0
7.2,21.040041092553093,2.0467953586716625,395.7451343422677,0.4990575600664782,58.04712197139751,0.934924304485,4.90690851212,58.1670646667,0
7.300000000000001,20.831481328375652,2.0504890875195936,396.0226355687462,0.49431387752658856,58.28430597115463,3.74966073036,9.11302947998,58.0674667358,0
7.4,20.62292156419822,2.054182816367524,396.30013679522466,0.489570194986699,58.52148997091176,3.74966073036,9.11302947998,58.0674667358,0
7.5,20.41436180002078,2.0578765452154553,396.57763802170314,0.4848265124468094,58.75867397066888,3.74966073036,9.11302947998,58.0674667358,0
7.6000000000000005,20.205802035843345,2.061570274063386,396.8551392481816,0.4800828299069198,58.995857970426,3.74966073036,9.11302947998,58.0674667358,0
7.7,20.027166732009047,3.1315934495216684,397.1226835160836,0.4764973504236884,59.700528437556294,4.039165989615438,10.92331818389956,58.58970596346832,0
7.800000000000001,19.84906329803334,4.22056929732483,397.3900508114993,0.4729324565513218,60.41350789199811,4.61839866638,14.5554981232,59.635509491,0
7.9,19.678218793442262,4.959256670076305,397.64405989782824,0.469999998808,61.09335351517082,4.61839866638,14.5554981232,59.635509491,0
8.0,19.541032238965993,4.07373868217996,397.83613010705255,0.469999998808,61.61956534734275,4.358310311936796,17.513631060185947,60.535607346031114,0
8.1,19.403845684489724,3.188220694283615,398.0282003162769,0.469999998808,62.14577717951468,4.16322183609,19.7336139679,61.2107276917,0
8.200000000000001,19.266659130013455,2.302702706387254,398.22027052550123,0.469999998808,62.67198901168662,4.16322183609,19.7336139679,61.2107276917,0
8.3,19.14806078471439,1.8470391561253439,398.3854366341151,0.469999998808,63.22720494772289,4.16322183609,19.7336139679,61.2107276917,0
8.4,19.060224855682034,2.1027599580914416,398.5060780047957,0.469999998808,63.83042100620299,3.10955238342,26.2725753784,63.2033653259,0
8.5,18.972388926649682,2.358480760057539,398.6267193754763,0.469999998808,64.4336370646831,3.10955238342,26.2725753784,63.2033653259,0
8.6,18.88794883189712,2.570944217204192,398.7408267871344,0.470119493780356,65.05974754315923,3.10955238342,26.2725753784,63.2033653259,0
8.700000000000001,18.855696299703016,2.1186239414373302,398.7545195827814,0.47207540090696704,66.03770203913997,1.57761669159,29.0655422211,65.5372619629,0
8.8,18.82344376750891,1.6663036656704764,398.76821237842853,0.47403130803357807,67.01565653512068,1.57761669159,29.0655422211,65.5372619629,0
8.9,18.791191235314805,1.2139833899036228,398.7819051740756,0.4759872151601891,67.9936110311014,1.57761669159,29.0655422211,65.5372619629,0
9.0,18.758938703120698,0.7616631141367689,398.7955979697227,0.47794312228680014,68.9715655270821,1.57761669159,29.0655422211,65.5372619629,0
9.1,18.726686170926595,0.3093428383699153,398.8092907653697,0.47989902941341117,69.94952002306282,1.57761669159,29.0655422211,65.5372619629,0
9.200000000000001,18.753074398532664,0.30358721723645604,398.7396931740761,0.4858581846189366,71.17163844106187,-0.5596158671158087,29.902432623600323,69.10025114366842,0
9.3,18.782654287086295,0.3221369252565146,398.6655623080395,0.49203522599443,72.40704605342614,-1.59942960739,30.3102378845,70.8297042847,0
9.4,18.81223417563993,0.34068663327657317,398.59143144200294,0.4982122673699234,73.64245366579041,-1.59942960739,30.3102378845,70.8297042847,0
9.5,18.86326947961811,0.010510763231081466,398.50629751513696,0.50159200506832,74.79600329330833,-1.66355550746973,30.293940119448823,70.99650940851616,0
9.600000000000001,18.923043413861564,-0.4616984270954476,398.4166821238727,0.5038324218964313,75.91621277570776,-2.71750020981,30.0243911743,74.9035644531,0
9.700000000000001,18.982817348105016,-0.9339076174219683,398.32706673260844,0.5060728387245426,77.03642225810717,-2.71750020981,30.0243911743,74.9035644531,0
9.8,19.042591282348468,-1.406116807748489,398.2374513413442,0.5083132555526538,78.15663174050658,-2.71750020981,30.0243911743,74.9035644531,0
9.9,19.10427500370291,-1.696509035034761,398.14502268715813,0.5106240049614557,79.24960603740655,-2.71750020981,30.0243911743,74.9035644531,0
10.0,19.171776694703965,-1.433014619081832,398.04402371736336,0.5131490153301681,80.2596111480324,-2.46554374695,26.5305728912,79.5165176392,0
10.100000000000001,19.239278385705024,-1.1695202031288983,397.9430247475686,0.5156740256988805,81.26961625865829,-2.46554374695,26.5305728912,79.5165176392,0
10.200000000000001,19.30678007670608,-0.9060257871759692,397.84202577777376,0.518199036067593,82.27962136928414,-2.46554374695,26.5305728912,79.5165176392,0
10.3,19.37078497128537,-0.6925741292748735,397.74936094698563,0.5205730055577735,83.28651258863387,-2.46554374695,26.5305728912,79.5165176392,0
10.4,19.42609239656219,-0.6035922143814864,397.67742535216945,0.52257129592741,84.28565872633774,-2.56120562553,22.1844863892,83.4729385376,0
10.5,19.48139982183901,-0.5146102994880992,397.6054897573533,0.5245695862970464,85.28480486404163,-2.56120562553,22.1844863892,83.4729385376,0
10.600000000000001,19.536707247115828,-0.4256283845947105,397.5335541625372,0.5265678766666829,86.28395100174554,-2.56120562553,22.1844863892,83.4729385376,0
10.700000000000001,19.592014672392644,-0.33664646970132334,397.461618567721,0.5285661670363193,87.28309713944942,-2.56120562553,22.1844863892,83.4729385376,0
10.8,19.639213010870083,-0.3345639764351002,397.4037890144189,0.52999997139,88.15533300651306,-2.5363970651074585,21.853275580263656,83.71401454674701,0
10.9,19.665814127044968,-0.5532075340177947,397.3817890532846,0.52999997139,88.70521456642412,-2.08880710602,15.8819112778,88.2140045166,0
11.0,19.692415243219852,-0.771851091600489,397.3597890921502,0.52999997139,89.25509612633516,-2.08880710602,15.8819112778,88.2140045166,0
11.100000000000001,19.719016359394736,-0.9904946491831873,397.3377891310158,0.52999997139,89.80497768624622,-2.08880710602,15.8819112778,88.2140045166,0
11.200000000000001,19.7215057681028,-1.059615835602139,397.3495198274963,0.5282244787228967,90.17754943603923,-2.059510553996775,15.76706939884699,88.27733502635901,0
11.3,19.710743948247273,-1.0465630358615678,397.3797881018016,0.525473216953703,90.45267587534669,-1.03179490566,11.7042970657,90.5052642822,0
11.4,19.699982128391746,-1.0335102361209967,397.41005637610687,0.5227219551845093,90.72780231465414,-1.03179490566,11.7042970657,90.5052642822,0
11.5,19.68896484987973,-1.0122703215108964,397.4408852296061,0.5199684526551875,91.00315283018779,-1.03179490566,11.7042970657,90.5052642822,0
11.600000000000001,19.654205305575104,-0.23012192965532385,397.5238141779061,0.5170066944211363,91.29932893602644,0.18916584206186626,9.091502273971669,91.53743609698081,0
11.700000000000001,19.619445761270477,0.5520264622002349,397.6067431262061,0.5140449361870852,91.59550504186508,0.470380604267,8.77328872681,91.7771072388,0
11.8,19.584686216965846,1.3341748540557934,397.68967207450606,0.511083177953034,91.89168114770374,0.470380604267,8.77328872681,91.7771072388,0
11.9,19.532601704127686,1.555997311516631,397.78926405123093,0.5080759464989181,92.0,0.470380604267,8.77328872681,91.7771072388,0
12.0,19.47052758124129,1.4547347617127722,397.8984639620692,0.5050424950989936,92.0,1.28190791607,5.23366785049,92.6006622314,0
12.100000000000001,19.408453458354888,1.3534722119089115,398.0076638729075,0.5020090436990688,92.0,1.28190791607,5.23366785049,92.6006622314,0
12.200000000000001,19.345185549696204,1.324222446300258,398.11347514484845,0.4983255449113314,91.91627729047961,1.28190791607,5.23366785049,92.6006622314,0
12.3,19.27957641714605,1.4362024178547792,398.21264069983573,0.49336718884998043,91.6683596204075,1.55201029778,1.44529557228,92.6765136719,0
12.4,19.213967284595896,1.5481823894093003,398.31180625482307,0.48840883278862945,91.42044195033539,1.55201029778,1.44529557228,92.6765136719,0
12.5,19.14835815204574,1.6601623609638214,398.41097180981035,0.4834504767272785,91.17252428026327,1.55201029778,1.44529557228,92.6765136719,0
12.600000000000001,19.078579727420596,1.6772564657166185,398.5123068255018,0.4789225108440275,90.78450410908707,1.55201029778,1.44529557228,92.6765136719,0
12.700000000000001,18.99926062401354,1.477221244959198,398.6186062637705,0.4753794158612276,90.07588443671652,1.84877121449,-0.892877578735,91.4917449951,0
12.8,18.919941520606486,1.2771860242017772,398.72490570203917,0.4718363208784278,89.36726476434598,1.84877121449,-0.892877578735,91.4917449951,0
12.9,18.83562176626828,1.2403320592305702,398.83235064111483,0.46895296256426217,88.89529627577028,1.84877121449,-0.892877578735,91.4917449951,0
13.0,18.745921796668387,1.3790452943878813,398.9410280279276,0.4667794169009194,88.67794150214475,1.91057980061,-2.90809774399,89.9242782593,0
13.100000000000001,18.656221827068496,1.517758529545195,399.04970541474034,0.4646058712375766,88.46058672851922,1.91057980061,-2.90809774399,89.9242782593,0
13.200000000000001,18.566521857468604,1.6564717647025062,399.15838280155316,0.46243232557423386,88.2432319548937,1.91057980061,-2.90809774399,89.9242782593,0
13.3,18.476821887868713,1.7951849998598175,399.2670601883659,0.4602587799108911,88.02587718126817,1.91057980061,-2.90809774399,89.9242782593,0
13.4,18.403336154191585,1.7476011769796682,399.36157576624845,0.4570865259158127,88.0,1.6658837816938663,-3.6625660827833735,89.59438057287693,0
13.5,18.332041688520977,1.6748402945741074,399.4541774507492,0.45377930178550246,88.0,1.09528982639,-5.41733312607,88.8125991821,0
13.600000000000001,18.26074722285037,1.6020794121685455,399.54677913525,0.45047207765519215,88.0,1.09528982639,-5.41733312607,88.8125991821,0
13.700000000000001,18.191928554760434,1.4218520668800376,399.61897721600184,0.4456309509765201,87.34464380961482,0.9072532226067928,-4.626049633119156,88.61516752203202,0
13.8,18.123522141612295,1.22373005170943,399.6877778112154,0.44053440805916405,86.58016164292476,0.628619134426,-3.45257735252,88.2915115356,0
13.9,18.055115728464155,1.0256080365388225,399.756578406429,0.435437865141808,85.81567947623472,0.628619134426,-3.45257735252,88.2915115356,0
14.0,17.986709315316016,0.8274860213682148,399.8253790016426,0.4303413222244519,85.05119730954466,0.628619134426,-3.45257735252,88.2915115356,0
14.100000000000001,17.934105233827257,0.8155583341686441,399.86308183417555,0.42834534168318694,84.83453378835252,0.455438175281004,-2.6825477716074175,87.77364198512097,0
14.200000000000001,17.882635393248545,0.8169950813168646,399.89855256859767,0.4265719096092574,84.65719094036258,-0.142717659473,-0.0166458655149,85.9852905273,0
14.3,17.831165552669834,0.8184318284650852,399.9340233030198,0.42479847753532785,84.47984809237263,-0.142717659473,-0.0166458655149,85.9852905273,0
14.4,17.779695712091126,0.8198685756133058,399.9694940374419,0.4230250454613983,84.3025052443827,-0.142717659473,-0.0166458655149,85.9852905273,0
14.5,17.728225871512414,0.8213053227615265,400.0049647718641,0.42125161338746875,84.12516239639277,-0.142717659473,-0.0166458655149,85.9852905273,0
14.600000000000001,17.68386472003491,0.7779002414573478,400.029998779,0.419999986887,84.0,-0.142717659473,-0.0166458655149,85.9852905273,0
14.700000000000001,17.656554792452276,0.6269355178744375,400.029998779,0.419999986887,84.0,-1.34352910519,3.34408092499,84.1161651611,0
14.8,17.62924486486964,0.47597079429152706,400.029998779,0.419999986887,84.0,-1.34352910519,3.34408092499,84.1161651611,0
14.9,17.601934937287,0.3250060707086167,400.029998779,0.419999986887,84.0,-1.34352910519,3.34408092499,84.1161651611,0
15.0,17.574625009704366,0.1740413471257063,400.029998779,0.419999986887,84.0,-1.34352910519,3.34408092499,84.1161651611,0
15.100000000000001,17.560971351449012,0.032449806891506394,400.0019583645143,0.42200266815734816,84.0,-1.4577123725198537,3.46857949515234,84.11748446762124,0
15.200000000000001,17.556543569146637,-0.10280941631032242,399.95497446118,0.42535831695717186,84.0,-2.80329227448,4.93189144135,84.160446167,0
15.3,17.55211578684426,-0.23806863951215124,399.90799055784566,0.4287139657569956,84.0,-2.80329227448,4.93189144135,84.160446167,0
15.4,17.564005728602787,-0.37365436385672796,399.83546290373573,0.4316035884029662,84.0,-2.80329227448,4.93189144135,84.160446167,0
15.5,17.586035404395982,-0.5094429740165766,399.747062518959,0.43420362524422335,84.0,-3.89585828781,6.20673036575,84.2886810303,0
15.600000000000001,17.608065080189174,-0.6452315841764277,399.6586621341823,0.43680366208548055,84.0,-3.89585828781,6.20673036575,84.2886810303,0
15.700000000000001,17.630094755982366,-0.7810201943362763,399.57026174940563,0.4394036989267377,84.0,-3.89585828781,6.20673036575,84.2886810303,0
15.8,17.66906875432962,-1.0939772095083167,399.4515830248522,0.4449203137345752,84.0,-3.89585828781,6.20673036575,84.2886810303,0
15.9,17.71308526650003,-1.4596583231771052,399.3238936746819,0.4513048820805893,84.0,-4.62164068222,7.06874704361,84.2409744263,0
16.0,17.757101778670442,-1.8253394368458937,399.1962043245116,0.45768945042660336,84.0,-4.62164068222,7.06874704361,84.2409744263,0
16.1,17.80592936315615,-1.8120669198719748,399.07900397239285,0.46154329475026684,84.0,-4.6165275633265725,7.106320024142262,84.24555173567191,0
16.2,17.857485527116946,-1.5838724414688439,398.9677524115045,0.4639618495642422,84.0,-4.54608058929,7.59755134583,84.3109359741,0
16.3,17.909041691077746,-1.355677963065705,398.8565008506161,0.46638040437821765,84.0,-4.54608058929,7.59755134583,84.3109359741,0
16.400000000000002,17.960597855038543,-1.1274834846625659,398.74524928972767,0.46879895919219305,84.0,-4.54608058929,7.59755134583,84.3109359741,0
16.5,18.01103978518021,-1.006123284549446,398.64579552017915,0.4721564158663245,84.10782079507575,-4.54608058929,7.59755134583,84.3109359741,0
16.6,18.060382559467346,-0.9901516666449623,398.55797989264283,0.47644006905208774,84.3220033394657,-4.11411142349,6.42277193069,84.9732208252,0
16.7,18.109725333754483,-0.9741800487404791,398.47016426510646,0.4807237222378508,84.53618588385562,-4.11411142349,6.42277193069,84.9732208252,0
16.8,18.15906810804162,-0.9582084308359953,398.38234863757015,0.48500737542361405,84.75036842824557,-4.11411142349,6.42277193069,84.9732208252,0
16.900000000000002,18.208410882328753,-0.9422368129315115,398.2945330100338,0.4892910286093773,84.9645509726355,-4.11411142349,6.42277193069,84.9732208252,0
17.0,18.244494336754464,-1.1691839576442753,398.2220172685437,0.490000009537,85.0,-3.496053630512182,5.36781860341234,85.46645412735133,0
17.1,18.27794801026149,-1.4443102799768002,398.15253602269917,0.490000009537,85.0,-3.19417333603,4.88371419907,85.7090759277,0
17.2,18.304863783160187,-1.4265209551323752,398.09297906809996,0.49089506475324596,85.0,-3.19417333603,4.88371419907,85.7090759277,0
17.3,18.321449585222858,-0.9459209707166192,398.04910262705914,0.4932043192414526,85.0,-2.28762364388,4.7758102417,85.5888671875,0
17.400000000000002,18.33803538728553,-0.46532098630086316,398.00522618601826,0.49551357372965926,85.0,-2.28762364388,4.7758102417,85.5888671875,0
17.5,18.354621189348205,0.015278998114875764,397.96134974497744,0.49782282821786583,85.0,-2.28762364388,4.7758102417,85.5888671875,0
17.6,18.369464139526166,0.4552335859215875,397.91998291,0.5,85.0,-2.28762364388,4.7758102417,85.5888671875,0
17.7,18.355578968842142,0.22521393408580564,397.91998291,0.5,85.0,-1.7340290370218985,4.593378759745496,85.49877081734351,0
17.8,18.341693798158122,-0.004805717749984395,397.91998291,0.5,85.0,-0.858623504639,4.3057384491,85.3563079834,0
17.900000000000002,18.3278086274741,-0.2348253695857745,397.91998291,0.5,85.0,-0.858623504639,4.3057384491,85.3563079834,0
18.0,18.313923456790075,-0.46484502142155637,397.91998291,0.5,85.0,-0.858623504639,4.3057384491,85.3563079834,0
18.1,18.30003828610605,-0.6948646732573465,397.91998291,0.5,85.0,-0.858623504639,4.3057384491,85.3563079834,0
18.2,18.267708646987064,-0.41351810515212173,397.95495346539195,0.4975023669101553,84.75023645281604,-0.858623504639,4.3057384491,85.3563079834,0
18.3,18.230821182473672,-0.005807475577617405,397.99856561899446,0.49438754197426094,84.43875366216547,0.900053203106,3.82923126221,85.0706100464,0
18.400000000000002,18.19393371796028,0.40190315399688703,398.0421777725969,0.49127271703836656,84.12727087151488,0.900053203106,3.82923126221,85.0706100464,0
18.5,18.158555248073274,0.6197668844093696,398.08603437195904,0.4886980470495631,84.0,0.9057384942726359,3.839226052062315,85.06234244282801,0
18.6,18.124219333207197,0.706466570583488,398.13005985737914,0.486496566760926,84.0,1.11240291595,3.99865436554,84.7601013184,0
18.7,18.08988341834112,0.7931662567576035,398.1740853427993,0.48429508647228897,84.0,1.11240291595,3.99865436554,84.7601013184,0
18.8,18.055547503475044,0.879865942931722,398.21811082821944,0.4820936061836518,84.0,1.11240291595,3.99865436554,84.7601013184,0
18.900000000000002,18.02170902614049,0.9718423721967271,398.2607650965343,0.479999989271,84.0,1.11240291595,3.99865436554,84.7601013184,0
19.0,17.997525759571097,1.166239836200189,398.27680418341055,0.479999989271,84.0,0.7484730876038036,4.072194325414652,84.82721410733832,0
19.1,17.973342493001706,1.3606373002036576,398.29284327028677,0.479999989271,84.0,0.433527380228,4.13508415222,84.8857650757,0
19.200000000000003,17.949605876703124,1.1308841246079266,398.30563402443585,0.479999989271,84.0,0.433527380228,4.13508415222,84.8857650757,0
19.3,17.926228030429275,0.5604336621149051,398.3158155684511,0.479999989271,84.0,0.36003112793,5.12471532822,84.7910308838,0
19.400000000000002,17.902850184155426,-0.010016800378136681,398.32599711246644,0.479999989271,84.0,0.36003112793,5.12471532822,84.7910308838,0
19.5,17.879472337881573,-0.5804672628711582,398.3361786564817,0.479999989271,84.0,0.36003112793,5.12471532822,84.7910308838,0
19.6,17.85658914578631,-0.616690503904242,398.35816346794934,0.4784860016123742,84.0,0.36003112793,5.12471532822,84.7910308838,0
19.700000000000003,17.834002696764355,-0.3324308006771261,398.3872290603151,0.47606377266068217,84.0,0.432671129704,5.49725246429,84.1277618408,0
19.8,17.811416247742404,-0.04817109745002035,398.41629465268085,0.47364154370899014,84.0,0.432671129704,5.49725246429,84.1277618408,0
19.900000000000002,17.78882979872045,0.23608860577709545,398.44536024504663,0.4712193147572981,84.0,0.432671129704,5.49725246429,84.1277618408,0
20.0,17.769900422186375,0.4318564992703372,398.4810482748213,0.469999998808,84.0,0.432671129704,5.49725246429,84.1277618408,0
20.1,17.754677986057242,0.537925906858095,398.52344904570026,0.469999998808,84.0,0.24364963909531684,5.656937175582867,84.18785837675617,0
20.200000000000003,17.73945554992811,0.643995314445853,398.56584981657915,0.469999998808,84.0,0.222789883614,5.67447805405,84.1944885254,0
20.3,17.724233113798977,0.7500647220336072,398.60825058745803,0.469999998808,84.0,0.222789883614,5.67447805405,84.1944885254,0
20.400000000000002,17.714791204918534,0.728979054970081,398.63499149210537,0.469999998808,84.0,0.222789883614,5.67447805405,84.1944885254,0
20.5,17.711439986875348,0.5739156009728247,398.64523227493567,0.469999998808,84.0,-0.610004663467,8.00703811646,84.4008102417,0
20.6,17.708088768832162,0.41885214697556283,398.655473057766,0.469999998808,84.0,-0.610004663467,8.00703811646,84.4008102417,0
20.700000000000003,17.70473755078898,0.263788692978301,398.66571384059637,0.469999998808,84.0,-0.610004663467,8.00703811646,84.4008102417,0
20.8,17.706975639432386,0.19021533156894677,398.66468165033024,0.469999998808,84.21210216941468,-0.610004663467,8.00703811646,84.4008102417,0
20.900000000000002,17.713209421850493,0.1748977564155309,398.6555906164633,0.469999998808,84.57583232517034,-1.15841007233,9.35994625092,84.7463607788,0
21.0,17.719443204268597,0.1595801812621156,398.64649958259645,0.469999998808,84.93956248092599,-1.15841007233,9.35994625092,84.7463607788,0
21.1,17.7256769866867,0.14426260610869973,398.6374085487295,0.469999998808,85.30329263668165,-1.15841007233,9.35994625092,84.7463607788,0
21.200000000000003,17.731910769104807,0.12894503095528387,398.62831751486266,0.469999998808,85.66702279243731,-1.15841007233,9.35994625092,84.7463607788,0
21.3,17.73837312821009,0.11553085957509641,398.6197910110291,0.469999998808,86.0,-1.15841007233,9.35994625092,84.7463607788,0
21.400000000000002,17.747310398876134,0.12272577156788965,398.6173769499086,0.469999998808,86.0,-1.3879337232463171,9.063072549973828,85.76958360641831,0
21.5,17.756247669542176,0.12992068356068265,398.6149628887881,0.469999998808,86.0,-1.60053360462,8.78822898865,86.7228012085,0
21.6,17.765184940208222,0.13711559555347588,398.61254882766764,0.469999998808,86.0,-1.60053360462,8.78822898865,86.7228012085,0
21.700000000000003,17.774122210874268,0.14431050754626912,398.61013476654716,0.469999998808,86.0,-1.60053360462,8.78822898865,86.7228012085,0
21.8,17.766620140269072,0.26468718673793334,398.62211775716474,0.469999998808,86.0,-1.1117330771785945,8.21637143361854,86.89299394442806,0
21.900000000000002,17.758033451534132,0.39253125739226513,398.63505062181156,0.469999998808,86.0,-1.03844630718,8.13465309143,86.918510437,0
22.0,17.74944676279919,0.5203753280465925,398.6479834864583,0.469999998808,86.0,-1.03844630718,8.13465309143,86.918510437,0
22.1,17.74086007406425,0.6482193987009243,398.6609163511051,0.469999998808,86.0,-1.03844630718,8.13465309143,86.918510437,0
22.200000000000003,17.72891362621299,0.6888927849442216,398.6713813306559,0.4693014712939418,86.0,-1.03844630718,8.13465309143,86.918510437,0
22.3,17.709088480748125,0.525149295016829,398.67605907375804,0.4669648837679907,86.0,-0.875752866268,4.5192565918,86.8004989624,0
22.400000000000002,17.689263335283265,0.3614058050894306,398.6807368168602,0.4646282962420396,86.0,-0.875752866268,4.5192565918,86.8004989624,0
22.5,17.6694381898184,0.19766231516203803,398.68541455996234,0.46229170871608855,86.0,-0.875752866268,4.5192565918,86.8004989624,0
22.6,17.649480031449894,0.03931631880857858,398.6901746426602,0.460000008345,85.99655512576318,-0.875752866268,4.5192565918,86.8004989624,0
22.700000000000003,17.62273093875777,0.1565377551476577,398.6991385489837,0.460000008345,85.8172332196442,-0.459242877592584,3.9861947180620327,86.96280764965414,0
22.8,17.595981846065644,0.27375919148673267,398.70810245530714,0.460000008345,85.63791131352521,-0.438024193048,3.95962238312,86.9714813232,0
22.900000000000002,17.56923275337352,0.3909806278258117,398.7170663616306,0.460000008345,85.45858940740622,-0.438024193048,3.95962238312,86.9714813232,0
23.0,17.542483660681395,0.5082020641648867,398.726030267954,0.460000008345,85.27926750128725,-0.438024193048,3.95962238312,86.9714813232,0
23.1,17.51573456798927,0.6254235005039658,398.73499417427746,0.460000008345,85.09994559516825,-0.438024193048,3.95962238312,86.9714813232,0
23.200000000000003,17.49245048205844,0.48803585934433186,398.7457742067871,0.460000008345,85.0,-0.438024193048,3.95962238312,86.9714813232,0
23.3,17.47352931195063,0.03006068418299135,398.7588409897189,0.460000008345,85.0,-0.177375748754,2.99419474602,85.9218826294,0
23.400000000000002,17.454608141842822,-0.42791449097836554,398.77190777265076,0.460000008345,85.0,-0.177375748754,2.99419474602,85.9218826294,0
23.5,17.43714376064632,-0.6850393047629327,398.7808857692516,0.460000008345,85.0,-0.177375748754,2.99419474602,85.9218826294,0
23.6,17.42204823346389,-0.6155655419926547,398.7832150758207,0.460000008345,85.0,-0.162568747997,2.83314800262,85.8071365356,0
23.700000000000003,17.40695270628146,-0.5460917792223765,398.7855443823898,0.460000008345,85.0,-0.162568747997,2.83314800262,85.8071365356,0
23.8,17.391857179099024,-0.4766180164521009,398.78787368895894,0.460000008345,85.0,-0.162568747997,2.83314800262,85.8071365356,0
23.900000000000002,17.37843580513872,-0.40777818024313445,398.78654141018677,0.4602644153713982,84.97355927214366,-0.162568747997,2.83314800262,85.8071365356,0
24.0,17.380674329666775,-0.3448680435789846,398.75095894810215,0.4630020650725232,84.69979404094126,-0.996801817587083,4.247323408318514,85.34523842148147,0
24.1,17.382912854194824,-0.28195790691483247,398.71537648601753,0.46573971477364823,84.42602880973885,-1.09887349606,4.41048288345,85.2822189331,0
24.200000000000003,17.385151378722874,-0.2190477702506804,398.6797940239329,0.4684773644747733,84.15226357853645,-1.09887349606,4.41048288345,85.2822189331,0
24.3,17.39606882209359,-0.17117246163114483,398.6332499159089,0.469999998808,84.0,-1.09887349606,4.41048288345,85.2822189331,0
24.400000000000002,17.41786252279756,-0.1421385158286799,398.5729688800261,0.469999998808,84.0,-1.73505294323,5.75122404099,84.5255966187,0
24.5,17.439656223501533,-0.113104570026216,398.51268784414333,0.469999998808,84.0,-1.73505294323,5.75122404099,84.5255966187,0
24.6,17.462895773395168,-0.1118451597963985,398.4519376247127,0.4705196051322416,84.02598030227495,-1.73505294323,5.75122404099,84.5255966187,0
24.700000000000003,17.49618075245093,-0.3035568641203424,398.38792762540487,0.47464931724046017,84.23246579691673,-1.9487355609965973,6.166817237090422,84.60688514360474,0
24.8,17.529465731506694,-0.49526856844427947,398.323917626097,0.4787790293486786,84.43895129155851,-2.05280947685,6.36943483353,84.6464920044,0
24.900000000000002,17.562750710562455,-0.6869802727682234,398.25990762678913,0.4829087414568972,84.64543678620029,-2.05280947685,6.36943483353,84.6464920044,0
25.0,17.59603568961822,-0.8786919770921604,398.19589762748126,0.48703845356511566,84.85192228084207,-2.05280947685,6.36943483353,84.6464920044,0
25.1,17.628620070023096,-1.030186813835868,398.13917539461363,0.490000009537,85.0,-2.05280947685,6.36943483353,84.6464920044,0
25.200000000000003,17.659428264818978,-1.079722245797874,398.1009293975431,0.490000009537,85.0,-1.61323225498,6.99886703491,85.2549438477,0
25.3,17.690236459614855,-1.1292576777598782,398.0626834004725,0.490000009537,85.0,-1.61323225498,6.99886703491,85.2549438477,0
25.400000000000002,17.721044654410733,-1.1787931097218842,398.024437403402,0.490000009537,85.0,-1.61323225498,6.99886703491,85.2549438477,0
25.5,17.75185284920661,-1.2283285416838885,397.98619140633144,0.490000009537,85.0,-1.61323225498,6.99886703491,85.2549438477,0
25.6,17.778793467920785,-1.0868273941124307,397.96425716993514,0.490000009537,85.0,-1.61323225498,6.99886703491,85.2549438477,0
25.700000000000003,17.802895071944096,-0.8050948343257319,397.9542966677873,0.490000009537,85.0,-1.01667034626,6.45518398285,85.3683853149,0
25.8,17.826996675967404,-0.5233622745390432,397.9443361656394,0.490000009537,85.0,-1.01667034626,6.45518398285,85.3683853149,0
25.900000000000002,17.851098279990715,-0.2416297147523443,397.93437566349155,0.490000009537,85.0,-1.01667034626,6.45518398285,85.3683853149,0
26.0,17.87263798073067,-0.1045426961966237,397.9396247836148,0.490000009537,85.16054166095941,-1.01667034626,6.45518398285,85.3683853149,0
26.1,17.892164456811003,-0.08112272057791006,397.95682610615677,0.490000009537,85.44724203869748,-0.511426210403,9.94036006927,85.6170043945,0
26.200000000000003,17.91169093289134,-0.057702744959196424,397.9740274286988,0.490000009537,85.73394241643557,-0.511426210403,9.94036006927,85.6170043945,0
26.3,17.93074778315686,-0.017278564344360134,397.9921273507408,0.490000009537,86.03287748416028,-0.511426210403,9.94036006927,85.6170043945,0
26.400000000000002,17.943751794430863,0.24230672661488045,398.02180900002253,0.490000009537,86.48950109085554,0.20342395929354695,13.060826108940123,86.03680753471767,0
26.5,17.956755805704862,0.5018920175741118,398.05149064930424,0.490000009537,86.94612469755079,0.444874227047,14.0853681564,86.1841583252,0
26.6,17.96975981697886,0.7614773085333524,398.08117229858595,0.490000009537,87.40274830424605,0.444874227047,14.0853681564,86.1841583252,0
26.700000000000003,17.982763828252864,1.0210625994925928,398.11085394786767,0.490000009537,87.8593719109413,0.444874227047,14.0853681564,86.1841583252,0
26.8,18.011411647031526,0.8257481305837625,398.13059976342026,0.4917675208296888,88.70700519134634,0.43398966985016413,14.21526107637482,86.24510480973957,0
26.900000000000002,18.047021459358188,0.42798875225983435,398.14592381590165,0.4943216310505509,89.7286502540341,0.070701956749,18.5991611481,88.4572906494,0
27.0,18.08263127168485,0.03022937393592029,398.1612478683831,0.49687574127141293,90.7502953167218,0.070701956749,18.5991611481,88.4572906494,0
27.1,18.118241084011515,-0.36753000438800787,398.1765719208645,0.49942985149227503,91.77194037940956,0.070701956749,18.5991611481,88.4572906494,0
27.200000000000003,18.180539261262577,-0.4571700925499973,398.176015812485,0.5039790454121232,92.7958098413487,0.070701956749,18.5991611481,88.4572906494,0
27.3,18.25050710841428,-0.4582632332966961,398.1708960827627,0.5091015840624824,93.82031854844328,-0.860815703869,24.903301239,92.2739715576,0
27.400000000000002,18.32047495556598,-0.45935637404339497,398.16577635304037,0.5142241227128419,94.8448272555379,-0.860815703869,24.903301239,92.2739715576,0
27.5,18.390442802717683,-0.4604495147900938,398.16065662331806,0.5193466613632011,95.86933596263248,-0.860815703869,24.903301239,92.2739715576,0
27.6,18.48800334959135,-0.5270103673494957,398.1482036056019,0.5259002553627243,97.37672927932411,-0.8561482197951168,25.052424407622322,92.3694451183477,0
27.700000000000003,18.58959745360268,-0.6031414235834056,398.1346785928861,0.5326630439527072,98.95471165338725,-0.632775366306,32.2274093628,96.950012207,0
27.8,18.691191557614005,-0.6792724798173129,398.12115358017024,0.5394258325426898,100.53269402745035,-0.632775366306,32.2274093628,96.950012207,0
27.900000000000002,18.792785661625334,-0.7554035360512229,398.1076285674544,0.5461886211326727,102.11067640151349,-0.632775366306,32.2274093628,96.950012207,0
28.0,18.89795189456736,-0.569583987818232,398.0924637204099,0.5515079349688031,103.90475469154644,-0.632775366306,32.2274093628,96.950012207,0
28.1,19.0077311211538,-0.045485363717538196,398.0751812159452,0.5549631671901377,105.977896001502,-0.23054702057568954,36.44670671352651,102.86915927968518,0
28.200000000000003,19.117510347740243,0.47861326038315555,398.0578987114805,0.5584183994114722,108.05103731145756,-0.187640666962,36.8880195618,103.501586914,0
28.3,19.223410431780472,0.49322370656872716,398.04211726319585,0.5615744912393221,110.10214324983946,-0.187640666962,36.8880195618,103.501586914,0
28.400000000000002,19.326035981445326,0.07775546073362793,398.02760291453495,0.5644780670820382,112.13464827814077,-0.0553328581154,39.0967559814,109.112754822,0
28.5,19.428661531110176,-0.33771278510145664,398.01308856587406,0.5673816429247541,114.16715330644202,-0.0553328581154,39.0967559814,109.112754822,0
28.6,19.530366727526363,-0.6778556349239365,397.9990066087915,0.5703311364116121,116.23180071627368,-0.0553328581154,39.0967559814,109.112754822,0
28.700000000000003,19.623623158651096,-0.32651769482521487,397.98889396997305,0.573702150003552,118.59151248085269,0.22517819226251057,41.15136032798779,116.1399325110434,0
28.8,19.716879589775825,0.024820245273494246,397.97878133115455,0.5770731635954917,120.9512242454316,0.23682282865,41.2081108093,116.433227539,0
28.900000000000002,19.80981380387702,0.24694843639830882,397.9691614247426,0.5804194713672259,123.29364191940445,0.23682282865,41.2081108093,116.433227539,0
29.0,19.9006249109585,-0.3822940482071162,397.9627881612905,0.583602991028853,125.52210780783136,0.25122391103994307,41.77370122332927,119.36818398486966,0
29.1,19.99143601803998,-1.0115365328125636,397.9564148978385,0.5867865106904803,127.75057369625833,0.272678345442,42.6157493591,123.739624023,0
29.200000000000003,20.08224712512146,-1.640779017418011,397.9500416343865,0.5899700303521076,129.97903958468532,0.272678345442,42.6157493591,123.739624023,0
29.3,20.157299162835972,-1.6072400477945565,397.94075323297704,0.589999973774,132.46102176971004,0.27845689292139325,42.74062907798202,124.90757826303138,0
29.400000000000002,20.232201567109968,-1.5674079229727484,397.9314371521335,0.589999973774,134.9454111092948,0.304696977139,43.3059921265,130.471496582,0
29.5,20.30710397138396,-1.527575798150942,397.92212107129,0.589999973774,137.4298004488795,0.304696977139,43.3059921265,130.471496582,0
29.6,20.382312393913505,-0.74972365122938,397.91383827405514,0.589999973774,139.843465812517,0.304696977139,43.3059921265,130.471496582,0
29.700000000000003,20.45761197327243,0.24797016857919663,397.9058632717178,0.589999973774,142.23606389244964,0.281214803457,43.5825424194,138.253417969,0
29.8,20.532911552631358,1.245663988387738,397.89788826938053,0.589999973774,144.62866197238216,0.281214803457,43.5825424194,138.253417969,0
29.900000000000002,20.608042770615757,2.2325187728439753,397.89032818551766,0.589999973774,147.0229379011617,0.281214803457,43.5825424194,138.253417969,0
30.0,20.664395025882442,2.0103917385754575,397.9290479481108,0.589999973774,149.60436044258384,0.29190780945493416,43.59149132885713,146.63048790441337,0
30.1,20.72074728114913,1.788264704306932,397.96776771070387,0.589999973774,152.1857829840061,0.293357789516,43.5927124023,147.854904175,0
30.200000000000003,20.742540928407074,1.5147208892299,398.0513655308148,0.5840513604448332,154.6358702256094,0.293357789516,43.5927124023,147.854904175,0
30.3,20.74841214542988,1.2174874595384328,398.15564033362523,0.5753620007087076,157.02544643192306,1.21318233013,42.3969573975,153.628356934,0
30.400000000000002,20.754283362452686,0.9202540298469554,398.25991513643567,0.5666726409725816,159.41502263823676,1.21318233013,42.3969573975,153.628356934,0
30.5,20.760154579475493,0.6230206001554883,398.3641899392461,0.557983281236456,161.8045988445504,1.21318233013,42.3969573975,153.628356934,0
30.6,20.7615828662495,0.39639588766084755,398.4718044234047,0.5491710418889076,164.14506967779354,1.21318233013,42.3969573975,153.628356934,0
30.700000000000003,20.712778055834246,0.9680944336327642,398.617178342969,0.5389694889313075,165.93034048766503,1.83901524544,39.5252723694,164.208404541,0
30.8,20.66397324541899,1.5397929796046603,398.7625522625333,0.5287679359737077,167.71561129753647,1.83901524544,39.5252723694,164.208404541,0
30.900000000000002,20.61516843500373,2.111491525576577,398.9079261820976,0.5185663830161076,169.500882107408,1.83901524544,39.5252723694,164.208404541,0
31.0,20.5607805294922,2.5449553135194796,399.0568050057653,0.5078027067831183,171.26367413588622,1.83901524544,39.5252723694,164.208404541,0
31.1,20.477143515376625,2.2542251945484826,399.2240455658892,0.49409413986723616,172.90870275412013,1.9116539244798478,37.62972175521101,167.7735672007785,0
31.200000000000003,20.393506501261047,1.9634950755774856,399.39128612601314,0.480385572951354,174.553731372354,1.99177706242,35.571308136,171.729476929,0
31.3,20.309869487145473,1.6727649566064993,399.55852668613704,0.46667700603547235,176.19875999058783,1.99177706242,35.571308136,171.729476929,0
31.400000000000002,20.20586000080872,1.832090411994849,399.7320005719073,0.4518209866350838,177.61342629917118,1.99177706242,35.571308136,171.729476929,0
31.5,20.082505337654467,2.4187770913504236,399.9113934637501,0.4358753758016357,178.80934647012842,2.1818292141,27.4839019775,177.082962036,0
31.6,19.959104377044984,3.002237025507016,400.0907873715168,0.41994028611914125,180.0059700780314,2.1818292141,27.4839019775,177.082962036,0
31.700000000000003,19.825236739934258,2.856211980777249,400.2704109538429,0.4063837609368734,181.36162287908124,1.4964321599781452,22.580072794535038,-142.96713796611155,0
31.8,19.691369102823536,2.710186936047487,400.4500345361689,0.3928272357546061,182.71727568013102,1.41953110695,22.0369873047,-179.387207031,0
31.900000000000002,19.558043717279585,2.557385706169075,400.62778143421684,0.37966866376120556,184.04969976801536,1.41953110695,22.0369873047,-179.387207031,0
32.0,19.43425588497861,2.2853995248785672,400.77251971169096,0.3735096099980474,184.97355871352715,0.39610003047401365,16.869966094780633,-176.2710675191659,0
32.1,19.310468052677635,2.0134133435880495,400.9172579891651,0.367350556234889,185.897417659039,0.134506374598,15.6251058578,-175.422683716,0
32.2,19.186680220376658,1.7414271622975321,401.0619962666392,0.36119150247173065,186.82127660455083,0.134506374598,15.6251058578,-175.422683716,0
32.300000000000004,19.07996592118068,1.565329949219099,401.16921072402744,0.3544733348802379,187.0,-0.12219991900634194,13.792277645320496,-174.64048343936406,0
32.4,18.977346769248292,1.4122320440968452,401.2674249605359,0.347621061860768,187.0,-0.712664723396,9.56930923462,-172.838485718,0
32.5,18.874727617315898,1.2591341389745807,401.36563919704435,0.34076878884129763,187.0,-0.712664723396,9.56930923462,-172.838485718,0
32.6,18.772108465383504,1.106036233852316,401.46385343355274,0.33391651582182724,187.0,-0.712664723396,9.56930923462,-172.838485718,0
32.7,18.681391156607756,1.0156820431377802,401.5344864282458,0.330000013113,186.88848561667209,-0.7935875090899085,8.991440451232343,-172.81753084617677,0
32.800000000000004,18.60655165707139,1.0090319237359375,401.56832430722733,0.330000013113,186.62820401446683,-2.11566567421,1.68214201927,-172.474517822,0
32.9,18.53171215753503,1.0023818043340955,401.6021621862088,0.330000013113,186.36792241226158,-2.11566567421,1.68214201927,-172.474517822,0
33.0,18.456872657998662,0.9957316849322531,401.6360000651903,0.330000013113,186.10764081005632,-2.11566567421,1.68214201927,-172.474517822,0
33.1,18.399471786956934,0.7476267159138286,401.6401249597092,0.330000013113,185.83551103378602,-2.2465725131685135,1.4398414641940664,-172.52935088055682,0
33.2,18.35436846803746,0.32925012265358866,401.6232965450131,0.330000013113,185.55502603977806,-3.4973731041,-0.882582485676,-173.053848267,0
33.300000000000004,18.309265149117987,-0.08912647060665135,401.60646813031696,0.330000013113,185.27454104577012,-3.4973731041,-0.882582485676,-173.053848267,0
33.4,18.2646837320595,-0.49859850401634176,401.5882040787405,0.3300597513851152,184.99402616709125,-3.536012101212181,-0.8916991152780077,-173.07602573075033,0
33.5,18.24420809065207,-0.49678378396308387,401.50363035643613,0.332878700714058,184.7121309653535,-4.637827666419865,-1.1505319156693719,-173.82022793228228,0
33.6,18.223732449244643,-0.494969063909826,401.4190566341318,0.3356976500430009,184.43023576361577,-4.94970846176,-1.22388041019,-174.03112793,0
33.7,18.203256807837214,-0.49315434385656803,401.3344829118274,0.3385165993719437,184.14834056187803,-4.94970846176,-1.22388041019,-174.03112793,0
33.800000000000004,18.197932325706915,-0.7557019480049865,401.22817400402096,0.34213122726694456,183.786877745235,-4.94970846176,-1.22388041019,-174.03112793,0
33.9,18.20943639766229,-1.3118796031395954,401.09772359403013,0.3466296238253723,183.33703833070857,-6.38740587234,-2.9946603775,-175.602645874,0
34.0,18.220940469617666,-1.8680572582742436,400.9672731840393,0.3511280203838004,182.88719891618211,-6.38740587234,-2.9946603775,-175.602645874,0
34.1,18.232444541573045,-2.4242349134088923,400.83682277404847,0.3556264169422285,182.43735950165564,-6.38740587234,-2.9946603775,-175.602645874,0
34.2,18.245027947071186,-2.9608621166825033,400.7054635097272,0.36016172718694317,181.98382869638365,-6.38740587234,-2.9946603775,-175.602645874,0
34.300000000000004,18.29543667917784,-2.8123422382738057,400.5422533758415,0.3659906803926063,181.40093281992898,-7.07886172613241,-3.7361050124155035,-177.18134089735963,0
34.4,18.345845411284486,-2.6638223598651187,400.37904324195574,0.371819633598269,180.81803694347434,-7.27464151382,-3.9397008419,-177.642593384,0
34.5,18.396254143391136,-2.515302481456421,400.21583310806994,0.37764858680393204,180.23514106701967,-7.27464151382,-3.9397008419,-177.642593384,0
34.6,18.44666287549779,-2.3667826030477235,400.0526229741842,0.3834775400095951,179.652245190565,-7.27464151382,-3.9397008419,-177.642593384,0
34.7,18.49707160760444,-2.2182627246390254,399.88941284029846,0.3893064932152582,179.0693493141103,-7.27464151382,-3.9397008419,-177.642593384,0
34.800000000000004,18.55107078737536,-2.106452829366584,399.77315182492435,0.3929344848849831,179.0,-7.174321637365608,-3.6502835052859854,-97.73937918802143,0
34.9,18.60555482110329,-1.9996002492397884,399.6632308172645,0.396265258767476,179.0,-6.82588195801,-2.64478325844,179.80531311,0
35.0,18.660038854831225,-1.8927476691129854,399.55330980960457,0.39959603264996907,179.0,-6.82588195801,-2.64478325844,179.80531311,0
35.1,18.70613931011948,-1.7553531421116766,399.4714980009714,0.40214015985371904,178.57196881308565,-6.753575297724171,-2.5521810228549335,179.77015601410935,0
35.2,18.75108261723575,-1.6137430455598591,399.3935659804864,0.40457570970319806,178.08485837868133,-6.10413169861,-1.73639905453,179.452301025,0
35.300000000000004,18.796025924352023,-1.4721329490080417,399.31563396000143,0.4070112595526771,177.59774794427702,-6.10413169861,-1.73639905453,179.452301025,0
35.4,18.84096923146829,-1.3305228524562343,399.23770193951646,0.4094468094021559,177.11063750987273,-6.10413169861,-1.73639905453,179.452301025,0
35.5,18.864902377899796,-1.2631665559255527,399.2010940820181,0.409999996424,176.7637112399119,-6.10413169861,-1.73639905453,179.452301025,0
35.6,18.88266107801997,-1.2176318964837776,399.17663053076984,0.409999996424,176.45798216068377,-4.81713294983,1.04245316982,177.674285889,0
35.7,18.90041977814015,-1.1720972370420026,399.1521669795216,0.409999996424,176.1522530814556,-4.81713294983,1.04245316982,177.674285889,0
35.800000000000004,18.90708964897407,-0.9322427991610704,399.14121753110646,0.4087678007328048,175.8767803133782,-4.81713294983,1.04245316982,177.674285889,0
35.9,18.90275904772719,-0.49961694760947506,399.1436745034301,0.4063132276427749,175.6313227703069,-3.7446183694912167,1.3029041569693123,176.15151426500384,0
36.0,18.898428446480313,-0.06699109605784903,399.1461314757537,0.4038586545527448,175.38586522723557,-3.71054291725,1.31099402905,176.101394653,0
36.1,18.894097845233436,0.3656347554937771,399.1485884480773,0.40140408146271467,175.14040768416424,-3.71054291725,1.31099402905,176.101394653,0
36.2,18.88700960426373,0.5098426769777242,399.1436866943982,0.40000000596,174.9299171298294,-3.71054291725,1.31099402905,176.101394653,0
36.300000000000004,18.876235553419846,0.268556566831778,399.12894940464895,0.40000000596,174.7661628011475,-3.462229673065116,3.116729648284755,175.92482040647567,0
36.4,18.865461502575965,0.02727045668584882,399.11421211489966,0.40000000596,174.60240847246556,-3.45217227936,3.1905143261,175.917617798,0
36.5,18.85468745173208,-0.21401565346009743,399.0994748251504,0.40000000596,174.43865414378362,-3.45217227936,3.1905143261,175.917617798,0
36.6,18.843913400888194,-0.4553017636060438,399.08473753540113,0.40000000596,174.27489981510172,-3.45217227936,3.1905143261,175.917617798,0
36.7,18.83313935004431,-0.69658787375199,399.0700002456519,0.40000000596,174.1111454864198,-3.45217227936,3.1905143261,175.917617798,0
36.800000000000004,18.82435706671815,-0.8506540067232453,399.04659064157755,0.40063845596919867,174.0638450618025,-3.45217227936,3.1905143261,175.917617798,0
36.9,18.819782744640968,-0.8204525076432513,399.0048592392541,0.4026257445723642,174.2625741116271,-3.47221255302,2.56332302094,174.168380737,0
37.0,18.815208422563785,-0.7902510085632551,398.96312783693065,0.4046130331755298,174.46130316145167,-3.47221255302,2.56332302094,174.168380737,0
37.1,18.810634100486602,-0.7600495094832589,398.92139643460723,0.4066003217786955,174.66003221127627,-3.47221255302,2.56332302094,174.168380737,0
37.2,18.80605977840942,-0.7298480104032627,398.8796650322838,0.40858761038186114,174.85876126110085,-3.47221255302,2.56332302094,174.168380737,0
37.300000000000004,18.807136334403296,-0.6581465470839439,398.8300366168079,0.4109984088882624,174.90015865835508,-3.47221255302,2.56332302094,174.168380737,0
37.4,18.822095627845986,-0.48449046707933974,398.7610072942789,0.4144496610586187,174.55503311217322,-4.00744724274,4.75195407867,175.018157959,0
37.5,18.837054921288676,-0.3108343870747232,398.69197797174985,0.4179009132289752,174.20990756599133,-4.00744724274,4.75195407867,175.018157959,0
37.6,18.85201566086136,-0.23336714634084416,398.6201894154006,0.4215686267867976,173.84313632792015,-4.00744724274,4.75195407867,175.018157959,0
37.7,18.866978645354614,-0.30522002633644796,398.54411752295675,0.4255723672761717,173.44276309037915,-3.61766552925,7.62364530563,174.438430786,0
37.800000000000004,18.881941629847873,-0.37707290633205176,398.4680456305129,0.42957610776554583,173.04238985283814,-3.61766552925,7.62364530563,174.438430786,0
37.9,18.900429807048955,-0.5013481946391306,398.39772350606273,0.4320756879308617,173.41513655148808,-3.6192956073581617,7.628700675461852,174.42641554097662,0
38.0,18.919335412562347,-0.6318309726474218,398.3280822283489,0.43439715610130203,173.8794306283734,-3.68859553337,7.83398771286,173.884399414,0
38.1,18.938241018075736,-0.7623137506557129,398.25844095063496,0.4367186242717423,174.34372470525872,-3.68859553337,7.83398771286,173.884399414,0
38.2,18.95714662358913,-0.8927965286640043,398.18879967292105,0.4390400924421826,174.80801878214405,-3.68859553337,7.83398771286,173.884399414,0
38.300000000000004,18.973879161648036,-0.8363613972657206,398.1308691820454,0.4419419783504853,175.3883965173108,-3.68859553337,7.83398771286,173.884399414,0
38.400000000000006,18.98907968194663,-0.6481486920324211,398.0811948239403,0.44525306015419014,176.05061350960813,-3.09863233566,9.50909423828,175.804458618,0
38.5,19.004280202245223,-0.4599359867991349,398.0315204658351,0.44856414195789474,176.71283050190542,-3.09863233566,9.50909423828,175.804458618,0
38.6,19.020554081469157,-0.4989231474802152,397.98951184780236,0.45136453971894624,177.13645488745516,-3.09863233566,9.50909423828,175.804458618,0
38.7,19.037649819120702,-0.711874599271923,397.95337279765926,0.4537739126565272,177.37739169293073,-2.55459451675,8.70509529114,177.099349976,0
38.800000000000004,19.05474555677225,-0.9248260510636307,397.9172337475162,0.45618328559410815,177.61832849840627,-2.55459451675,8.70509529114,177.099349976,0
38.900000000000006,19.071841294423795,-1.1377775028553385,397.88109469737316,0.4585926585316891,177.85926530388184,-2.55459451675,8.70509529114,177.099349976,0
39.0,19.08714105982281,-1.1258933577664758,397.8495590846929,0.4608688984746491,178.17377819166208,-2.55459451675,8.70509529114,177.099349976,0
39.1,19.09991836725345,-0.7982257465764154,397.82448903822245,0.46295815201920487,178.59162929907785,-1.77197611332,14.3360977173,178.51802063,0
39.2,19.112695674684094,-0.47055813538635516,397.7994189917521,0.4650474055637606,179.0094804064936,-1.77197611332,14.3360977173,178.51802063,0
39.300000000000004,19.12547298211474,-0.14289052419629478,397.7743489452817,0.4671366591083164,179.42733151390934,-1.77197611332,14.3360977173,178.51802063,0
39.400000000000006,19.138250289545383,0.1847770869937655,397.74927889881127,0.46922591265287217,179.8451826213251,-1.77197611332,14.3360977173,178.51802063,0
39.5,19.15611986268372,0.1940927506440972,397.71391515848603,0.47401140039551054,180.40113994355954,-1.6800640602095787,15.997983970330036,76.32725966349376,0
39.6,19.17698666067286,0.01603163090589721,397.67249271722113,0.4803838477757556,181.03838433973428,-1.45043301582,20.1503334045,-179.608718872,0
39.7,19.197853458662003,-0.16202948883230278,397.6310702759562,0.4867562951560007,181.67562873590904,-1.45043301582,20.1503334045,-179.608718872,0
39.800000000000004,19.233222869976593,-0.2905773242614569,397.5715829616787,0.49225899584978555,182.5647471167957,-1.45043301582,20.1503334045,-179.608718872,0
39.900000000000006,19.28362786771456,-0.36779225515625913,397.4933668877417,0.49685998654294794,183.71499588707854,-2.00352573395,25.5176925659,-177.215835571,0
40.0,19.334032865452524,-0.4450071860510558,397.4151508138046,0.5014609772361099,184.8652446573613,-2.00352573395,25.5176925659,-177.215835571,0
40.1,19.38443786319049,-0.5222221169458581,397.33693473986756,0.5060619679292724,186.01549342764415,-2.00352573395,25.5176925659,-177.215835571,0
40.2,19.439368767032807,-0.6382473437563304,397.2529454726115,0.511363474505518,187.23860957943853,-2.00352573395,25.5176925659,-177.215835571,0
40.300000000000004,19.52118349624565,-0.9848052404719111,397.13466350960783,0.5208260366220008,188.89455706149,-2.4359271759608903,28.390770095170677,-174.3474505479247,0
40.400000000000006,19.602998225458496,-1.3313631371874917,397.0163815466042,0.5302885987384834,190.55050454354145,-2.65991640091,29.8790416718,-172.819747925,0
40.5,19.684812954671337,-1.677921033903048,396.89809958360047,0.5397511608549656,192.20645202559277,-2.65991640091,29.8790416718,-172.819747925,0
40.6,19.76662768388418,-2.0244789306186286,396.7798176205968,0.5492137229714482,193.86239950764423,-2.65991640091,29.8790416718,-172.819747925,0
40.7,19.871605644651282,-2.0031642479127827,396.6425938520754,0.5617956764042521,195.65139263393027,-2.9859201912829016,31.64862866721546,-170.5874895727716,0
40.800000000000004,19.978682777799957,-1.948511040880081,396.503653478731,0.5746603252840711,197.45244304769847,-3.74634504318,35.8057556152,-165.356140137,0
40.900000000000006,20.085759910948635,-1.8938578338473793,396.3647131053866,0.58752497416389,199.2534934614667,-3.74634504318,35.8057556152,-165.356140137,0
41.0,20.19381938037086,-1.8565479962098563,396.2259934200776,0.6003255033993689,201.06509597355418,-3.74634504318,35.8057556152,-165.356140137,0
