t_sec,airspeed,climb,altitude,throttle,heading,pitch,roll,yaw,is_boundary
0.0,18.0895080566,-0.755653381348,410.009979248,0.0,271.0,-1.87518429756,-2.0955414772,-89.2643127441,0
0.1,18.10468046617358,-0.6223495772253456,409.89573899696484,0.10125783886160306,271.0,-2.94562935829,-1.39680147171,-88.1715927124,0
0.2,18.119852875747156,-0.4890457731026912,409.78149874592975,0.2025156777232061,271.0,-2.94562935829,-1.39680147171,-88.1715927124,0
0.30000000000000004,18.135025285320737,-0.35574196898003674,409.6672584948946,0.30377351658480917,271.0,-2.94562935829,-1.39680147171,-88.1715927124,0
0.4,18.14807688593539,-0.32931770283742434,409.54823546045355,0.38802337393187003,271.0,-3.270611992273681,2.7315788369081924,-88.14726591335229,0
0.5,18.148962604716925,-0.9160009134290412,409.40177630193114,0.3747080581148161,271.0,-3.44458556175,4.95237445831,-88.134223938,0
0.6000000000000001,18.14984832349846,-1.5026841240206588,409.25531714340866,0.3613927422977622,271.0,-3.44458556175,4.95237445831,-88.134223938,0
0.7000000000000001,18.148218830448783,-1.904423616563185,409.109613486375,0.34833546107578267,271.08322666557194,-3.799796543784138,11.039750494557246,-88.15570853088572,0
0.8,18.131684698511666,-1.2102238733661592,408.9683867790478,0.3368072409103414,271.6596377940834,-4.40571451187,21.6110076904,-88.1925354004,0
0.9,18.11515056657455,-0.5160241301691333,408.82716007172064,0.3252790207449001,272.2360489225948,-4.40571451187,21.6110076904,-88.1925354004,0
1.0,18.09861643463743,0.17817561302789242,408.6859333643935,0.3137508005794588,272.8124600511062,-4.40571451187,21.6110076904,-88.1925354004,0
1.1,18.084393443958938,0.11942139315082761,408.50954073877296,0.3009414466814014,274.087026425143,-6.09138250351,30.912021637,-86.3627700806,0
1.2000000000000002,18.071285041700072,-0.3024580855667628,408.3161887320895,0.28751424356402877,275.6982904150702,-6.09138250351,30.912021637,-86.3627700806,0
1.3,18.058176639441207,-0.7243375642843523,408.122836725406,0.27408704044665616,277.3095544049973,-6.09138250351,30.912021637,-86.3627700806,0
1.4000000000000001,18.045068237182342,-1.1462170430019425,407.9294847187225,0.26065983732928355,278.9208183949244,-6.09138250351,30.912021637,-86.3627700806,0
1.5,18.014951399796196,-1.3937990463773406,407.63777835213415,0.24799131956249998,280.5010841757262,-9.61525344849,36.9016799927,-80.1147003174,0
1.6,17.983955526656803,-1.6323729481032003,407.3409888019257,0.23536201243112406,282.0797478964969,-9.61525344849,36.9016799927,-80.1147003174,0
1.7000000000000002,17.95295965351741,-1.87094684982906,407.04419925171715,0.22273270529974815,283.65841161726763,-9.61525344849,36.9016799927,-80.1147003174,0
1.8,17.935905074417786,-2.20627339003358,406.61409166805157,0.2138246489603935,285.2350702271878,-14.2209997177,40.5397796631,-75.8120651245,0
1.9000000000000001,17.922700045897507,-2.56831582723062,406.1471715394768,0.2059441258687745,286.81117517432654,-14.2209997177,40.5397796631,-75.8120651245,0
2.0,17.90949501737723,-2.9303582644276593,405.68025141090203,0.19806360277715554,288.3872801214652,-14.2209997177,40.5397796631,-75.8120651245,0
2.1,17.89628998885695,-3.2924007016246994,405.21333128232726,0.19018307968553655,289.9633850686039,-14.2209997177,40.5397796631,-75.8120651245,0
2.2,17.88308496033667,-3.6544431388217395,404.7464111537525,0.18230255659391756,291.5394900157426,-14.2209997177,40.5397796631,-75.8120651245,0
2.3000000000000003,17.92220410013228,-3.9965407180192285,404.1708697289853,0.17527834806062342,293.25910904122986,-18.5614376068,40.9594612122,-67.7063598633,0
2.4000000000000004,17.98292229937972,-4.330405196002574,403.55049017473203,0.16860762033075202,295.0379696984562,-18.5614376068,40.9594612122,-67.7063598633,0
2.5,18.043640498627155,-4.664269673985918,402.9301106204788,0.16193689260088062,296.81683035568255,-18.5614376068,40.9594612122,-67.7063598633,0
2.6,18.104358697874595,-4.998134151969264,402.30973106622554,0.1552661648710092,298.5956910129089,-18.5614376068,40.9594612122,-67.7063598633,0
2.7,18.17439302867453,-5.332876054566945,401.6870630606426,0.14932871743098003,300.4027729013646,-18.648664808204927,38.29324728595197,-64.70536693741566,0
2.8000000000000003,18.27935639145387,-5.6709076909174145,401.05581494976286,0.14614056250034055,302.31566483367305,-18.7966518402,33.7630462646,-59.4590148926,0
2.9000000000000004,18.38431975423321,-6.008939327267885,400.42456683888315,0.1429524075697011,304.2285567659815,-18.7966518402,33.7630462646,-59.4590148926,0
3.0,18.48848045042466,-6.3286272783095425,399.79554887340976,0.14019842774874927,306.0992135231565,-18.81147196035196,31.814303557985344,-57.019290518813044,0
3.1,18.582588892240643,-6.418586729760158,399.1944602988653,0.14288187202383865,307.44093494100184,-18.8329620361,28.9680480957,-53.4492683411,0
3.2,18.676697334056627,-6.508546181210774,398.5933717243209,0.14556531629892805,308.78265635884713,-18.8329620361,28.9680480957,-53.4492683411,0
3.3000000000000003,18.770805775872606,-6.59850563266139,397.9922831497764,0.14824876057401742,310.1243777766925,-18.8329620361,28.9680480957,-53.4492683411,0
3.4000000000000004,18.854420346904185,-6.6120058348598105,397.39879872701664,0.1621697535559205,311.3245265896612,-18.818990035628463,24.032630535301863,-49.795404332074966,0
3.5,18.918320945942202,-6.481868333738406,396.81959959882516,0.19720180508179774,312.2587145932266,-18.8146266937,22.4566898346,-48.652015686,0
3.6,18.982221544980217,-6.351730832617001,396.2404004706337,0.23223385660767512,313.19290259679207,-18.8146266937,22.4566898346,-48.652015686,0
3.7,19.04612214401823,-6.221593331495596,395.6612013424422,0.2672659081335525,314.12709060035746,-18.8146266937,22.4566898346,-48.652015686,0
3.8000000000000003,19.11398575302954,-6.122965267945258,395.084034824372,0.3023028891042472,315.0354288810417,-18.584372600327445,19.73809698998936,-46.64355894134091,0
3.9000000000000004,19.23830216016455,-6.473186924728487,394.5358226944087,0.33741008966939323,315.57553967877664,-18.372844696,17.2143859863,-44.797580719,0
4.0,19.36261856729956,-6.823408581511715,393.9876105644454,0.37251729023453917,316.1156504765115,-18.372844696,17.2143859863,-44.797580719,0
4.1000000000000005,19.486934974434575,-7.173630238294946,393.4393984344821,0.40762449079968543,316.65576127424646,-18.372844696,17.2143859863,-44.797580719,0
4.2,19.616448835218172,-7.365052338649965,392.93885425574337,0.4369757498639502,317.1550165498596,-15.988995998139199,12.839672195851259,-43.063650048448956,0
4.3,19.755097049884146,-7.277389440301002,392.5220849338428,0.45621113100987926,317.5824695887734,-15.2996034622,11.5447883606,-42.4298667908,0
4.4,19.893745264550123,-7.189726541952038,392.1053156119422,0.47544651215580847,318.0099226276872,-15.2996034622,11.5447883606,-42.4298667908,0
4.5,20.032393479216097,-7.102063643603075,391.68854629004164,0.49468189330173756,318.437375666601,-15.2996034622,11.5447883606,-42.4298667908,0
4.6000000000000005,20.171041693882074,-7.014400745254111,391.27177696814107,0.5139172744476668,318.8648287055148,-15.2996034622,11.5447883606,-42.4298667908,0
4.7,20.273425312276423,-6.507323743778791,390.91500206578814,0.5273766341666758,319.0,-8.74638462067,4.42249774933,-40.8907966614,0
4.800000000000001,20.35903767308983,-5.806280651962184,390.58597273258795,0.53816476207551,319.0,-8.74638462067,4.42249774933,-40.8907966614,0
4.9,20.31616018944016,-5.272722702451412,390.5062738634273,0.545474791112514,319.0,-4.64818429947,1.82859170437,-40.5475997925,0
5.0,20.24694341666638,-4.773497735485839,390.4776855486239,0.5520718404415091,319.0,-4.64818429947,1.82859170437,-40.5475997925,0
5.1000000000000005,20.177726643892594,-4.274272768520262,390.44909723382057,0.5586688897705044,319.0,-4.64818429947,1.82859170437,-40.5475997925,0
5.2,20.108509871118812,-3.7750478015546904,390.42050891901715,0.5652659390994996,319.0,-4.64818429947,1.82859170437,-40.5475997925,0
5.300000000000001,20.00421508580995,-3.1159028132707127,390.44350654831123,0.569208836909232,318.9208843307706,-0.8953035161611211,0.731970429901418,-40.33369770382409,0
5.4,19.81078364427601,-2.0503854300424598,390.597589100403,0.5664072764545394,318.64072801811625,2.03408956528,-0.131898000836,-40.1664543152,0
5.5,19.617352202742072,-0.9848680468142064,390.7516716524948,0.5636057159998469,318.3605717054619,2.03408956528,-0.131898000836,-40.1664543152,0
5.6000000000000005,19.42392076120813,0.08064933641405636,390.9057542045866,0.5608041555451543,318.0804153928076,2.03408956528,-0.131898000836,-40.1664543152,0
5.7,19.200053847722295,0.8184402061145231,391.1603093997778,0.5549318732396892,318.25340632128206,6.20060348511,1.71511018276,-41.8050384521,0
5.800000000000001,18.963933659173072,1.4242888761945163,391.45531472941053,0.5478233229525695,318.60883364497795,6.20060348511,1.71511018276,-41.8050384521,0
5.9,18.727813470623854,2.0301375462745037,391.75032005904325,0.54071477266545,318.9642609686738,6.20060348511,1.71511018276,-41.8050384521,0
6.0,18.491693282074635,2.6359862163544916,392.04532538867596,0.5336062223783304,319.3196882923697,6.20060348511,1.71511018276,-41.8050384521,0
6.1000000000000005,18.255573093525417,3.241834886434485,392.3403307183087,0.5264976720912109,319.67511561606557,6.20060348511,1.71511018276,-41.8050384521,0
6.2,18.02306407463831,3.8235049254485993,392.63313493746614,0.5195074383041345,320.0492543092579,7.636307105333234,8.759898599932875,-40.591484300611945,0
6.300000000000001,17.8289669650213,4.147987551608188,392.90252600692946,0.5137757337721341,320.62242530906246,8.44134044647,12.7153644562,-39.9084625244,0
6.4,17.634869855404293,4.472470177767774,393.17191707639284,0.5080440292401338,321.19559630886704,8.44134044647,12.7153644562,-39.9084625244,0
6.5,17.44077274578729,4.7969528039273595,393.44130814585617,0.5023123247081336,321.7687673086716,8.44134044647,12.7153644562,-39.9084625244,0
6.6000000000000005,17.274584476812347,4.642369002613167,393.69613144207153,0.5,322.12385131877846,7.488085781370326,16.958681718416145,-38.58947486307202,0
6.7,17.12726930913536,4.163820858597737,393.9411034132634,0.5,322.33145597275166,7.05934906006,18.7938327789,-37.9918060303,0
6.800000000000001,16.979954141458375,3.685272714582303,394.18607538445525,0.5,322.53906062672485,7.05934906006,18.7938327789,-37.9918060303,0
6.9,16.832638973781393,3.2067245705668737,394.43104735564714,0.5,322.746665280698,7.05934906006,18.7938327789,-37.9918060303,0
7.0,16.685323806104407,2.728176426551444,394.67601932683897,0.5,322.9542699346712,7.05934906006,18.7938327789,-37.9918060303,0
7.1000000000000005,16.61719298630745,2.4560870462009636,394.8278311512818,0.5036240385405949,324.08721259899875,6.228588031753294,30.439663110864018,-36.528712863347394,0
7.2,16.571431986455057,2.242322896692305,394.95332494994585,0.5082718790293738,325.4815660753576,6.06447792053,32.7655220032,-36.2322540283,0
7.300000000000001,16.525670986602663,2.028558747183645,395.0788187486099,0.5129197195181526,326.8759195517165,6.06447792053,32.7655220032,-36.2322540283,0
7.4,16.479909986750272,1.8147945976749864,395.20431254727396,0.5175675600069315,328.27027302807534,6.06447792053,32.7655220032,-36.2322540283,0
7.5,16.471743012650574,1.4804086904269405,395.24664670968235,0.5248292810936748,329.885371662045,1.75346529484,38.0633735657,-30.9808368683,0
7.6000000000000005,16.504852416173414,1.0135860695718617,395.1976757117544,0.5349609135682419,331.74283754191225,1.75346529484,38.0633735657,-30.9808368683,0
7.7,16.537961819696253,0.5467634487167872,395.1487047138265,0.5450925460428089,333.6003034217796,1.75346529484,38.0633735657,-30.9808368683,0
7.800000000000001,16.571071223219093,0.0799408278617082,395.0997337158985,0.5552241785173759,335.4577693016469,1.75346529484,38.0633735657,-30.9808368683,0
7.9,16.604180626741933,-0.38688179299336634,395.05076271797054,0.565355810991943,337.3152351815142,1.75346529484,38.0633735657,-30.9808368683,0
8.0,16.637290030264772,-0.8537044138484409,395.0017917200426,0.57548744346651,339.17270106138153,1.75346529484,38.0633735657,-30.9808368683,0
8.1,16.723955734063498,-1.1026511466320676,394.8966746235735,0.5864082640916247,341.28165546861294,-4.18794631958,43.6568222046,-19.1346359253,0
8.200000000000001,16.85363104009317,-1.1766277034813324,394.74646812860914,0.5979628601692183,343.5925734444975,-4.18794631958,43.6568222046,-19.1346359253,0
8.3,16.983306346122838,-1.2506042603305958,394.59626163364476,0.6095174562468116,345.90349142038195,-4.18794631958,43.6568222046,-19.1346359253,0
8.4,17.11777145836294,-1.3600371331801129,394.44705901425976,0.6204789760186209,348.26343443906575,-3.8896798746876455,44.39940260324254,-15.945159770657884,0
8.5,17.299071597377772,-1.8161640968231536,394.3076723535111,0.6256413583221289,351.10274741370597,-3.44668078423,45.5165634155,-11.2037372589,0
8.6,17.4803717363926,-2.2722910604661943,394.1682856927625,0.6308037406256368,353.94206038834614,-3.44668078423,45.5165634155,-11.2037372589,0
8.700000000000001,17.66167187540743,-2.728418024109243,394.0288990320138,0.6359661229291449,356.7813733629864,-3.44668078423,45.5165634155,-11.2037372589,0
8.8,17.838038572864242,-2.995022190872199,393.89378146495915,0.6405458708245998,339.83941367759877,-2.917416360051607,45.092518506715244,-6.778373411752384,0
8.9,17.996770816025492,-2.584182212356689,393.77392365860993,0.6430430076829078,252.18982635957468,-2.19707894325,44.5202407837,-0.749796450138,0
9.0,18.155503059186742,-2.1733422338411787,393.65406585226077,0.6455401445412159,164.54023904155062,-2.19707894325,44.5202407837,-0.749796450138,0
9.1,18.314235302347996,-1.7625022553256684,393.5342080459116,0.6480372813995239,76.89065172352656,-2.19707894325,44.5202407837,-0.749796450138,0
9.200000000000001,18.47367885455712,-1.4461471787446472,393.4086993804478,0.6511382336821693,8.512214847847195,-2.9914457798,43.8229064941,8.61542701721,0
9.3,18.635734630878744,-1.4767801516460115,393.2624383985616,0.6564566485651722,10.90549669509317,-2.9914457798,43.8229064941,8.61542701721,0
9.4,18.797790407200367,-1.5074131245473756,393.1161774166754,0.6617750634481752,13.298778542339146,-2.9914457798,43.8229064941,8.61542701721,0
9.5,18.95984618352199,-1.53804609744874,392.9699164347892,0.667093478331178,15.692060389585123,-2.9914457798,43.8229064941,8.61542701721,0
9.600000000000001,19.12742295879247,-1.6366948999932014,392.83035650118904,0.6725925106853939,18.209831685426646,-3.846640577360582,43.69164770953789,14.414795847474679,0
9.700000000000001,19.301653057751288,-1.817309182831851,392.698871961863,0.6783092041025589,20.877624490955398,-4.36986684799,43.610496521,17.9654350281,0
9.8,19.475883156710108,-1.9979234656705005,392.5673874225369,0.684025897519724,23.545417296484146,-4.36986684799,43.610496521,17.9654350281,0
9.9,19.650113255668927,-2.17853774850915,392.4359028832109,0.6897425909368889,26.213210102012898,-4.36986684799,43.610496521,17.9654350281,0
10.0,19.82434335462775,-2.3591520313478,392.30441834388483,0.695459284354054,28.88100290754165,-4.36986684799,43.610496521,17.9654350281,0
10.100000000000001,19.987127713187167,-2.4452002744734367,392.19353109437003,0.699999988079,31.5529707943317,-2.221045335759477,43.235874625675386,26.91155803887872,0
10.200000000000001,20.105718048269846,-2.166112350488642,392.16217361555704,0.699999988079,34.24105940663517,-1.01034486294,43.0223999023,31.9847068787,0
10.3,20.224308383352522,-1.8870244265038472,392.130816136744,0.699999988079,36.92914801893864,-1.01034486294,43.0223999023,31.9847068787,0
10.4,20.3428987184352,-1.6079365025190524,392.099458657931,0.699999988079,39.61723663124211,-1.01034486294,43.0223999023,31.9847068787,0
10.5,20.461489053517877,-1.3288485785342574,392.06810117911795,0.699999988079,42.30532524354558,-1.01034486294,43.0223999023,31.9847068787,0
10.600000000000001,20.56743050104077,-0.9448375988516236,392.08724158055884,0.7019462083809861,45.140844373907974,0.631882250309,43.171875,43.1488647461,0
10.700000000000001,20.668964001433555,-0.5242625118465363,392.1239797339988,0.704570657195492,48.0277408230975,0.631882250309,43.171875,43.1488647461,0
10.8,20.770497501826338,-0.103687424841449,392.1607178874388,0.7071951060099977,50.91463727228704,0.631882250309,43.171875,43.1488647461,0
10.9,20.872031002219117,0.3168876621636383,392.1974560408788,0.7098195548245035,53.801533721476574,1.072778306642916,43.54083905076417,45.92521799016624,0
11.0,20.92637783885607,0.3582003584049066,392.30353143075115,0.7074744000572115,56.27302280409146,2.37515592575,44.4963569641,54.1433296204,0
11.100000000000001,20.97724124428706,0.3715150072726241,392.41472545953326,0.7047623773908096,58.71384553166588,2.37515592575,44.4963569641,54.1433296204,0
11.200000000000001,21.02810464971805,0.38482965614034137,392.5259194883154,0.7020503547244076,61.15466825924026,2.37515592575,44.4963569641,54.1433296204,0
11.3,21.07187199021118,0.5587365920691789,392.6621217973099,0.6988284029662266,63.702951738069096,5.23487281799,45.598033905,64.0037002563,0
11.4,21.093649755455893,1.2302934525086842,392.87582078430546,0.6940262621549247,66.58423897273393,5.23487281799,45.598033905,64.0037002563,0
11.5,21.115427520700603,1.9018503129481896,393.08951977130107,0.6892241213436227,69.46552620739875,5.23487281799,45.598033905,64.0037002563,0
11.600000000000001,21.137205285945313,2.573407173387707,393.3032187582967,0.6844219805323206,72.34681344206363,5.23487281799,45.598033905,64.0037002563,0
11.700000000000001,21.156888435131467,3.188139617684662,393.5189145531829,0.679198537869451,75.22441134588958,5.23487281799,45.598033905,64.0037002563,0
11.8,21.152207749670964,3.1419105109930103,393.75783651263083,0.6690746607780438,78.05909625563801,6.64620447159,47.5567054749,75.4739227295,0
11.9,21.14752706421046,3.095681404301359,393.99675847207874,0.6589507836866366,80.89378116538646,6.64620447159,47.5567054749,75.4739227295,0
12.0,21.142846378749958,3.049452297609707,394.2356804315267,0.6488269065952293,83.72846607513489,6.64620447159,47.5567054749,75.4739227295,0
12.100000000000001,21.138165693289455,3.0032231909180545,394.4746023909746,0.638703029503822,86.56315098488339,6.64620447159,47.5567054749,75.4739227295,0
12.200000000000001,21.13179577465307,3.000386937935082,394.7156394349183,0.6289617398772378,89.3114769034738,7.147885155457662,47.27501387412471,85.21976596394329,0
12.3,21.11507886054317,3.263343274936859,394.96963192516523,0.6215638986408818,91.53083139090499,7.36602592468,47.1495018005,89.4811096191,0
12.4,21.098361946433275,3.526299611938636,395.22362441541213,0.6141660574045258,93.75018587833618,7.36602592468,47.1495018005,89.4811096191,0
12.5,21.08164503232338,3.789255948940413,395.4776169056591,0.6067682161681698,95.96954036576739,7.36602592468,47.1495018005,89.4811096191,0
12.600000000000001,21.065918234181854,4.013536706104767,395.72734840611673,0.5993237686461306,98.18033453258289,6.551606031298158,47.3243237513444,95.80748807927571,0
12.700000000000001,21.06083434384298,3.822087747182745,395.9312778763839,0.5913783430393068,100.2991125053518,6.25613927841,47.3884086609,98.1043319702,0
12.8,21.055750453504107,3.630638788260723,396.13520734665104,0.5834329174324829,102.4178904781207,6.25613927841,47.3884086609,98.1043319702,0
12.9,21.05066656316523,3.4391898293387015,396.3391368169182,0.5754874918256592,104.53666845088961,6.25613927841,47.3884086609,98.1043319702,0
13.0,21.04955134935804,3.2995754320943953,396.52118445845036,0.569141596865327,106.77255712029346,4.05947065353,46.3633460999,106.56388855,0
13.100000000000001,21.05729649296132,3.2756854429778044,396.654379334624,0.5663667697669801,109.26990389052528,4.05947065353,46.3633460999,106.56388855,0
13.200000000000001,21.0650416365646,3.251795453861214,396.7875742107977,0.5635919426686332,111.76725066075707,4.05947065353,46.3633460999,106.56388855,0
13.3,21.07278678016788,3.2279054647446235,396.92076908697135,0.5608171155702864,114.26459743098884,4.05947065353,46.3633460999,106.56388855,0
13.4,21.100506076495815,2.8932185434228477,397.00821995580264,0.5579904016597014,116.4067218485997,1.9108900489958334,46.917805246894346,114.6494036151671,0
13.5,21.136562210742536,2.4288107931292253,397.0765781311802,0.5551420311637424,118.40058309731643,1.78945350647,46.9507102966,115.118087769,0
13.600000000000001,21.17261834498926,1.9644030428355943,397.1449363065578,0.5522936606677834,120.39444434603318,1.78945350647,46.9507102966,115.118087769,0
13.700000000000001,21.210580666959014,1.5533792106303794,397.20142586606875,0.5492786285782676,122.43283041842982,0.4647906377469333,46.575533609582266,120.6433189949437,0
13.8,21.256424643269106,1.3630857842617037,397.20884138810226,0.5455744885607376,124.65531654853284,0.0112184789032,46.448600769,122.800354004,0
13.9,21.3022686195792,1.172792357893028,397.21625691013577,0.5418703485432076,126.87780267863585,0.0112184789032,46.448600769,122.800354004,0
14.0,21.3542634071715,0.8744394127636932,397.1998463294672,0.541343460953859,129.20909669938868,-0.6066496981019094,46.36147842354319,126.56029807415958,0
14.100000000000001,21.41253147855102,0.4658753107653625,397.1591352302271,0.5440570899778621,131.65136515018278,-0.880901157856,46.3295326233,128.234725952,0
14.200000000000001,21.470799549930536,0.0573112087670391,397.11842413098697,0.546770719001865,134.09363360097686,-0.880901157856,46.3295326233,128.234725952,0
14.3,21.529067621310055,-0.3512528932312844,397.07771303174684,0.5494843480258679,136.5359020517709,-0.880901157856,46.3295326233,128.234725952,0
14.4,21.59462210040564,-0.6402104336914266,396.9961189548175,0.5477618062548489,139.01438702065687,-3.055876501055014,45.64946927033074,136.99162821721265,0
14.5,21.6618860412825,-0.9011071170451506,396.9049333355826,0.5449984958739987,141.50136873525645,-3.10116362572,45.6409034729,137.506378174,0
14.600000000000001,21.729149982159363,-1.162003800398879,396.8137477163477,0.5422351854931486,143.98835044985606,-3.10116362572,45.6409034729,137.506378174,0
14.700000000000001,21.794774867145517,-1.3770091437644167,396.72543002989227,0.5388800455513472,146.50398813663662,-3.3401331246668886,43.38914960206929,144.36960653628813,0
14.8,21.85346311646556,-1.3977981046798842,396.64924969941063,0.533020228335259,149.14090054004143,-3.4243555069,42.6005897522,146.7837677,0
14.9,21.912151365785604,-1.4185870655953516,396.57306936892894,0.5271604111191709,151.77781294344626,-3.4243555069,42.6005897522,146.7837677,0
15.0,21.970839615105646,-1.439376026510819,396.4968890384473,0.5213005939030827,154.4147253468511,-3.4243555069,42.6005897522,146.7837677,0
15.100000000000001,21.999363334947798,-1.2457488656809912,396.4494105481347,0.5138857538171258,156.63046211755048,-3.32152175903,37.8381958008,155.169372559,0
15.200000000000001,22.019281961358924,-0.9909548047644682,396.4101198870564,0.5060273093615928,158.72604930418424,-3.32152175903,37.8381958008,155.169372559,0
15.3,22.039200587770047,-0.736160743847945,396.37082922597807,0.4981688649060599,160.82163649081804,-3.32152175903,37.8381958008,155.169372559,0
15.4,22.059119214181173,-0.48136668293142193,396.3315385648998,0.4903104204505269,162.9172236774518,-3.2504956588897125,37.50133305410765,155.5095639795955,0
15.5,22.030380657711696,-0.2814489032809194,396.36511165541594,0.48297470673852466,164.17088375322277,-1.82437849045,30.3659973145,163.017730713,0
15.600000000000001,21.999641087269033,-0.08378789640493112,396.40168124873907,0.4756604901922046,165.38991979583975,-1.82437849045,30.3659973145,163.017730713,0
15.700000000000001,21.96890151682637,0.1138731104710537,396.4382508420622,0.4683462736458846,166.60895583845672,-1.82437849045,30.3659973145,163.017730713,0
15.8,21.93816194638371,0.31153411734703845,396.4748204353853,0.46103205709956463,167.82799188107367,-1.82437849045,30.3659973145,163.017730713,0
15.9,21.856173652148854,0.5976708989024324,396.5941970365814,0.4515396511961756,168.84603526102683,0.228266730905,20.8181476593,168.455001831,0
16.0,21.765766101485962,0.8983426811285921,396.72717736059707,0.4416894074113917,169.83105911108916,0.228266730905,20.8181476593,168.455001831,0
16.1,21.67535855082307,1.199014463354757,396.86015768461266,0.43183916362660757,170.81608296115155,0.228266730905,20.8181476593,168.455001831,0
16.2,21.58495100016018,1.4996862455809112,396.99313800862825,0.42198891984182385,171.80110681121386,0.228266730905,20.8181476593,168.455001831,0
16.3,21.503509784568987,1.663903944482781,397.14145438123165,0.4122137359938287,172.15572507355384,1.3802999107565228,12.04941336989184,171.38137374663165,0
16.400000000000002,21.424337076061896,1.7935983903274582,397.29365081570927,0.4024575425133557,172.3508490129435,1.68481183052,9.70664978027,172.181777954,0
16.5,21.34516436755481,1.9232928361721306,397.4458472501869,0.392701349032883,172.5459729523332,1.68481183052,9.70664978027,172.181777954,0
16.6,21.265991659047717,2.052987282016808,397.59804368466456,0.38294515555241,172.74109689172286,1.68481183052,9.70664978027,172.181777954,0
16.7,21.186818950540626,2.1826817278614805,397.7502401191422,0.3731889620719373,172.93622083111254,1.68481183052,9.70664978027,172.181777954,0
16.8,21.12388501143778,2.0152819092863816,397.8503766141724,0.36712069222064425,172.85603444985534,-0.65832901001,0.651249468327,173.944625854,0
16.900000000000002,21.068836389827187,1.7036173042757943,397.92523353653604,0.36284322609218,172.6421612581537,-0.65832901001,0.651249468327,173.944625854,0
17.0,21.013787768216595,1.391952699265218,398.0000904588997,0.3585657599637159,172.42828806645207,-0.65832901001,0.651249468327,173.944625854,0
17.1,20.958739146606003,1.0802880942546307,398.07494738126337,0.3542882938352517,172.21441487475045,-0.65832901001,0.651249468327,173.944625854,0
17.2,20.90369052499541,0.7686234892440547,398.14980430362704,0.3500108277067876,172.00054168304882,-0.8090664190561646,0.08665322867722547,173.7815788796459,0
17.3,20.87068177124617,0.6094805868067752,398.1541444440984,0.34999999404,171.58471707524828,-1.81468224525,-3.57156300545,172.681625366,0
17.400000000000002,20.83772898027005,0.45072496152973934,398.15830553110675,0.34999999404,171.16837968028622,-1.81468224525,-3.57156300545,172.681625366,0
17.5,20.804776189293932,0.29196933625270916,398.16246661811505,0.34999999404,170.75204228532417,-1.81468224525,-3.57156300545,172.681625366,0
17.6,20.771823398317814,0.13321371097567325,398.16662770512335,0.34999999404,170.3357048903621,-1.81468224525,-3.57156300545,172.681625366,0
17.7,20.742109741225523,-0.01907502762653896,398.15986827341493,0.34999999404,169.9221980255536,-3.2835761075253527,-5.094499719467306,171.23991583754363,0
17.8,20.725881874891357,-0.14443956868676985,398.1076424189942,0.34999999404,169.52047577316137,-3.74200797081,-5.55463075638,170.786712646,0
17.900000000000002,20.709654008557187,-0.26980410974700075,398.0554165645734,0.34999999404,169.11875352076913,-3.759954436716536,-5.547008679112173,170.71862644811603,0
18.0,20.703744729837464,-0.335588276500995,397.977005480414,0.35217163010675323,168.78283683340584,-4.00405788422,-5.47807979584,169.784866333,0
18.1,20.70216585399141,-0.3763683405860338,397.88760523782065,0.3552546369361946,168.47453677523177,-4.00405788422,-5.47807979584,169.784866333,0
18.2,20.700586978145356,-0.41714840467107117,397.79820499522737,0.3583376437656358,168.1662367170577,-4.00405788422,-5.47807979584,169.784866333,0
18.3,20.70519912504449,-0.6539202460749404,397.7049584193766,0.361217369226666,167.87826439173415,-5.3833117485,-5.03348398209,168.75227356,0
18.400000000000002,20.717055753794487,-1.1200336570615104,397.60721102150944,0.3638592231364702,167.6140787487999,-5.3833117485,-5.03348398209,168.75227356,0
18.5,20.728912382544483,-1.5861470680480636,397.50946362364226,0.3665010770462743,167.34989310586562,-5.3833117485,-5.03348398209,168.75227356,0
18.6,20.74076901129448,-2.0522604790346337,397.4117162257751,0.36914293095607853,167.08570746293137,-5.3833117485,-5.03348398209,168.75227356,0
18.7,20.75493068628215,-2.1430497827803645,397.2903306160138,0.3744101000674684,166.55899048757593,-4.61278247833,-8.16568088531,167.052810669,0
18.8,20.77019927341431,-2.053603737823736,397.15759364010995,0.3809379785009693,165.90620267016328,-4.61278247833,-8.16568088531,167.052810669,0
18.900000000000002,20.78546786054647,-1.9641576928671078,397.0248566642061,0.3874658569344701,165.25341485275064,-4.61278247833,-8.16568088531,167.052810669,0
19.0,20.80073644767863,-1.8747116479104826,396.8921196883022,0.3939937353679707,164.60062703533802,-4.61278247833,-8.16568088531,167.052810669,0
19.1,20.816230596730122,-1.7831017383416432,396.7600194568519,0.40047476564203627,163.90504797304175,-4.398452445889141,-11.662519240603736,165.84397079815324,0
19.200000000000003,20.83432207238422,-1.6665751090609424,396.6352512844354,0.4064163432853414,162.71673131114255,-4.19866228104,-14.9105367661,164.715881348,0
19.3,20.852413548038317,-1.5500484797802458,396.51048311201896,0.41235792092864626,161.5284146492434,-4.19866228104,-14.9105367661,164.715881348,0
19.400000000000002,20.870505023692413,-1.4335218504995453,396.38571493960245,0.4182994985719513,160.3400979873442,-4.19866228104,-14.9105367661,164.715881348,0
19.5,20.870343753958544,-1.3668953096402956,396.28679002240904,0.4230836722882805,159.0748948758885,-2.87315058708,-19.2214012146,160.943130493,0
19.6,20.862863944611984,-1.3202764863066394,396.19822710189334,0.4274037784735391,157.7788637155668,-2.87315058708,-19.2214012146,160.943130493,0
19.700000000000003,20.855384135265428,-1.2736576629729834,396.1096641813777,0.4317238846587978,156.48283255524512,-2.87315058708,-19.2214012146,160.943130493,0
19.8,20.84790432591887,-1.227038839639329,396.021101260862,0.4360439908440563,155.1868013949235,-2.87315058708,-19.2214012146,160.943130493,0
19.900000000000002,20.83942771972768,-1.168220182343228,395.9358069034489,0.439999997616,153.86650636365744,-2.860408276697283,-19.253585696465606,160.8823924445874,0
20.0,20.820120733361726,-0.9768480959366425,395.88602608243656,0.439999997616,152.28257993322063,-1.52981865406,-24.1561107635,153.779464722,0
20.1,20.800813746995768,-0.7854760095300499,395.83624526142427,0.439999997616,150.6986535027838,-1.52981865406,-24.1561107635,153.779464722,0
20.200000000000003,20.781506760629814,-0.5941039231234575,395.7864644404119,0.439999997616,149.11472707234694,-1.52981865406,-24.1561107635,153.779464722,0
20.3,20.76219977426386,-0.40273183671687174,395.73668361939957,0.439999997616,147.53080064191013,-1.52981865406,-24.1561107635,153.779464722,0
20.400000000000002,20.735070566889878,-0.4373333984222593,395.6837400294338,0.4416482228767089,146.1758865836886,-1.717451334,-24.2862014771,147.941726685,0
20.5,20.70399877262129,-0.5858310955934884,395.62920232810075,0.44412719317844523,144.9364002507223,-1.717451334,-24.2862014771,147.941726685,0
20.6,20.672926978352695,-0.7343287927647228,395.5746646267676,0.4466061634801817,143.69691391775595,-1.717451334,-24.2862014771,147.941726685,0
20.700000000000003,20.641855184084104,-0.8828264899359571,395.52012692543457,0.4490851337819181,142.45742758478963,-1.717451334,-24.2862014771,147.941726685,0
20.8,20.610211841674207,-0.8917734845162159,395.4742079146074,0.449999988079,140.8947405534631,-1.5260723625008983,-23.80295239438504,143.58565668799108,0
20.900000000000002,20.57823419971651,-0.8190970192340147,395.43332999153915,0.449999988079,139.1430128455915,-1.45992255211,-23.6342334747,142.06060791,0
21.0,20.54625655775881,-0.7464205539518161,395.39245206847096,0.449999988079,137.39128513772,-1.45992255211,-23.6342334747,142.06060791,0
21.1,20.516212746643497,-0.6883296342090012,395.349034996981,0.449999988079,135.8095428700252,-2.013102601020842,-22.895364362658864,139.6627327758519,0
21.200000000000003,20.493633398199023,-0.6865379821302472,395.29581697589725,0.449999988079,134.88393346823287,-2.62869739532,-22.0670280457,136.969467163,0
21.3,20.47105404975455,-0.6847463300514932,395.2425989548135,0.449999988079,133.95832406644053,-2.62869739532,-22.0670280457,136.969467163,0
21.400000000000002,20.448474701310072,-0.6829546779727392,395.18938093372975,0.449999988079,133.03271466464818,-2.62869739532,-22.0670280457,136.969467163,0
21.5,20.4258953528656,-0.6811630258939854,395.136162912646,0.449999988079,132.10710526285584,-2.622866323895885,-21.235239412455357,136.13705602584176,0
21.6,20.40055316418303,-0.7516014508619735,395.0515282976517,0.45170592277331845,131.48822062887655,-2.598487854,-17.889755249,132.645187378,0
21.700000000000003,20.374849444365974,-0.8314915340686608,394.9627826679554,0.45363508735146774,130.90947242832286,-2.598487854,-17.889755249,132.645187378,0
21.8,20.349145724548922,-0.9113816172753455,394.8740370382591,0.45556425192961697,130.33072422776917,-2.598487854,-17.889755249,132.645187378,0
21.900000000000002,20.323442004731866,-0.9912717004820328,394.7852914085628,0.4574934165077663,129.7519760272155,-2.598487854,-17.889755249,132.645187378,0
22.0,20.297738284914814,-1.0711617836887175,394.6965457788665,0.45942258108591555,129.17322782666182,-2.5451915906371734,-17.560897698560794,132.48560103891938,0
22.1,20.26313247446478,-1.0515478630135366,394.62436268952115,0.462281226050429,128.08751204758863,-1.42516577244,-11.1753606796,129.098510742,0
22.200000000000003,20.224723920891638,-0.9894284026753793,394.5592546895023,0.46553692102184935,126.78523281703679,-1.42516577244,-11.1753606796,129.098510742,0
22.3,20.186315367318496,-0.9273089423372244,394.4941466894835,0.4687926159932696,125.482953586485,-1.42516577244,-11.1753606796,129.098510742,0
22.400000000000002,20.145298870593972,-0.8335124489558378,394.4459897511678,0.469999998808,124.74725093446729,-1.23127067089,-6.74538469315,125.724632263,0
22.5,20.102745115140355,-0.7210438478133772,394.4078246593219,0.469999998808,124.34551828888472,-1.23127067089,-6.74538469315,125.724632263,0
22.6,20.06019135968674,-0.6085752466709125,394.369659567476,0.469999998808,123.94378564330214,-1.23127067089,-6.74538469315,125.724632263,0
22.700000000000003,20.017637604233123,-0.49610664552844774,394.33149447563005,0.469999998808,123.54205299771955,-1.23127067089,-6.74538469315,125.724632263,0
22.8,19.97508384877951,-0.38363804438598703,394.29332938378417,0.469999998808,123.14032035213698,-1.23127067089,-6.74538469315,125.724632263,0
22.900000000000002,19.919319115067406,-0.20345103960464286,394.2449825718194,0.47194542096396463,122.41637279660533,-0.142924591899,-8.68539619446,123.003753662,0
23.0,19.856463019671924,0.01308571032262612,394.19117043711253,0.47493510281553086,121.51946738575678,-0.142924591899,-8.68539619446,123.003753662,0
23.1,19.793606924276443,0.2296224602499028,394.13735830240563,0.4779247846670972,120.6225619749082,-0.142924591899,-8.68539619446,123.003753662,0
23.200000000000003,19.72962299999489,0.29257993038305874,394.09464363789334,0.48076597725500264,119.6936054273382,0.7181151422008094,-9.59920756880349,121.80848725435509,0
23.3,19.663079716579187,0.007023066991653282,394.0771122366041,0.48327020617938704,118.69191588760846,1.54470932484,-10.4782752991,120.660072327,0
23.400000000000002,19.596536433163482,-0.27853379639976233,394.0595808353149,0.4857744351037715,117.69022634787868,1.54470932484,-10.4782752991,120.660072327,0
23.5,19.529993149747778,-0.5640906597911679,394.0420494340256,0.4882786640281559,116.68853680814894,1.54470932484,-10.4782752991,120.660072327,0
23.6,19.463426207668224,-0.7099723371572333,394.0179153132912,0.49151040674087915,115.62240033891342,1.021636077426384,-13.987589603513353,118.10889647551939,0
23.700000000000003,19.39680724668782,-0.5487466606195974,393.9792636268025,0.49634175236678285,114.41456278052281,0.67727804184,-16.316028595,116.425163269,0
23.8,19.330188285707425,-0.3875209840819673,393.9406119403138,0.5011730979926864,113.20672522213225,0.67727804184,-16.316028595,116.425163269,0
23.900000000000002,19.263569324727026,-0.22629530754433147,393.90196025382505,0.5060044436185901,111.99888766374166,0.67727804184,-16.316028595,116.425163269,0
24.0,19.199078332611553,-0.11012756355707976,393.86382571883127,0.5105141274078857,110.79434502593315,1.1983322420505769,-22.35676108449708,113.01587844785674,0
24.1,19.14476012307427,-0.20935984670983698,393.82816343322287,0.5134861026425827,109.60555379842303,1.42494893074,-24.8896484375,111.466751099,0
24.200000000000003,19.09044191353699,-0.3085921298625942,393.7925011476145,0.5164580778772797,108.41676257091292,1.42494893074,-24.8896484375,111.466751099,0
24.3,19.03612370399971,-0.4078244130153479,393.7568388620061,0.5194300531119765,107.22797134340284,1.42494893074,-24.8896484375,111.466751099,0
24.400000000000002,19.009349728573966,-0.4822183199026676,393.6769965388044,0.5289027646537935,105.57555494330073,0.823774278164,-30.1749324799,107.059112549,0
24.5,18.9891111050464,-0.5507188870508327,393.58667172800205,0.5399178897255078,103.81313535198728,0.823774278164,-30.1749324799,107.059112549,0
24.6,18.968872481518837,-0.6192194541990004,393.4963469171997,0.5509330147972225,102.05071576067377,0.823774278164,-30.1749324799,107.059112549,0
24.700000000000003,18.948633857991272,-0.6877200213471679,393.4060221063973,0.5619481398689371,100.28829616936025,0.823774278164,-30.1749324799,107.059112549,0
24.8,18.93268984760991,-0.7967354722159217,393.2958868629277,0.5732916795315883,98.20999538405171,-0.7894226346028553,-34.72174940741946,101.57668703865322,0
24.900000000000002,18.928415232598944,-1.0158386493655036,393.13192237724655,0.5855275928671604,95.27337688366298,-1.43249070644,-36.2375335693,99.1948471069,0
25.0,18.924140617587977,-1.234941826515078,392.96795789156545,0.5977635062027321,92.33675838327436,-1.43249070644,-36.2375335693,99.1948471069,0
25.1,18.91986600257701,-1.45404500366466,392.8039934058843,0.6099994195383042,89.40013988288564,-1.43249070644,-36.2375335693,99.1948471069,0
25.200000000000003,18.918186696342392,-1.647556836022549,392.636826872552,0.6223683035759376,86.48686861201047,-1.107216533405756,-38.33919504943287,94.65361124584642,0
25.3,18.92811848493856,-1.7265761139947646,392.45533476868667,0.6353320823118129,83.67804999755472,-0.667609810829,-41.1513824463,87.5903015137,0
25.400000000000002,18.93805027353473,-1.8055953919669834,392.27384266482136,0.6482958610476885,80.86923138309886,-0.667609810829,-41.1513824463,87.5903015137,0
25.5,18.947982062130897,-1.8846146699391992,392.09235056095605,0.6612596397835637,78.0604127686431,-0.667609810829,-41.1513824463,87.5903015137,0
25.6,18.957913850727067,-1.9636339479114178,391.91085845709074,0.6742234185194395,75.25159415418726,-0.667609810829,-41.1513824463,87.5903015137,0
25.700000000000003,18.980465762327405,-2.1855636583338756,391.72596076437713,0.6852894827842937,72.41315579723859,-0.567366778851,-45.063911438,74.2621231079,0
25.8,19.01316089513968,-2.5223553339968623,391.53832588431334,0.694830289516372,69.55091104789227,-0.567366778851,-45.063911438,74.2621231079,0
25.900000000000002,19.045856027951956,-2.8591470096598615,391.35069100424954,0.7043710962484507,66.68866629854585,-0.567366778851,-45.063911438,74.2621231079,0
26.0,19.093063722128047,-3.1631755551194005,391.15821638026404,0.714361253080857,63.58258653524297,-0.12093493465691418,-46.007277375574944,68.44561550859873,0
26.1,19.161153593600382,-3.420061113442729,390.9587778311581,0.7249979814059101,60.12565168407338,0.0909261479974,-46.4560966492,65.6591720581,0
26.200000000000003,19.229243465072713,-3.6769466717660575,390.75933928205217,0.7356347097309632,56.6687168329038,0.0909261479974,-46.4560966492,65.6591720581,0
26.3,19.297333336545044,-3.9338322300893767,390.55990073294623,0.746271438056016,53.21178198173433,0.0909261479974,-46.4560966492,65.6591720581,0
26.400000000000002,19.346874046163848,-3.8894123487761196,390.3812706339348,0.75,49.41145815282978,1.35719752312,-48.3083267212,52.2731323242,0
26.5,19.386403170194704,-3.6823681278373903,390.2138715318125,0.75,45.42579613087391,1.35719752312,-48.3083267212,52.2731323242,0
26.6,19.42593229422556,-3.475323906898654,390.0464724296902,0.75,41.4401341089179,1.35719752312,-48.3083267212,52.2731323242,0
26.700000000000003,19.465461418256417,-3.268279685959917,389.87907332756794,0.75,37.4544720869619,1.35719752312,-48.3083267212,52.2731323242,0
26.8,19.460038164793165,-2.7382469308121813,389.8215156786036,0.75,33.63398063861692,3.33674645424,-46.6102027893,37.0534210205,0
26.900000000000002,19.44882943923984,-2.16664482484813,389.77809487171527,0.75,29.834747014596037,3.33674645424,-46.6102027893,37.0534210205,0
27.0,19.43762071368652,-1.5950427188840997,389.734674064827,0.75,26.035513390575296,3.33674645424,-46.6102027893,37.0534210205,0
27.1,19.39824803010277,-1.0091898631892289,389.7267102338017,0.7471216497384516,22.342091301560068,5.390297810745002,-43.01248521908011,26.046241348420686,0
27.200000000000003,19.24693373755148,-0.3666954000846945,389.85967513598,0.7328028918785904,19.069232027723757,5.8610534668,-42.187412262,23.5083847046,0
27.3,19.095619445000196,0.27579906301981705,389.9926400381583,0.7184841340187297,15.796372753887562,5.8610534668,-42.187412262,23.5083847046,0
27.400000000000002,18.944305152448905,0.9182935261243514,390.1256049403366,0.7041653761588685,12.523513480051252,5.8610534668,-42.187412262,23.5083847046,0
27.5,18.79299085989762,1.5607879892288627,390.2585698425149,0.6898466182990078,9.250654206215057,5.8610534668,-42.187412262,23.5083847046,0
27.6,18.604613047887554,2.255419437928113,390.4776588748858,0.672490939451131,29.026597716775242,9.72877312285042,-36.332164088820434,13.715056633681337,0
27.700000000000003,18.33463011709135,3.0648442188509906,390.8863729071852,0.6484486776346083,99.55056290916868,12.4754266739,-32.2031440735,6.74989795685,0
27.8,18.064647186295158,3.8742689997738395,391.2950869394846,0.6244064158180864,170.07452810155962,12.4754266739,-32.2031440735,6.74989795685,0
27.900000000000002,17.794664255498958,4.683693780696718,391.703800971784,0.6003641540015637,240.59849329395306,12.4754266739,-32.2031440735,6.74989795685,0
28.0,17.52468132470276,5.493118561619566,392.11251500408343,0.5763218921850418,311.122458486344,12.4754266739,-32.2031440735,6.74989795685,0
28.1,17.241990013399167,6.075065719652994,392.5566243800795,0.5531635210206237,358.7436319908953,14.1416101456,-16.842716217,-0.738426566124,0
28.200000000000003,16.93243150116595,6.176095030002466,393.0755642044177,0.5318738118573233,357.9452680281334,14.1416101456,-16.842716217,-0.738426566124,0
28.3,16.62287298893274,6.277124340351935,393.5945040287559,0.5105841026940237,357.1469040653715,14.1416101456,-16.842716217,-0.738426566124,0
28.400000000000002,16.313314476699524,6.378153650701407,394.1134438530941,0.48929439353072324,356.34854010260955,14.1416101456,-16.842716217,-0.738426566124,0
28.5,16.069270076732696,6.391720988798414,394.6181989479104,0.4711680858787598,355.852801615978,13.9644641876,1.07536280155,-3.507802248,0
28.6,15.875988425109094,6.337519567868317,395.1119631915936,0.4554928982873964,355.59154849983577,13.9644641876,1.07536280155,-3.507802248,0
28.700000000000003,15.682706773485492,6.283318146938221,395.6057274352768,0.43981771069603304,355.33029538369345,13.9644641876,1.07536280155,-3.507802248,0
28.8,15.489425121861897,6.229116726008126,396.0994916789599,0.42414252310467027,355.0690422675512,13.9644641876,1.07536280155,-3.507802248,0
28.900000000000002,15.359520089754467,6.156604913332173,396.4480957495589,0.412543141349292,355.1864211773348,9.14950275421,9.94998264313,-4.90698480606,0
29.0,15.252379982484543,6.077515995486812,396.7445581872514,0.4024077918224677,355.43980496836764,9.14950275421,9.94998264313,-4.90698480606,0
29.1,15.145239875214614,5.998427077641448,397.041020624944,0.3922724422956431,355.6931887594004,9.14950275421,9.94998264313,-4.90698480606,0
29.200000000000003,15.038099767944686,5.919338159796084,397.3374830626365,0.38213709276881846,355.94657255043325,9.14950275421,9.94998264313,-4.90698480606,0
29.3,14.973525798351266,5.220413558428431,397.4999244621367,0.37600277639848423,356.3997222645467,3.81259155273,13.5952444077,-3.53158783913,0
29.400000000000002,14.920325312375766,4.35587160540155,397.6265560333193,0.3709375183816686,356.90624854927705,3.81259155273,13.5952444077,-3.53158783913,0
29.5,14.867124826400266,3.4913296523746977,397.7531876045019,0.36587226036485315,357.4127748340074,3.81259155273,13.5952444077,-3.53158783913,0
29.6,14.813924340424766,2.626787699347816,397.8798191756845,0.3608070023480375,357.9193011187378,3.81259155273,13.5952444077,-3.53158783913,0
29.700000000000003,14.802145638738677,1.823073148746925,397.8709680881809,0.36263834097559994,263.54781511347306,-1.55290567875,14.600605011,-1.36875736713,0
29.8,14.798216811496596,1.0308860463231568,397.836441577026,0.3657766589783398,151.1959234653882,-1.55290567875,14.600605011,-1.36875736713,0
29.900000000000002,14.794287984254513,0.2386989438993603,397.80191506587107,0.3689149769810797,38.84403181729937,-1.55290567875,14.600605011,-1.36875736713,0
30.0,14.82076721154236,-0.00128172011688521,397.6905255237068,0.3752345602550598,0.17448517596911617,-5.67850017548,15.6861629486,0.149343520403,0
30.1,14.863315080202465,0.050542118305072506,397.5385189641382,0.38323523137052806,0.44117420255494694,-5.67850017548,15.6861629486,0.149343520403,0
30.200000000000003,14.905862948862568,0.10236595672703024,397.3865124045695,0.3912359024859963,0.7078632291407777,-5.67850017548,15.6861629486,0.149343520403,0
30.3,14.94841081752267,0.15418979514898612,397.23450584500085,0.39923657360146425,0.974552255726599,-5.67850017548,15.6861629486,0.149343520403,0
30.400000000000002,15.025839409524819,-0.40675554985862217,397.0336391354918,0.40776491350896954,1.19412272921824,-6.92463588715,13.2320785522,1.59991502762,0
30.5,15.106947453564242,-1.0323398875338943,396.8276183305106,0.41634891545056796,1.4087228225237793,-6.92463588715,13.2320785522,1.59991502762,0
30.6,15.188055497603667,-1.657924225209189,396.6215975255294,0.42493291739216665,1.623322915829326,-6.92463588715,13.2320785522,1.59991502762,0
30.700000000000003,15.26916354164309,-2.2835085628844833,396.41557672054824,0.43351691933376535,1.8379230091348733,-6.92463588715,13.2320785522,1.59991502762,0
30.8,15.354547943338718,-2.78926996983528,396.2041339561102,0.44169229594958326,2.16922982663426,-7.51057126711666,8.847758978121337,2.2110750191465964,0
30.900000000000002,15.453128427302468,-2.9252790364612484,395.97595998516425,0.44860672718867084,2.860672923069683,-7.98424339294,5.26624584198,2.88721013069,0
31.0,15.551708911266214,-3.0612881030872114,395.7477860142183,0.45552115842775825,3.552116019505081,-7.98424339294,5.26624584198,2.88721013069,0
31.1,15.650289395229965,-3.19729716971318,395.5196120432724,0.46243558966684584,4.243559115940505,-7.98424339294,5.26624584198,2.88721013069,0
31.200000000000003,15.748869879193716,-3.3333062363391477,395.29143807232646,0.4693500209059335,4.935002212375927,-7.98424339294,5.26624584198,2.88721013069,0
31.3,15.810727077037429,-3.2581153343755633,395.1631151421168,0.47227390289978516,4.317828121877122,-4.95767116547,1.13832831383,5.01148843765,0
31.400000000000002,15.868773994368999,-3.161011057834006,395.04515240879664,0.4747837393757012,3.5648764610123207,-4.95767116547,1.13832831383,5.01148843765,0
31.5,15.926820911700569,-3.0639067812924514,394.92718967547654,0.47729357585161714,2.811924800147546,-4.95767116547,1.13832831383,5.01148843765,0
31.6,15.984867829032138,-2.966802504750894,394.8092269421564,0.47980341232753315,2.0589731392827444,-4.95767116547,1.13832831383,5.01148843765,0
31.700000000000003,16.006420937323014,-2.65099054717252,394.77341104036316,0.479999989271,1.7785180488896735,-2.07343244553,-1.35061824322,2.8848259449,0
31.8,16.024872862484173,-2.316593175010163,394.74457583953773,0.479999989271,1.5382149303437018,-2.07343244553,-1.35061824322,2.8848259449,0
31.900000000000002,16.043324787645332,-1.982195802847794,394.71574063871236,0.479999989271,1.2979118117977217,-2.07343244553,-1.35061824322,2.8848259449,0
32.0,16.061776712806495,-1.6477984306854372,394.68690543788694,0.479999989271,1.05760869325175,-2.07343244553,-1.35061824322,2.8848259449,0
32.1,16.069417787219944,-1.342769300920618,394.6874337927262,0.4781401091804731,67.58377074180487,-1.49084866047,-2.54391956329,1.64546179771,0
32.2,16.073649896179123,-1.047000804395695,394.6972213029467,0.47569375656103546,155.16327804224812,-1.49084866047,-2.54391956329,1.64546179771,0
32.300000000000004,16.077882005138306,-0.7512323078707721,394.7070088131671,0.4732474039415978,242.7427853426914,-1.49084866047,-2.54391956329,1.64546179771,0
32.4,16.08211411409749,-0.4554638113458702,394.7167963233875,0.4708010513221604,330.32229264312843,-1.49084866047,-2.54391956329,1.64546179771,0
32.5,16.05805314149636,-0.2900852896488246,394.74562534726317,0.46865137919603134,358.5954137305555,-0.648918867111,-3.7439391613,-0.845405101776,0
32.6,16.020217025962623,-0.18819015120943794,394.783725173674,0.46664615284870276,357.99384525264105,-0.648918867111,-3.7439391613,-0.845405101776,0
32.7,15.982380910428885,-0.0862950127700513,394.8218250000848,0.4646409265013742,357.3922767747266,-0.648918867111,-3.7439391613,-0.845405101776,0
32.800000000000004,15.944544794895148,0.01560012566933533,394.8599248264956,0.4626357001540456,356.79070829681217,-0.648918867111,-3.7439391613,-0.845405101776,0
32.9,15.906708679361413,0.11749526410871469,394.8980246529064,0.4606304738067171,356.1891398188978,-0.648918867111,-3.7439391613,-0.845405101776,0
33.0,15.863959556260443,0.29586912235087803,394.9518201054712,0.45790899050149797,356.0,0.8498213643393777,-6.337448687012367,-3.2396966770826254,0
33.1,15.81895732746181,0.50931612814666,395.0128135735554,0.4548590316930906,356.0,1.06447958946,-6.71650314331,-3.58715057373,0
33.2,15.773955098663178,0.7227631339424421,395.0738070416396,0.45180907288468325,356.0,1.06447958946,-6.71650314331,-3.58715057373,0
33.300000000000004,15.741526881625337,0.8159525065108268,395.1173730015282,0.449999988079,355.852301096774,-0.09105446715901744,-7.642312267673878,-3.6964014266501506,0
33.4,15.727430464248862,0.7338168609375506,395.1355311922088,0.449999988079,355.4892702250679,-0.398132324219,-7.89178657532,-3.72590184212,0
33.5,15.713334046872385,0.6516812153642686,395.15368938288935,0.449999988079,355.1262393533618,-0.398132324219,-7.89178657532,-3.72590184212,0
33.6,15.699333205148116,0.5269343964949702,395.15506623158956,0.4516458685385509,354.3416491503935,-1.21855211258,-8.27988910675,-4.45862770081,0
33.7,15.685383317143037,0.3794705183302486,395.1474965361949,0.4541692081502601,353.3323153512257,-1.21855211258,-8.27988910675,-4.45862770081,0
33.800000000000004,15.67143342913796,0.23200664016552702,395.13992684080034,0.45669254776196927,352.32298155205785,-1.21855211258,-8.27988910675,-4.45862770081,0
33.9,15.657483541132882,0.0845427620008159,395.1323571454057,0.4592158873736783,351.3136477528901,-1.21855211258,-8.27988910675,-4.45862770081,0
34.0,15.642575942837333,0.10549459160979172,395.1354065479247,0.460000008345,350.4598115218659,0.251376241446,-11.7717962265,-8.57594108582,0
34.1,15.62723656402508,0.2023760860111797,395.1432435356138,0.460000008345,349.67608085511034,0.251376241446,-11.7717962265,-8.57594108582,0
34.2,15.611897185212827,0.29925758041256767,395.151080523303,0.460000008345,348.8923501883547,0.251376241446,-11.7717962265,-8.57594108582,0
34.300000000000004,15.596557806400575,0.3961390748139557,395.1589175109922,0.460000008345,348.10861952159917,0.251376241446,-11.7717962265,-8.57594108582,0
34.4,15.60413683466867,0.07528997962128353,395.1324231954819,0.4621215009826738,347.1514021356227,-0.798329234123,-15.5484991074,-11.24355793,0
34.5,15.615403235646792,-0.31276834048877783,395.1004052713686,0.4645843233658771,346.16627224282297,-0.798329234123,-15.5484991074,-11.24355793,0
34.6,15.62666963662491,-0.7008266605988391,395.0683873472553,0.4670471457490804,345.18114235002326,-0.798329234123,-15.5484991074,-11.24355793,0
34.7,15.63793603760303,-1.0888849807089005,395.03636942314193,0.46950996813228374,344.19601245722356,-0.798329234123,-15.5484991074,-11.24355793,0
34.800000000000004,15.661858575657046,-1.0665274214807177,394.97648584810065,0.4719818139628477,343.00909147754663,-2.71140742302,-18.8505725861,-15.0934457779,0
34.9,15.68892482897493,-0.9422248013961247,394.9096805976986,0.47445590116840863,341.7720466949966,-2.71140742302,-18.8505725861,-15.0934457779,0
35.0,15.715991082292813,-0.8179221813115229,394.84287534729657,0.47692998837396966,340.5350019124465,-2.71140742302,-18.8505725861,-15.0934457779,0
35.1,15.743057335610699,-0.6936195612269213,394.7760700968945,0.4794040755795307,339.29795712989636,-2.71140742302,-18.8505725861,-15.0934457779,0
35.2,15.771713667219837,-0.5252572501031714,394.73510251368225,0.4816585090772284,337.67318684393683,-2.25452709198,-21.4776859283,-21.1571445465,0
35.300000000000004,15.800874504625247,-0.34291552071207726,394.7023327990473,0.48384325005135703,335.9253976067036,-2.25452709198,-21.4776859283,-21.1571445465,0
35.4,15.830035342030657,-0.16057379132099603,394.6695630844124,0.48602799102548544,334.17760836947053,-2.25452709198,-21.4776859283,-21.1571445465,0
35.5,15.859196179436069,0.021767938070098136,394.6367933697775,0.488212731999614,332.42981913223736,-2.25452709198,-21.4776859283,-21.1571445465,0
35.6,15.892611766702005,0.1106927132441533,394.5942489867267,0.49131142541735967,330.8032874303413,-2.1818140464830194,-24.69093188286174,-26.3372898627145,0
35.7,15.945159727288207,-0.22045139955664597,394.50775076118384,0.4985198972995169,329.72201561680873,-2.15128803253,-26.0560836792,-28.8932991028,0
35.800000000000004,15.997707687874408,-0.5515955123574452,394.42125253564103,0.5057283691816742,328.6407438032762,-2.15128803253,-26.0560836792,-28.8932991028,0
35.9,16.05907011656791,-0.750944228145797,394.3150164170003,0.5135856281658883,327.2828732003339,-2.549998683393134,-28.093801828916522,-30.75211064178184,0
36.0,16.13325310533351,-0.7585977918212745,394.18007172047646,0.5223865418227015,325.52269228753147,-2.70800900459,-28.9108963013,-31.4896450043,0
36.1,16.20743609409911,-0.7662513554967522,394.0451270239526,0.5311874554795147,323.76251137472906,-2.70800900459,-28.9108963013,-31.4896450043,0
36.2,16.281619082864708,-0.7739049191722298,393.91018232742874,0.539988369136328,322.00233046192665,-2.70800900459,-28.9108963013,-31.4896450043,0
36.300000000000004,16.39711109193975,-1.1567231840144019,393.7586946125365,0.5476933444251426,319.9484452521942,-2.27974009514,-33.4963569641,-37.3873634338,0
36.4,16.512657866253203,-1.5400388216858765,393.6071849658158,0.5553968667788454,317.89417066537845,-2.27974009514,-33.4963569641,-37.3873634338,0
36.5,16.62820464056667,-1.9233544593573781,393.4556753190951,0.5631003891325487,315.83989607856256,-2.27974009514,-33.4963569641,-37.3873634338,0
36.6,16.746265628837957,-2.251514104826131,393.30700579393465,0.5706176846794916,313.7838076524561,-1.6757379649551334,-33.22682874093499,-42.15272563852573,0
36.7,16.885904770812058,-2.106299368740039,393.18271151312035,0.5765366951451851,311.712152013829,-1.20328271389,-33.0143890381,-45.8845214844,0
36.800000000000004,17.025543912786155,-1.9610846326539462,393.05841723230606,0.5824557056108788,309.6404963752018,-1.20328271389,-33.0143890381,-45.8845214844,0
36.9,17.165183054760245,-1.8158698965678641,392.93412295149176,0.588374716076572,307.56884073657477,-1.20328271389,-33.0143890381,-45.8845214844,0
37.0,17.324940066430358,-1.7418098751922875,392.83931495898867,0.5915967753861082,305.08384765926166,-1.19087338448,-33.869342804,-53.3738517761,0
37.1,17.49231203041467,-1.6946831110471405,392.75566802293963,0.5937979932865797,302.44239940389906,-1.19087338448,-33.869342804,-53.3738517761,0
37.2,17.65968399439898,-1.6475563469019934,392.6720210868906,0.5959992111870511,299.80095114853646,-1.19087338448,-33.869342804,-53.3738517761,0
37.300000000000004,17.82705595838329,-1.6004295827568462,392.58837415084156,0.5982004290875226,297.15950289317385,-1.19087338448,-33.869342804,-53.3738517761,0
37.4,17.98897015471241,-1.5205132323215835,392.51080613333875,0.6004833266778391,294.56502703291113,-0.3487571729466602,-33.4155624273459,-61.80747085156686,0
37.5,18.12642916178914,-1.2936731597906574,392.4604765607258,0.6031322149807403,292.1810252866775,-0.068339779973,-33.2632980347,-64.646987915,0
37.6,18.263888168865872,-1.0668330872597314,392.41014698811284,0.6057811032836417,289.79702354044383,-0.068339779973,-33.2632980347,-64.646987915,0
37.7,18.401347175942604,-0.8399930147288055,392.3598174154999,0.608429991586543,287.4130217942102,-0.068339779973,-33.2632980347,-64.646987915,0
37.800000000000004,18.549144696889144,-0.670166952134551,392.31432572749344,0.611648501502237,285.17575561534085,0.599897159562203,-35.07315678005578,-71.0692235184081,0
37.9,18.711987374419326,-0.5833107165155647,392.27587438709924,0.6156959551583777,283.1520268573415,0.885869026184,-35.8590621948,-73.8247833252,0
38.0,18.874830051949523,-0.4964544808965722,392.2374230467051,0.6197434088145187,281.12829809934215,0.885869026184,-35.8590621948,-73.8247833252,0
38.1,19.03767272947972,-0.4095982452775797,392.1989717063109,0.6237908624706596,279.1045693413427,0.885869026184,-35.8590621948,-73.8247833252,0
38.2,19.200515407009917,-0.3227420096585872,392.16052036591674,0.6278383161268006,277.0808405833433,0.885869026184,-35.8590621948,-73.8247833252,0
38.300000000000004,19.37123901303904,-0.36726404298789217,392.13392731632246,0.6320190136727911,274.687636761885,1.2464795057580498,-37.76903468868253,-81.76883650999338,0
38.400000000000006,19.55099659317563,-0.562386082410705,392.12092752443374,0.6363524498016832,271.8709005917838,1.3075453043,-38.0992393494,-83.1250534058,0
38.5,19.7307541733122,-0.757508121833504,392.107927732545,0.640685885930575,269.05416442168286,1.3075453043,-38.0992393494,-83.1250534058,0
38.6,19.910511753448787,-0.9526301612563168,392.09492794065636,0.6450193220594671,266.2374282515817,1.3075453043,-38.0992393494,-83.1250534058,0
38.7,20.090269333585372,-1.1477522006791296,392.08192814876764,0.6493527581883592,263.4206920814805,1.3075453043,-38.0992393494,-83.1250534058,0
38.800000000000004,20.22734966826131,-0.7898999218287224,392.10141485817604,0.645714584590326,261.0715719554049,2.29904460907,-39.7607727051,-96.1717910767,0
38.900000000000006,20.356936827285782,-0.3349576444826857,392.1266054750858,0.6406767735212223,258.80455481225397,2.29904460907,-39.7607727051,-96.1717910767,0
39.0,20.486523986310246,0.11998463286331873,392.1517960919955,0.6356389624521189,256.5375376691032,2.29904460907,-39.7607727051,-96.1717910767,0
39.1,20.61611114533472,0.5749269102093555,392.17698670890525,0.6306011513830151,254.27052052595224,2.29904460907,-39.7607727051,-96.1717910767,0
39.2,20.64924727104315,0.8878877082374215,392.2953709926973,0.6191152207025639,251.82304561314226,4.90612220764,-34.1568565369,-106.354347229,0
39.300000000000004,20.669314511967844,1.1816103547305927,392.42638279589676,0.6067555852065682,249.35111910329982,4.90612220764,-34.1568565369,-106.354347229,0
39.400000000000006,20.689381752892537,1.4753330012237638,392.5573945990962,0.5943959497105726,246.87919259345742,4.90612220764,-34.1568565369,-106.354347229,0
39.5,20.70944899381723,1.7690556477169141,392.6884064022956,0.5820363142145778,244.40726608361518,4.90612220764,-34.1568565369,-106.354347229,0
39.6,20.662260093435854,2.3266921432987404,392.8856822082481,0.5703466817654792,243.03467007560187,5.39225053787,-24.4821720123,-115.882667542,0
39.7,20.601804534324145,2.9363871557992796,393.0960289679241,0.5587892112513184,241.87892329973894,5.39225053787,-24.4821720123,-115.882667542,0
39.800000000000004,20.541348975212433,3.5460821682998187,393.3063757276001,0.5472317407371577,240.72317652387602,5.39225053787,-24.4821720123,-115.882667542,0
39.900000000000006,20.48089341610072,4.155777180800357,393.51672248727607,0.535674270222997,239.5674297480131,5.39225053787,-24.4821720123,-115.882667542,0
40.0,20.379659430245486,4.134974006059472,393.7662473271635,0.5234708287338882,238.47766840071483,5.875937812310649,-18.23369225268069,-118.0265399114009,0
