t_sec,airspeed,climb,altitude,throttle,heading,pitch,roll,yaw,is_boundary
0.0,19.113243103,0.134048551321,371.579986572,0.449999988079,283.0,-2.80202746391,-1.1749869585,-78.9827423096,0
0.1,19.09302058220441,0.7052558625501,371.4780470338233,0.4659276801716195,283.6371075318056,-3.6140882335521836,3.647783259159185,-77.05386435102045,0
0.2,19.072798061408825,1.2764631737791998,371.37610749564664,0.481855372264239,284.2742150636112,-3.94709682465,5.60379314423,-76.2508850098,0
0.30000000000000004,19.052575540613237,1.8476704850083,371.27416795746996,0.49778306435685854,284.91132259541683,-3.94709682465,5.60379314423,-76.2508850098,0
0.4,19.023190338144456,1.2410573140776515,371.2121590995974,0.534778102429489,285.6520893136673,-3.1357961502375558,13.975016210537479,-75.32935092557182,0
0.5,18.992323592650468,0.4439986182962259,371.15660675991523,0.5751795864105986,286.4096170141449,-2.52288365364,20.3126449585,-74.632019043,0
0.6000000000000001,18.961456847156477,-0.35306007748520063,371.10105442023314,0.6155810703917083,287.1671447146224,-2.52288365364,20.3126449585,-74.632019043,0
0.7000000000000001,18.93059010166249,-1.1501187732666263,371.045502080551,0.6559825543728179,287.92467241509996,-2.52288365364,20.3126449585,-74.632019043,0
0.8,18.95037046138014,-1.9802177685984863,371.05492205733765,0.6868894255594375,289.49385595383393,-1.9238947444771033,21.979555016038926,-74.19770920098354,0
0.9,18.97574320378823,-2.8139650277061454,371.071516186654,0.7167479148489587,291.15266139773877,1.27638232708,30.8735141754,-71.8737258911,0
1.0,19.00111594619632,-3.647712286813805,371.0881103159703,0.7466064041384799,292.81146684164366,1.27638232708,30.8735141754,-71.8737258911,0
1.1,19.048347628014575,-3.3231279692267233,371.1550828902224,0.75,295.1057640757488,2.201184099016708,34.09851890695256,-68.39622659019334,0
1.2000000000000002,19.0983822837621,-2.8500106807575385,371.22851549737464,0.75,297.4815504839979,2.80163478851,36.1944313049,-66.0906982422,0
1.3,19.148416939509623,-2.3768933922883546,371.3019481045269,0.75,299.85733689224696,2.80163478851,36.1944313049,-66.0906982422,0
1.4000000000000001,19.198451595257147,-1.9037761038191696,371.37538071167916,0.75,302.23312330049606,2.80163478851,36.1944313049,-66.0906982422,0
1.5,19.236450161991467,-1.4454052518518843,371.46120720736894,0.75,304.5807453589082,2.80163478851,36.1944313049,-66.0906982422,0
1.6,19.239523542076345,-1.0298242169653853,371.5829971185842,0.75,306.84664276624517,5.58986330032,40.2535934448,-55.582069397,0
1.7000000000000002,19.242596922161223,-0.6142431820788861,371.70478702979955,0.75,309.11254017358215,5.58986330032,40.2535934448,-55.582069397,0
1.8,19.2456703022461,-0.19866214719238795,371.8265769410148,0.75,311.37843758091907,5.58986330032,40.2535934448,-55.582069397,0
1.9000000000000001,19.19301046611609,0.22222682608450794,372.01411020499177,0.75,314.05499803989017,6.137921687296623,40.99740629189501,-51.507973690652435,0
2.0,19.119283345678987,0.6451222123185136,372.22649460798414,0.75,316.88679007978845,6.74077939987,41.8167304993,-47.0166969299,0
2.1,19.045556225241885,1.0680175985525204,372.4388790109765,0.75,319.71858211968674,6.74077939987,41.8167304993,-47.0166969299,0
2.2,18.959922945761203,1.5722986616990609,372.67900573159,0.75,322.3318260219503,6.74077939987,41.8167304993,-47.0166969299,0
2.3000000000000003,18.82493610624356,2.413940655180074,373.0341302557155,0.75,324.0391414386086,10.8001909256,38.3948936462,-37.9415969849,0
2.4000000000000004,18.68994926672591,3.255582648661087,373.389254779841,0.75,325.746456855267,10.8001909256,38.3948936462,-37.9415969849,0
2.5,18.550230666728993,3.846381579271914,373.76683974862505,0.75,327.2906599127067,10.8001909256,38.3948936462,-37.9415969849,0
2.6,18.397440607151385,3.7442280724617025,374.2064715593412,0.75,328.3842660686385,11.6809492111,31.8504829407,-32.0543899536,0
2.7,18.24465054757378,3.642074565651491,374.6461033700573,0.75,329.4778722245703,11.6809492111,31.8504829407,-32.0543899536,0
2.8000000000000003,18.091860487996172,3.5399210588412795,375.08573518077344,0.75,330.57147838050207,11.6809492111,31.8504829407,-32.0543899536,0
2.9000000000000004,17.939070428418564,3.437767552031068,375.52536699148953,0.75,331.6650845364339,11.6809492111,31.8504829407,-32.0543899536,0
3.0,17.767889093660667,3.6511731294442358,376.02534737071363,0.75,332.324749963301,11.6809492111,31.8504829407,-32.0543899536,0
3.1,17.588589137553438,4.00387871150835,376.5519679460028,0.75,332.7928571413358,13.2240066528,15.7534894943,-27.1648330688,0
3.2,17.40928918144621,4.356584293572465,377.0785885212919,0.75,333.2609643193706,13.2240066528,15.7534894943,-27.1648330688,0
3.3000000000000003,17.22998922533898,4.709289875636579,377.6052090965811,0.75,333.7290714974054,13.2240066528,15.7534894943,-27.1648330688,0
3.4000000000000004,17.032199917671157,5.0171095999515885,378.1412866050433,0.75,334.0,13.2240066528,15.7534894943,-27.1648330688,0
3.5,16.809005771873284,5.263255016938548,378.6903581796132,0.75,334.0,14.2936029434,3.51557636261,-25.3558521271,0
3.6,16.585811626075408,5.50940043392551,379.2394297541831,0.75,334.0,14.2936029434,3.51557636261,-25.3558521271,0
3.7,16.376370699386978,5.741785251944364,379.8028232561493,0.75,333.9310080904879,14.2936029434,3.51557636261,-25.3558521271,0
3.8000000000000003,16.197990935167468,5.943092240342613,380.39856232828225,0.75,333.70620037572024,16.3368053436,-1.35352027416,-25.2188930511,0
3.9000000000000004,16.019611170947957,6.144399228740863,380.9943014004152,0.75,333.4813926609525,16.3368053436,-1.35352027416,-25.2188930511,0
4.0,15.841231406728447,6.345706217139112,381.59004047254814,0.75,333.25658494618483,16.3368053436,-1.35352027416,-25.2188930511,0
4.1000000000000005,15.662851642508935,6.547013205537362,382.1857795446811,0.75,333.0317772314171,16.3368053436,-1.35352027416,-25.2188930511,0
4.2,15.452465761600765,6.556881394015855,382.8258472290049,0.75,332.4900366213341,16.827878424561995,-2.3709704329555636,-25.595862664950108,0
4.3,15.236810942030036,6.5352343785655895,383.4732124165185,0.75,331.8961216096577,17.8903064728,-4.45330619812,-26.4135513306,0
4.4,15.021156122459308,6.513587363115324,384.1205776040321,0.75,331.30220659798124,17.8903064728,-4.45330619812,-26.4135513306,0
4.5,14.829430127979048,6.565748326977427,384.7779719550841,0.7458350742873913,331.0,17.8903064728,-4.45330619812,-26.4135513306,0
4.6000000000000005,14.662494124067363,6.6943735177341415,385.4457564054655,0.737355332918601,331.0,19.277425766,-8.61490535736,-28.3991394043,0
4.7,14.495558120155678,6.822998708490856,386.1135408558469,0.7288755915498109,331.0,19.277425766,-8.61490535736,-28.3991394043,0
4.800000000000001,14.328622116243992,6.951623899247571,386.78132530622827,0.7203958501810207,331.0,19.277425766,-8.61490535736,-28.3991394043,0
4.9,14.161686112332307,7.080249090004285,387.4491097566097,0.7119161088122306,331.0,19.277425766,-8.61490535736,-28.3991394043,0
5.0,14.00160130535844,7.6624673080899015,388.1064890565514,0.6828060904032884,330.4901144910275,19.926410545333592,-4.664227426543093,-28.71647140535578,0
5.1000000000000005,13.843516584258452,8.377103994756203,388.7608307566988,0.6476734271839988,329.8313769182408,20.2339553833,-2.79548883438,-28.867559433,0
5.2,13.685431863158467,9.091740681422499,389.41517245684616,0.6125407639647094,329.1726393454541,20.2339553833,-2.79548883438,-28.867559433,0
5.300000000000001,13.52734714205848,9.8063773680888,390.0695141569935,0.5774081007454197,328.5139017726674,20.2339553833,-2.79548883438,-28.867559433,0
5.4,13.381040154834528,10.328068986091752,390.6886991711002,0.5447608297639798,328.04365984957377,20.2339553833,-2.79548883438,-28.867559433,0
5.5,13.276522547804664,10.165159057157576,391.18314235160966,0.5209321483560627,328.2422321867498,17.3851661682,3.64039087296,-31.7201976776,0
5.6000000000000005,13.1720049407748,10.002249128223397,391.6775855321191,0.49710346694814544,328.4408045239258,17.3851661682,3.64039087296,-31.7201976776,0
5.7,13.067487333744936,9.83933919928922,392.17202871262856,0.47327478554022845,328.6393768611019,17.3851661682,3.64039087296,-31.7201976776,0
5.800000000000001,12.96296972671507,9.676429270355042,392.666471893138,0.44944610413231123,328.8379491982779,17.3851661682,3.64039087296,-31.7201976776,0
5.9,12.867259353164998,9.365054181696488,393.13064603071774,0.426966599175346,329.0,17.3851661682,3.64039087296,-31.7201976776,0
6.0,12.810627819773627,8.39491987434387,393.46051248892,0.41047356556532516,329.0,10.5597000122,6.00114536285,-30.2713737488,0
6.1000000000000005,12.753996286382254,7.4247855669912415,393.79037894712224,0.3939805319553041,329.0,10.5597000122,6.00114536285,-30.2713737488,0
6.2,12.69736475299088,6.454651259638622,394.1202454053245,0.37748749834528317,329.0,10.5597000122,6.00114536285,-30.2713737488,0
6.300000000000001,12.640733219599507,5.484516952285993,394.45011186352673,0.36099446473526214,329.0,10.5597000122,6.00114536285,-30.2713737488,0
6.4,12.615522866371734,4.661065167825014,394.6115104458967,0.35727862004228755,329.27213887478183,3.989774146820152,12.969419929735565,-30.47708214237053,0
6.5,12.59232862040813,3.84702511450808,394.76209946266556,0.354382610354147,329.56173925672067,3.02180123329,13.981546402,-30.5074634552,0
6.6000000000000005,12.569134374444525,3.0329850611911393,394.9126884794344,0.3514866006660064,329.85133963865957,3.02180123329,13.981546402,-30.5074634552,0
6.7,12.575590029485287,2.275119916614458,394.96203856835143,0.3537270336688665,330.55905606096303,3.02180123329,13.981546402,-30.5074634552,0
6.800000000000001,12.613319732722582,1.5765068013487542,394.90460411493433,0.3613852708071748,331.7077918713643,-3.03188252449,31.0995788574,-29.2702045441,0
6.9,12.651049435959877,0.8778936860830568,394.8471696615173,0.369043507945483,332.85652768176556,-3.03188252449,31.0995788574,-29.2702045441,0
7.0,12.68877913919717,0.17928057081735949,394.78973520810024,0.37670174508379123,334.00526349216676,-3.03188252449,31.0995788574,-29.2702045441,0
7.1000000000000005,12.726508842434464,-0.5193325444483441,394.7323007546832,0.38435998222209955,335.153999302568,-3.03188252449,31.0995788574,-29.2702045441,0
7.2,12.782966101388174,-1.1841510457444768,394.631082213194,0.3928394578068201,336.63888088243186,-3.03188252449,31.0995788574,-29.2702045441,0
7.300000000000001,12.89175797406372,-1.7545296695276358,394.4075079638317,0.40361390436999256,339.0631300586572,-9.45475578308,39.9156417847,-23.9034786224,0
7.4,13.000549846739267,-2.3249082933107896,394.18393371446933,0.4143883509331649,341.4873792348825,-9.45475578308,39.9156417847,-23.9034786224,0
7.5,13.109341719414811,-2.895286917093944,393.960359465107,0.42516279749633723,343.9116284111078,-9.45475578308,39.9156417847,-23.9034786224,0
7.6000000000000005,13.260662791338893,-3.3038722184758735,393.67356815574004,0.43468975776219065,346.1724378968975,-9.45475578308,39.9156417847,-23.9034786224,0
7.7,13.44663342441988,-3.580640610102237,393.33527238766027,0.44320036094831733,348.3000891373104,-11.7204761505,41.5162887573,-14.7738218307,0
7.800000000000001,13.63260405750087,-3.8574090017286027,392.9969766195805,0.45171096413444406,350.42774037772335,-11.7204761505,41.5162887573,-14.7738218307,0
7.9,13.81857469058186,-4.134177393354967,392.6586808515007,0.4602215673205707,352.55539161813624,-11.7204761505,41.5162887573,-14.7738218307,0
8.0,14.004545323662848,-4.41094578498133,392.32038508342094,0.4687321705066973,354.68304285854913,-11.7204761505,41.5162887573,-14.7738218307,0
8.1,14.252548533503507,-4.713453065420257,391.98465996946186,0.481598632702917,273.80953370024656,-12.137476232698532,41.28075493581689,-12.106248268372564,0
8.200000000000001,14.511410379387579,-5.020465869253136,391.649384841606,0.49522757632611747,178.40689421995097,-13.1513195038,40.7070579529,-4.13133001328,0
8.3,14.770272225271645,-5.327478673086008,391.3141097137501,0.5088565199493177,83.00425473965709,-13.1513195038,40.7070579529,-4.13133001328,0
8.4,15.033536230193729,-5.522262956705708,390.976524539678,0.5216410590814246,5.547025486324584,-13.143248524638787,40.68647269542692,-4.01838617460292,0
8.5,15.316536960112126,-5.2138797216007475,390.62858245970955,0.5306397787821029,8.546595620928162,-12.4592685699,38.8936157227,5.5720911026,0
8.6,15.599537690030521,-4.905496486495787,390.2806403797411,0.5396384984827813,11.546165755531742,-12.4592685699,38.8936157227,5.5720911026,0
8.700000000000001,15.882538419948922,-4.597113251390821,389.93269829977265,0.54863721818346,14.545735890135376,-12.4592685699,38.8936157227,5.5720911026,0
8.8,16.14769073073319,-4.627570537076844,389.67278847216147,0.5542288668208939,17.537315359774002,-10.689153892197627,39.05816144366823,12.321438197804003,0
8.9,16.40965761070809,-4.718501135624714,389.4285898762717,0.5592124510099875,20.527468724939432,-9.82534980774,39.1382217407,15.6504478455,0
9.0,16.671624490682998,-4.809431734172583,389.184391280382,0.5641960351990811,23.517622090104865,-9.82534980774,39.1382217407,15.6504478455,0
9.1,16.9335913706579,-4.900362332720452,388.9401926844922,0.5691796193881747,26.5077754552703,-9.82534980774,39.1382217407,15.6504478455,0
9.200000000000001,17.087801800984767,-4.470760753143266,388.82871843668795,0.5756269363149135,29.063210473261336,-6.568441308953302,38.1215820226526,21.898840916728346,0
9.3,17.22077849200899,-3.9385867094115383,388.7433979292451,0.5823626862724491,31.532982906004502,-4.14916467667,37.3852310181,27.1175308228,0
9.4,17.353755183033208,-3.4064126656798113,388.6580774218022,0.5890984362299847,34.00275533874767,-4.14916467667,37.3852310181,27.1175308228,0
9.5,17.48673187405743,-2.874238621948084,388.57275691435933,0.5958341861875203,36.47252777149083,-4.14916467667,37.3852310181,27.1175308228,0
9.600000000000001,17.619075502719692,-2.204604801730204,388.5076274172669,0.6015454813457022,38.92727538656385,-4.14916467667,37.3852310181,27.1175308228,0
9.700000000000001,17.750392934876366,-1.3121481590442756,388.47522762503627,0.6055961313630418,41.357667714832786,-2.70877695084,39.8329238892,38.3101844788,0
9.8,17.881710367033037,-0.41969151635834745,388.4428278328057,0.6096467813803814,43.788060043101716,-2.70877695084,39.8329238892,38.3101844788,0
9.9,17.9799505530742,-0.5440983098301897,388.4334516215142,0.6121837075940743,46.62043444599752,-1.45445454121,41.0289955139,44.9141731262,0
10.0,18.07503070277359,-0.765651201912011,388.4262749691652,0.6145760201294025,49.491212226252124,-1.45445454121,41.0289955139,44.9141731262,0
10.100000000000001,18.170110852472973,-0.987204093993836,388.41909831681625,0.6169683326647307,52.36199000650679,-1.45445454121,41.0289955139,44.9141731262,0
10.200000000000001,18.26519100217236,-1.2087569860756573,388.41192166446723,0.619360645200059,55.23276778676139,-1.45445454121,41.0289955139,44.9141731262,0
10.3,18.364571087169463,-1.0300471467903336,388.4268282478765,0.6230594248681806,57.98862496156954,-1.33669245980269,41.16388233657041,45.70765816763992,0
10.4,18.465519499911384,-0.7053483324720732,388.4497893132575,0.6272347160440792,60.70256681405431,0.194935515523,42.9286689758,56.2718696594,0
10.5,18.566467912653305,-0.38064951815381265,388.47275037863847,0.6314100072199779,63.416508666539066,0.194935515523,42.9286689758,56.2718696594,0
10.600000000000001,18.66741632539523,-0.055950703835546456,388.4957114440195,0.6355852983958765,66.13045051902388,0.194935515523,42.9286689758,56.2718696594,0
10.700000000000001,18.76836473813715,0.2687481104827141,388.51867250940046,0.6397605895717752,68.84439237150865,0.194935515523,42.9286689758,56.2718696594,0
10.8,18.91558418343637,0.18824567137995285,388.52977814816796,0.6448935173173912,71.4467608527124,-0.08192214384665245,43.705376874000585,59.65635173502023,0
10.9,19.065618009115042,0.08309734921967979,388.5401626947487,0.6500846921654276,74.04234301665355,-0.855313301086,45.8533248901,69.1559677124,0
11.0,19.21565183479371,-0.022050972940593272,388.55054724132947,0.655275867013464,76.63792518059469,-0.855313301086,45.8533248901,69.1559677124,0
11.100000000000001,19.365634703343545,-0.12072564874419019,388.5623512178028,0.660000026226,79.26152828895599,-0.855313301086,45.8533248901,69.1559677124,0
11.200000000000001,19.515102108231446,-0.15391528775274918,388.5885136274721,0.660000026226,82.16858101369739,0.17281299875996392,46.95924998736447,76.7101835249964,0
11.3,19.664569513119343,-0.18710492676130816,388.6146760371413,0.660000026226,85.0756337384388,0.60112118721,47.4191322327,79.9045181274,0
11.4,19.81403691800724,-0.22029456576986717,388.64083844681056,0.660000026226,87.98268646318022,0.60112118721,47.4191322327,79.9045181274,0
11.5,19.952567303345745,-0.19457245309650767,388.67129446552593,0.6615216665047498,90.6738059029335,0.6119798640084504,47.40822740578496,80.12348422260571,0
11.600000000000001,20.085209903686632,-0.13713605791959388,388.70406188606444,0.6638624596399554,93.2486808073179,0.949624598026,47.1217536926,89.3671340942,0
11.700000000000001,20.21785250402752,-0.07969966274268114,388.736829306603,0.666203252775161,95.82355571170224,0.949624598026,47.1217536926,89.3671340942,0
11.8,20.350495104368402,-0.022263267565768408,388.76959672714156,0.6685440459103666,98.3984306160866,0.949624598026,47.1217536926,89.3671340942,0
11.9,20.49303636723882,-0.028604007007963714,388.80300239100984,0.670000016689,101.22100618014052,0.949624598026,47.1217536926,89.3671340942,0
12.0,20.651865829976135,-0.13988970366180828,388.8374582810968,0.670000016689,104.45117194537808,0.0846229493618,48.4416389465,100.159446716,0
12.100000000000001,20.810695292713454,-0.25117540031565483,388.87191417118385,0.670000016689,107.68133771061571,0.0846229493618,48.4416389465,100.159446716,0
12.200000000000001,20.96952475545077,-0.3624610969694994,388.9063700612708,0.670000016689,110.91150347585328,0.0846229493618,48.4416389465,100.159446716,0
12.3,21.128354218188086,-0.473746793623344,388.94082595135785,0.670000016689,114.14166924109084,0.0846229493618,48.4416389465,100.159446716,0
12.4,21.258829190562388,-0.3461793982190905,388.9862049542886,0.670000016689,117.17304221847745,0.0846229493618,48.4416389465,100.159446716,0
12.5,21.37904310718583,-0.1321747273605936,389.035536864446,0.670000016689,120.13247513089053,1.04522442818,47.6290893555,115.09197998,0
12.600000000000001,21.499257023809275,0.08182994349790707,389.08486877460336,0.670000016689,123.09190804330366,1.04522442818,47.6290893555,115.09197998,0
12.700000000000001,21.59418286105687,0.37654052571941643,389.1465121156244,0.6683962411287362,125.76415479876462,1.0966931398549071,47.65393145012409,115.46792039741894,0
12.8,21.677914117794813,0.7069781716269297,389.2136055069218,0.6660825028084724,128.30926937833064,2.29241037369,48.2339515686,124.255157471,0
12.9,21.76164537453276,1.037415817534443,389.2806988982192,0.6637687644882084,130.85438395789663,2.29241037369,48.2339515686,124.255157471,0
13.0,21.845376631270703,1.3678534634419561,389.34779228951663,0.6614550261679446,133.39949853746262,2.29241037369,48.2339515686,124.255157471,0
13.100000000000001,21.92058052322521,1.490559880699852,389.41709229025093,0.6581929222404475,136.08426019402398,2.29241037369,48.2339515686,124.255157471,0
13.200000000000001,21.98133610871282,1.261297720267215,389.49013105087266,0.6533239588336205,139.00563231781354,2.70470547676,47.9554824829,135.224227905,0
13.3,22.04209169420043,1.0320355598345783,389.56316981149433,0.6484549954267935,141.92700444160306,2.70470547676,47.9554824829,135.224227905,0
13.4,22.10284727968804,0.8027733994019415,389.63620857211606,0.6435860320199664,144.8483765653926,2.70470547676,47.9554824829,135.224227905,0
13.5,22.148144093365737,0.699331982823487,389.7141884228252,0.6353929489449326,147.69105617155313,2.70470547676,47.9554824829,135.224227905,0
13.600000000000001,22.150230108293265,0.9475882889446694,389.805979749116,0.6179081920053382,150.313772213711,2.73719882965,44.4538078308,147.181045532,0
13.700000000000001,22.152316123220796,1.1958445950658474,389.89777107540675,0.600423435065744,152.93648825586882,2.73719882965,44.4538078308,147.181045532,0
13.8,22.08801741113602,1.5230022947167363,390.06416050109334,0.5847996491670087,154.82404452611027,4.06764936447,39.2373046875,153.174499512,0
13.9,22.02207123003149,1.8521180893588358,390.2324012269693,0.5692220469655551,156.69335634460336,4.06764936447,39.2373046875,153.174499512,0
14.0,21.95612504892696,2.1812338840009353,390.40064195284526,0.5536444447641016,158.56266816309648,4.06764936447,39.2373046875,153.174499512,0
14.100000000000001,21.865171753412945,2.4853526248224833,390.5864513947597,0.5347442881848655,160.22045760790925,4.019469792552311,38.04020008679135,153.81187084434282,0
14.200000000000001,21.766581195213025,2.7818371754981657,390.77762638574325,0.5148294115481369,161.81364735899925,3.57220506668,27.0885334015,159.756210327,0
14.3,21.658511742952548,3.0534936868026206,390.9773302014219,0.4976351667104604,163.11824168914515,3.57220506668,27.0885334015,159.756210327,0
14.4,21.522801471495313,3.252750681572152,391.2019043975325,0.4883743887074299,163.58128068589818,2.99483394623,15.5684108734,163.845672607,0
14.5,21.387091200038075,3.4520076763416836,391.426478593643,0.47911361070439934,164.04431968265123,2.99483394623,15.5684108734,163.845672607,0
14.600000000000001,21.251380928580836,3.6512646711112184,391.6510527897535,0.46985283270136863,164.50735867940426,2.99483394623,15.5684108734,163.845672607,0
14.700000000000001,21.1156706571236,3.85052166588075,391.8756269858641,0.46059205469833814,164.97039767615732,2.99483394623,15.5684108734,163.845672607,0
14.8,20.94794314149053,3.6230572840921242,392.1514096158121,0.450794970491612,164.07949643412766,3.7810275992110953,9.288495591705061,164.44746599008562,0
14.9,20.77802895156366,3.366449211497052,392.4306896162797,0.44096125830457666,163.09612544987942,5.1707611084,-1.78347527981,165.513671875,0
15.0,20.608114761636788,3.10984113890198,392.70996961674734,0.4311275461175413,162.1127544656312,5.1707611084,-1.78347527981,165.513671875,0
15.100000000000001,20.438200571709917,2.8532330663069034,392.98924961721497,0.4212938339305058,161.12938348138297,5.1707611084,-1.78347527981,165.513671875,0
15.200000000000001,20.268286381783046,2.5966249937118318,393.2685296176826,0.41146012174347046,160.14601249713473,5.1707611084,-1.78347527981,165.513671875,0
15.3,20.148298416941973,2.8656603971281895,393.5361802741917,0.40523816071397767,159.5238166844463,5.5871698916378785,-11.076008095639164,163.26766416900222,0
15.4,20.037016224968166,3.2263536958381045,393.8018030900834,0.39964599064457895,158.96459997749824,5.98998260498,-19.4142360687,160.975540161,0
15.5,19.925734032994363,3.5870469945480195,394.0674259059752,0.39405382057518024,158.40538327055017,5.98998260498,-19.4142360687,160.975540161,0
15.600000000000001,19.82728757642327,3.7126970313148533,394.30147126237733,0.3880702304871926,157.71053644278197,5.98998260498,-19.4142360687,160.975540161,0
15.700000000000001,19.762665966513026,3.2189589267363603,394.45230341036836,0.3810551668066637,156.65827588721436,3.58858942986,-25.4487476349,158.280899048,0
15.8,19.69804435660278,2.725220822157867,394.60313555835944,0.3740401031261348,155.60601533164674,3.58858942986,-25.4487476349,158.280899048,0
15.9,19.643119424775712,2.2606208299412485,394.7134486047231,0.370000004768,154.3605627200646,3.58858942986,-25.4487476349,158.280899048,0
16.0,19.60136289289883,1.8355913291942982,394.76873541104106,0.370000004768,152.85274909794109,1.40292203426,-25.7465400696,155.66796875,0
16.1,19.55960636102195,1.4105618284473407,394.824022217359,0.370000004768,151.34493547581752,1.40292203426,-25.7465400696,155.66796875,0
16.2,19.517849829145067,0.985532327700398,394.8793090236769,0.370000004768,149.83712185369401,1.40292203426,-25.7465400696,155.66796875,0
16.3,19.488752559762435,0.7049809020332476,394.88872277694435,0.371934618100091,148.32288468803713,1.40292203426,-25.7465400696,155.66796875,0
16.400000000000002,19.47545590965742,0.6047593383415205,394.84088022111143,0.37628391307131004,146.80062999641228,-2.03545427322,-26.0946331024,149.633499146,0
16.5,19.462159259552408,0.504537774649797,394.7930376652785,0.380633208042529,145.27837530478746,-2.03545427322,-26.0946331024,149.633499146,0
16.6,19.448862609447392,0.4043162109580698,394.74519510944555,0.38498250301374803,143.7561206131626,-2.03545427322,-26.0946331024,149.633499146,0
16.7,19.43556595934238,0.3040946472663463,394.69735255361263,0.389331797984967,142.23386592153778,-2.03545427322,-26.0946331024,149.633499146,0
16.8,19.43210237696445,-0.08629673595171683,394.5992238140137,0.39370508084919303,140.70321739169148,-3.7404124082102483,-25.397338960539347,143.97921165321864,0
16.900000000000002,19.43042367466227,-0.5293592024805998,394.49196722032286,0.3980827179509241,139.17104522801935,-4.19654607773,-25.2108669281,142.462142944,0
17.0,19.428744972360086,-0.9724216690094671,394.384710626632,0.40246035505265504,137.63887306434728,-4.19654607773,-25.2108669281,142.462142944,0
17.1,19.427066270057903,-1.41548413553835,394.27745403294114,0.40683799215438615,136.10670090067515,-4.19654607773,-25.2108669281,142.462142944,0
17.2,19.424669795060055,-1.7651308620527246,394.1641161271402,0.41102479727274605,134.59007926956016,-4.19654607773,-25.2108669281,142.462142944,0
17.3,19.420406308684807,-1.8717922389031445,394.0349600118035,0.41471522591109017,133.11390640639647,-4.10059738159,-25.0806465149,135.103088379,0
17.400000000000002,19.416142822309556,-1.9784536157535644,393.90580389646675,0.4184056545494343,131.63773354323277,-4.10059738159,-25.0806465149,135.103088379,0
17.5,19.413037884768286,-1.8940469195655623,393.7679434559713,0.4230965210791906,130.0710402406833,-4.10059738159,-25.0806465149,135.103088379,0
17.6,19.410814162403046,-1.6643100649261409,393.6234623334624,0.4285483404723306,128.4354953001294,-4.3547613016824975,-23.470793345794622,132.41669326984837,0
17.7,19.408590440037802,-1.4345732102867275,393.47898121095346,0.43400015986547036,126.79995035957553,-4.46209383011,-22.8133125305,131.198425293,0
17.8,19.406366717672558,-1.204836355647306,393.3345000884445,0.43945197925861035,125.16440541902162,-4.46209383011,-22.8133125305,131.198425293,0
17.900000000000002,19.40242201597062,-1.4585381191399691,393.19288982970437,0.4429555562379519,123.52221927966457,-4.5213610620413105,-19.27882481873146,127.60027354631495,0
18.0,19.398284988303107,-1.7662659810562795,393.0516004008746,0.4462414097412341,121.87929096116274,-4.55456542969,-17.3168964386,125.58127594,0
18.1,19.394147960635593,-2.073993842972601,392.91031097204484,0.4495272632445164,120.23636264266085,-4.55456542969,-17.3168964386,125.58127594,0
18.2,19.363121352864052,-2.0311108109773413,392.8333806103813,0.4518259261771565,119.26962624091287,-4.14333708747783,-16.362338989596434,123.9542630252923,0
18.3,19.327576156076304,-1.9293102901978643,392.7672652994872,0.45395869925758814,118.41651873764788,-3.41154980659,-14.777472496,120.994003296,0
18.400000000000002,19.29203095928856,-1.8275097694183873,392.701149988593,0.4560914723380198,117.56341123438288,-3.41154980659,-14.777472496,120.994003296,0
18.5,19.256485762500812,-1.725709248638914,392.6350346776988,0.4582242454184513,116.71030373111793,-3.41154980659,-14.777472496,120.994003296,0
18.6,19.21672418989382,-1.6174351370841409,392.5755547406044,0.460000008345,115.95970525751562,-3.41154980659,-14.777472496,120.994003296,0
18.7,19.15599042984966,-1.4769614861734501,392.5490790491017,0.460000008345,115.7189850955849,-1.22487068176,-8.32294654846,116.278808594,0
18.8,19.095256669805494,-1.3364878352627545,392.52260335759894,0.460000008345,115.47826493365417,-1.22487068176,-8.32294654846,116.278808594,0
18.900000000000002,19.03452290976133,-1.1960141843520589,392.49612766609624,0.460000008345,115.23754477172345,-1.22487068176,-8.32294654846,116.278808594,0
19.0,18.97369492939346,-1.0549507304718049,392.4697592870192,0.46002689096660804,114.99731173527539,-1.22487068176,-8.32294654846,116.278808594,0
19.1,18.905818509676127,-0.8697652624069191,392.4514187420056,0.4620648102786375,114.7935196097159,-0.010236154314211543,-2.3286117624935807,115.16944587864478,0
19.200000000000003,18.83794208995879,-0.6845797943420333,392.433078196992,0.46410272959066695,114.58972748415641,0.0504702962935,-2.04485440254,115.112289429,0
19.3,18.77006567024146,-0.49939432627715397,392.41473765197844,0.4661406489026963,114.38593535859692,0.0504702962935,-2.04485440254,115.112289429,0
19.400000000000002,18.702189250524125,-0.3142088582122682,392.39639710696486,0.46817856821472575,114.18214323303742,0.0504702962935,-2.04485440254,115.112289429,0
19.5,18.634717360807432,-0.17113552584484315,392.3805503832234,0.469999998808,114.0,0.0504702962935,-2.04485440254,115.112289429,0
19.6,18.57064898940475,-0.3823731836691242,392.38568545652606,0.469999998808,114.0,1.1813826561,6.50069379807,114.95022583,0
19.700000000000003,18.50658061800206,-0.5936108414934053,392.3908205298287,0.469999998808,114.0,1.1813826561,6.50069379807,114.95022583,0
19.8,18.44251224659938,-0.8048484993176789,392.39595560313137,0.469999998808,114.0,1.1813826561,6.50069379807,114.95022583,0
19.900000000000002,18.377058788382133,-0.9207367419670538,392.4055408070277,0.469999998808,114.0,1.18341175050618,6.508083710336955,114.94916824140476,0
20.0,18.30650550705312,-0.6855530185205171,392.4315111779861,0.469999998808,114.0,1.64212572575,8.24850654602,114.61643219,0
20.1,18.23595222572411,-0.45036929507397205,392.4574815489445,0.469999998808,114.0,1.64212572575,8.24850654602,114.61643219,0
20.200000000000003,18.165398944395097,-0.2151855716274269,392.4834519199029,0.469999998808,114.0,1.64212572575,8.24850654602,114.61643219,0
20.3,18.105110040101415,-0.02187607216597398,392.5060467312877,0.46821587266115555,114.53523835451014,1.6788749039972974,8.260824027918067,114.61893647785004,0
20.400000000000002,18.048274795991357,0.15734398576390657,392.52750576641864,0.46583144067843746,115.25056863153605,2.27049970627,8.45992660522,114.660217285,0
20.5,17.991439551881303,0.33656404369378073,392.5489648015496,0.4634470086957194,115.96589890856195,2.27049970627,8.45992660522,114.660217285,0
20.6,17.934604307771245,0.5157841016236613,392.57042383668056,0.4610625767130013,116.68122918558787,2.27049970627,8.45992660522,114.660217285,0
20.700000000000003,17.88101150448905,0.6067654832772474,392.6116985020637,0.460000008345,117.0990975133547,2.27049970627,8.45992660522,114.660217285,0
20.8,17.830025108570247,0.6268169859314847,392.66890178645383,0.460000008345,117.27785368579194,1.811679126751985,8.17157868202289,116.5498227006455,0
20.900000000000002,17.77903871265144,0.6468684885857227,392.7261050708439,0.460000008345,117.45660985822916,1.67004561424,8.08531665802,117.134162903,0
21.0,17.728052316732644,0.6669199912399599,392.78330835523406,0.460000008345,117.63536603066639,1.67004561424,8.08531665802,117.134162903,0
21.1,17.67706592081384,0.6869714938941979,392.8405116396242,0.460000008345,117.81412220310362,1.67004561424,8.08531665802,117.134162903,0
21.200000000000003,17.626079524895037,0.7070229965484359,392.8977149240143,0.460000008345,117.99287837554084,1.67004561424,8.08531665802,117.134162903,0
21.3,17.592580892733217,0.7944562359769463,392.9901511649242,0.45398927594902966,117.69946354142427,2.4477711210032083,7.9553431076978045,117.9210067188774,0
21.400000000000002,17.559807879554135,0.8846853427315027,393.0840493252895,0.4477291405083175,117.38645693730105,2.95363426208,7.87130022049,118.447746277,0
21.5,17.52703486637506,0.9749144494860559,393.1779474856549,0.4414690050676056,117.07345033317785,2.95363426208,7.87130022049,118.447746277,0
21.6,17.501473989576738,1.0616097709786338,393.2521811183426,0.439999997616,116.78252118240765,2.8852852686645294,7.836602651324122,118.41116008489769,0
21.700000000000003,17.47812442546082,1.1472215987941436,393.32038541143504,0.439999997616,116.4983611982224,1.41477966309,7.0805683136,117.615867615,0
21.8,17.454774861344905,1.2328334266096506,393.3885897045275,0.439999997616,116.21420121403716,1.41477966309,7.0805683136,117.615867615,0
21.900000000000002,17.43738787961352,1.2170547375026155,393.4433908271285,0.439999997616,116.0,1.41477966309,7.0805683136,117.615867615,0
22.0,17.438257256346702,0.890836459896701,393.45715384421214,0.439999997616,116.0,0.120499268174,5.95424318314,116.454399109,0
22.1,17.439126633079884,0.564618182290775,393.4709168612958,0.439999997616,116.0,0.120499268174,5.95424318314,116.454399109,0
22.200000000000003,17.43999600981307,0.23839990468484906,393.4846798783794,0.439999997616,116.0,0.120499268174,5.95424318314,116.454399109,0
22.3,17.44086538654625,-0.08781837292106554,393.49844289546303,0.439999997616,116.0,0.120499268174,5.95424318314,116.454399109,0
22.400000000000002,17.452533468003214,-0.2136924792449238,393.422827826537,0.44376446227885574,115.81177686782951,-0.5398400693583378,5.0330989394970675,116.43621734705059,0
22.5,17.465579136924816,-0.3140087408057753,393.3358108224669,0.44800915854941614,115.5995421681548,-2.13343834877,2.82272696495,116.392211914,0
22.6,17.47862480584642,-0.4143250023666304,393.2487938183968,0.45225385481997665,115.38730746848007,-2.13343834877,2.82272696495,116.392211914,0
22.700000000000003,17.49167047476802,-0.5146412639274854,393.1617768143267,0.4564985510905372,115.17507276880535,-2.13343834877,2.82272696495,116.392211914,0
22.8,17.50446422772047,-0.6218484266924881,393.0714812988981,0.460638438548638,115.06384308125095,-2.13343834877,2.82272696495,116.392211914,0
22.900000000000002,17.516071184798907,-0.7615191650885845,392.96574045951405,0.46428456347709507,115.42845592182792,-2.28430819511,1.37602901459,115.995925903,0
23.0,17.52767814187734,-0.901189903484676,392.85999962013,0.46793068840555196,115.79306876240489,-2.28430819511,1.37602901459,115.995925903,0
23.1,17.542197115988724,-1.0044136055253956,392.7589301103048,0.4715791746603802,115.92104124973841,-2.28430819511,1.37602901459,115.995925903,0
23.200000000000003,17.560537634764362,-1.0598065511743218,392.6639909542339,0.47523075976871515,115.73846209226625,-1.75936257839,0.918960094452,116.569908142,0
23.3,17.578878153539993,-1.1151994968232462,392.569051798163,0.47888234487704995,115.5558829347941,-1.75936257839,0.918960094452,116.569908142,0
23.400000000000002,17.597218672315627,-1.1705924424721723,392.4741126420921,0.4825339299853849,115.37330377732194,-1.75936257839,0.918960094452,116.569908142,0
23.5,17.61555919109126,-1.2259853881210965,392.3791734860212,0.48618551509371977,115.19072461984979,-1.75936257839,0.918960094452,116.569908142,0
23.6,17.633899709866895,-1.2813783337700229,392.2842343299503,0.4898371002020547,115.00814546237763,-1.75936257839,0.918960094452,116.569908142,0
23.700000000000003,17.642889216639958,-1.1149018709213032,392.2403172319171,0.49233403161624395,114.76659756947971,-1.00303006172,0.191942647099,115.675498962,0
23.8,17.651442062844552,-0.9380648586461399,392.1987826910725,0.4947770446162198,114.52229603649175,-1.00303006172,0.191942647099,115.675498962,0
23.900000000000002,17.659994909049146,-0.7612278463709703,392.1572481502279,0.4972200576161958,114.27799450350378,-1.00303006172,0.191942647099,115.675498962,0
24.0,17.66854775525374,-0.584390834095807,392.11571360938325,0.49966307061617166,114.03369297051582,-1.00303006172,0.191942647099,115.675498962,0
24.1,17.672305086567835,-0.3244411399885745,392.0950878324437,0.5021279923705944,113.78720055999374,-0.5202239239689654,2.1365938769957364,114.82797602155615,0
24.200000000000003,17.675295235674724,-0.05119515295959243,392.0778070209581,0.5045964190680685,113.54035765483225,-0.375560939312,2.7099301815,114.572692871,0
24.3,17.678285384781613,0.2220508340693801,392.0605262094725,0.5070648457655426,113.29351474967076,-0.375560939312,2.7099301815,114.572692871,0
24.400000000000002,17.681275533888503,0.49529682109836226,392.04324539798694,0.5095332724630167,113.04667184450926,-0.375560939312,2.7099301815,114.572692871,0
24.5,17.65708698832017,0.24905552513306561,392.0702222749548,0.5078399151189673,112.78399225959015,0.7350664483744858,1.836864563654325,114.02436444333601,0
24.6,17.626561463731427,-0.11830932194622767,392.10751826572016,0.5051761970392837,112.51762019758276,1.39195406437,1.32179570198,113.697364807,0
24.700000000000003,17.59603593914268,-0.4856741690255211,392.1448142564855,0.5025124789596002,112.25124813557537,1.39195406437,1.32179570198,113.697364807,0
24.8,17.564320426594634,-0.8178659734948706,392.1825326471334,0.5,111.94652761048593,1.39195406437,1.32179570198,113.697364807,0
24.900000000000002,17.51283608896821,-0.5657411708992988,392.2272682091117,0.5,111.0047384051928,1.7919896600069396,-4.700701731043211,112.56559395036852,0
25.0,17.461351751341795,-0.31361636830373585,392.27200377109,0.5,110.06294919989969,1.88084971905,-6.03691720963,112.302703857,0
25.1,17.40986741371537,-0.06149156570816394,392.31673933306826,0.5,109.12115999460654,1.88084971905,-6.03691720963,112.302703857,0
25.200000000000003,17.358383076088952,0.19063323688740796,392.36147489504657,0.5,108.17937078931341,1.88084971905,-6.03691720963,112.302703857,0
25.3,17.284721485391714,0.28871449762174217,392.42290969223546,0.5,106.94161159983209,2.133751471248866,-10.179212560940337,109.93856172504547,0
25.400000000000002,17.20584235101407,0.35055461948382877,392.4882732442103,0.5,105.63422086871398,2.2365424633,-11.8705272675,108.972389221,0
25.5,17.126963216636426,0.4123947413459132,392.5536367961852,0.5,104.32683013759592,2.2365424633,-11.8705272675,108.972389221,0
25.6,17.045828931830467,0.4314764852695375,392.6015517660996,0.5015786500964204,103.05280903881173,2.2415203208524757,-11.920673762704958,108.972389221,0
25.700000000000003,16.963942984016985,0.4363064566486331,392.6436509582709,0.5036834792292384,101.78991035469446,2.6115860939,-15.2567148209,104.842819214,0
25.8,16.882057036203506,0.44113642802772857,392.6857501504422,0.5057883083620563,100.52701167057725,2.6115860939,-15.2567148209,104.842819214,0
25.900000000000002,16.800171088390023,0.44596639940682414,392.72784934261347,0.5078931374948743,99.26411298645998,2.6115860939,-15.2567148209,104.842819214,0
26.0,16.718285140576544,0.45079637078591955,392.7699485347847,0.5099979666276923,98.00121430234276,2.6115860939,-15.2567148209,104.842819214,0
26.1,16.663944406247204,0.286249774413327,392.7416907653516,0.5123582715443316,96.82085833490473,1.2533803246409958,-21.47431670060439,99.82448322340808,0
26.200000000000003,16.609630182682164,0.12154016234045179,392.7133652811837,0.5147188223424666,95.64058181032553,0.861452400684,-23.2713527679,98.3517227173,0
26.3,16.555315959117127,-0.0431694497324176,392.68503979701586,0.5170793731406015,94.46030528574639,0.861452400684,-23.2713527679,98.3517227173,0
26.400000000000002,16.50100173555209,-0.2078790618052928,392.65671431284795,0.5194399239387364,93.28002876116719,0.861452400684,-23.2713527679,98.3517227173,0
26.5,16.46711097188155,-0.38560562789112107,392.60219460078986,0.525121361609149,91.63429989571057,1.1802017091919272,-25.505637714252188,95.13001955465364,0
26.6,16.439573077282656,-0.5673812143184271,392.5395269793629,0.5318357858357247,89.84378861846061,1.35529720783,-26.7157649994,93.3434371948,0
26.700000000000003,16.412035182683766,-0.7491568007457332,392.4768593579359,0.5385502100623003,88.05327734121066,1.35529720783,-26.7157649994,93.3434371948,0
26.8,16.384497288084876,-0.9309323871730327,392.41419173650894,0.5452646342888757,86.26276606396077,1.35529720783,-26.7157649994,93.3434371948,0
26.900000000000002,16.360118028057062,-1.0162690875588216,392.3424091128721,0.5521778242903252,84.20146803638075,1.35529720783,-26.7157649994,93.3434371948,0
27.0,16.343296613073367,-0.8708509663510432,392.2488165037086,0.5595666124949745,81.49224311097854,-0.0154471127316,-31.1157054901,85.0399932861,0
27.1,16.326475198089668,-0.7254328451432597,392.15522389454514,0.566955400699624,78.78301818557621,-0.0154471127316,-31.1157054901,85.0399932861,0
27.200000000000003,16.30965378310597,-0.580014723935476,392.0616312853817,0.5743441889042734,76.0737932601739,-0.0154471127316,-31.1157054901,85.0399932861,0
27.3,16.296258481176164,-0.5280136186558434,391.9679837876098,0.5810734610882488,73.40958841901175,-0.0154471127316,-31.1157054901,85.0399932861,0
27.400000000000002,16.29404463360022,-0.7808880627364159,391.8741571555069,0.5856503383673232,70.89231101690936,-0.891358971596,-34.3569946289,74.9091110229,0
27.5,16.291830786024278,-1.0337625068169793,391.780330523404,0.5902272156463974,68.37503361480707,-0.891358971596,-34.3569946289,74.9091110229,0
27.6,16.289616938448336,-1.286636950897552,391.68650389130113,0.5948040929254718,65.85775621270467,-0.891358971596,-34.3569946289,74.9091110229,0
27.700000000000003,16.28740309087239,-1.5395113949781243,391.5926772591982,0.5993809702045462,63.34047881060228,-0.891358971596,-34.3569946289,74.9091110229,0
27.8,16.263771988057357,-1.5811269171446711,391.52413803535336,0.6033849181451466,60.46132685150747,-0.709881841340251,-34.70193499839462,71.72954380615924,0
27.900000000000002,16.236790955846626,-1.589698873984011,391.45955408174825,0.6072992526963944,57.525573138243324,-0.24474285543,-35.5815315247,63.4894981384,0
28.0,16.209809923635895,-1.5982708308233504,391.3949701281432,0.611213587247642,54.589819424979275,-0.24474285543,-35.5815315247,63.4894981384,0
28.1,16.182828891425164,-1.60684278766269,391.3303861745381,0.6151279217988898,51.65406571171513,-0.24474285543,-35.5815315247,63.4894981384,0
28.200000000000003,16.155847859214433,-1.6154147445020297,391.26580222093304,0.6190422563501375,48.71831199845098,-0.24474285543,-35.5815315247,63.4894981384,0
28.3,16.11203256918633,-1.2937287884010784,391.28159209615234,0.6182448185723702,45.71825576958184,0.17121531078266958,-35.671695051384376,61.55954196193868,0
28.400000000000002,16.062764035767678,-0.8650599881226778,391.32341804944326,0.615921062165666,42.697369559847175,2.80376911163,-36.245059967,48.281414032,0
28.5,16.013495502349027,-0.4363911878442923,391.36524400273413,0.6135973057589619,39.676483350112626,2.80376911163,-36.245059967,48.281414032,0
28.6,15.964226968930372,-0.007722387565891831,391.407069956025,0.6112735493522576,36.65559714037797,2.80376911163,-36.245059967,48.281414032,0
28.700000000000003,15.921563742251832,0.35692405827281215,391.47287646504697,0.6060107545389108,34.30187991544092,2.80376911163,-36.245059967,48.281414032,0
28.8,15.88691034088846,0.6439347643186351,391.56776263227766,0.5971839792538015,32.757195069192974,5.15375375748,-33.9471588135,35.7534370422,0
28.900000000000002,15.85225693952509,0.9309454703644682,391.66264879950836,0.5883572039686918,31.212510222944967,5.15375375748,-33.9471588135,35.7534370422,0
29.0,15.817603538161718,1.217956176410291,391.75753496673906,0.5795304286835825,29.667825376697017,5.15375375748,-33.9471588135,35.7534370422,0
29.1,15.782950136798345,1.5049668824561242,391.85242113396976,0.5707036533984728,28.123140530449014,5.15375375748,-33.9471588135,35.7534370422,0
29.200000000000003,15.722591200785615,1.601870544524076,391.9484522946934,0.5653439022274847,26.603171481990053,5.07333762694133,-29.483519216265744,32.122861634604966,0
29.3,15.660005536321993,1.6823062836596518,392.04458263987766,0.5602844802011794,25.08534342654585,4.98965835571,-24.8648719788,28.3206577301,0
29.400000000000002,15.597419871858369,1.7627420227952308,392.1407129850619,0.5552250581748739,23.567515371101592,4.98965835571,-24.8648719788,28.3206577301,0
29.5,15.534834207394747,1.843177761930807,392.23684333024613,0.5501656361485686,22.049687315657387,4.98965835571,-24.8648719788,28.3206577301,0
29.6,15.471398868465473,1.8496842843774726,392.3686709636396,0.5442382977281334,20.655601410607453,5.331824421726854,-23.543047300421815,26.057008007078032,0
29.700000000000003,15.407934773407964,1.8536887685478498,392.501706725368,0.5382815858050967,19.265703397848867,5.81549453735,-21.6846141815,22.2606010437,0
29.8,15.34447067835046,1.8576932527182266,392.6347424870964,0.5323248738820603,17.87580538509033,5.81549453735,-21.6846141815,22.2606010437,0
29.900000000000002,15.281006583292951,1.8616977368886036,392.7677782488248,0.5263681619590236,16.48590737233174,5.81549453735,-21.6846141815,22.2606010437,0
30.0,15.217542488235445,1.8657022210589806,392.9008140105532,0.5204114500359871,15.096009359573205,5.81549453735,-21.6846141815,22.2606010437,0
30.1,15.186312726031945,2.15299429968692,392.98705869504806,0.5177982570739433,14.559654809475505,5.451258137399249,-19.764628051086962,20.39189566974954,0
30.200000000000003,15.157474821617726,2.461306935572198,393.06983137957764,0.5154331605098204,14.086635045579246,4.57309961319,-15.2353668213,15.8509635925,0
30.3,15.128636917203506,2.769619571457465,393.1526040641072,0.5130680639456974,13.613615281683005,4.57309961319,-15.2353668213,15.8509635925,0
30.400000000000002,15.099799012789287,3.0779322073427435,393.2353767486368,0.5107029673815744,13.140595517786746,4.57309961319,-15.2353668213,15.8509635925,0
30.5,15.070419223267251,2.78746388820228,393.28581777632496,0.509999990463,12.446375175153548,4.57309961319,-15.2353668213,15.8509635925,0
30.6,15.040810248846078,2.2437471390873003,393.3225844523745,0.509999990463,11.658600255000104,2.74370908737,-9.90874671936,13.420340538,0
30.700000000000003,15.011201274424907,1.7000303899723206,393.359351128424,0.509999990463,10.87082533484666,2.74370908737,-9.90874671936,13.420340538,0
30.8,14.981592300003737,1.15631364085736,393.3961178044735,0.509999990463,10.083050414693243,2.74370908737,-9.90874671936,13.420340538,0
30.900000000000002,14.953757395909562,0.918018602014395,393.43207967203614,0.5079946772823944,9.398405472077629,2.987990152052693,-7.1210043722651815,11.641482955961116,0
31.0,14.926131562558934,0.7157169187279405,393.46794669448116,0.5057530418369198,8.72591419708032,3.13476347923,-5.44664764404,10.5652580261,0
31.1,14.898505729208306,0.5134152354414789,393.5038137169262,0.5035114063914452,8.053422922082987,3.13476347923,-5.44664764404,10.5652580261,0
31.200000000000003,14.87087989585768,0.31111355215501724,393.53968073937125,0.5012697709459705,7.380931647085653,3.13476347923,-5.44664764404,10.5652580261,0
31.3,14.845956757357504,0.19039078319766617,393.5573380070458,0.5,6.822689325754762,3.13476347923,-5.44664764404,10.5652580261,0
31.400000000000002,14.824564773044642,0.17625338213034702,393.5512036684291,0.5,6.413716786422441,1.50428009033,-4.61491584778,7.26015043259,0
31.5,14.803172788731782,0.16211598106302838,393.54506932981235,0.5,6.004744247090135,1.50428009033,-4.61491584778,7.26015043259,0
31.6,14.781780804418922,0.1479785799957092,393.5389349911956,0.5,5.595771707757813,1.50428009033,-4.61491584778,7.26015043259,0
31.700000000000003,14.760388820106062,0.13384117892839006,393.5328006525789,0.5,5.186799168425492,1.50428009033,-4.61491584778,7.26015043259,0
31.8,14.745576454452722,0.12325341879379868,393.5357542473094,0.5,4.568102635571679,1.50428009033,-4.61491584778,7.26015043259,0
31.900000000000002,14.736296107731889,0.1156501296231942,393.54634880452363,0.5,3.7730741353502384,1.78840088844,-2.64934396744,5.66864395142,0
32.0,14.727015761011057,0.10804684045258998,393.5569433617378,0.5,2.9780456351288254,1.78840088844,-2.64934396744,5.66864395142,0
32.1,14.717735414290223,0.1004435512819855,393.56753791895204,0.5,2.183017134907384,1.78840088844,-2.64934396744,5.66864395142,0
32.2,14.717832827819535,-0.02579806325648905,393.57992954117174,0.5,1.8341986811015987,1.7651170313708169,-2.4589005394931296,5.548726004569648,0
32.300000000000004,14.720734586022983,-0.18751752613180867,393.59285856139934,0.5,1.6188157954735019,1.27786123753,1.5510648489,2.91988134384,0
32.4,14.723636344226433,-0.3492369890071168,393.6057875816269,0.5,1.4034329098454204,1.27786123753,1.5510648489,2.91988134384,0
32.5,14.726538102429881,-0.5109564518824365,393.6187166018545,0.5,1.1880500242173238,1.27786123753,1.5510648489,2.91988134384,0
32.6,14.731599381281274,-0.6319657801111712,393.6255392762665,0.5003720540595078,1.0,1.27786123753,1.5510648489,2.91988134384,0
32.7,14.751518157269192,-0.4728894747456367,393.59035030538297,0.5033038392005557,1.0,-0.2832410049077445,0.723729508728902,1.5245523797183647,0
32.800000000000004,14.77143693325711,-0.31381316938010223,393.5551613344995,0.5062356243416036,1.0,-0.290158599615,0.722135663033,1.51771402359,0
32.9,14.791355709245027,-0.15473686401457898,393.5199723636159,0.5091674094826513,1.0,-0.290158599615,0.722135663033,1.51771402359,0
33.0,14.816483479040395,-0.1639507723657398,393.4755725207536,0.5120241171493921,1.0,-0.30011813368435164,0.7100091827674475,1.5228636837318943,0
33.1,14.843677226624887,-0.2399115144658731,393.42751948542633,0.5148510477804681,1.0,-0.919129788876,-5.24537172168e-05,1.87067210674,0
33.2,14.870870974209378,-0.3158722565660064,393.37946645009913,0.5176779784115442,1.0,-0.919129788876,-5.24537172168e-05,1.87067210674,0
33.300000000000004,14.894655512996255,-0.4014135193176424,393.3391610175984,0.519999980927,15.937647828192006,-0.919129788876,-5.24537172168e-05,1.87067210674,0
33.4,14.902762193571474,-0.5310125248725959,393.3344843264875,0.519999980927,99.56874876197021,-0.1434455419654581,0.633214587470039,1.754174250797968,0
33.5,14.910868874146695,-0.6606115304275586,393.3298076353766,0.519999980927,183.19984969575438,0.0146353878081,0.755819439888,1.72881770134,0
33.6,14.918975554721916,-0.7902105359825213,393.32513094426565,0.519999980927,266.8309506295385,0.0146353878081,0.755819439888,1.72881770134,0
33.7,14.927082235297135,-0.9198095415374838,393.32045425315476,0.519999980927,350.4620515633227,0.0146353878081,0.755819439888,1.72881770134,0
33.800000000000004,14.917315030321117,-0.6401949684026519,393.3683938579641,0.5173104938677601,359.0,0.6264482187290517,0.5458616535476682,0.890626669459154,0
33.9,14.905515598595722,-0.3140535906490558,393.4223158354208,0.5143152172515594,359.0,1.37931501865,0.288433164358,-0.245852872729,0
34.0,14.893716166870327,0.012087787104563374,393.4762378128775,0.5113199406353585,359.0,1.37931501865,0.288433164358,-0.245852872729,0
34.1,14.877985824032413,0.437028029656395,393.5597080943501,0.5072860038191608,358.5929016151744,1.37931501865,0.288433164358,-0.245852872729,0
34.2,14.859158409086811,0.9398095664219775,393.66645878730446,0.5024337311406919,357.86506001926153,2.67701101303,0.622347056866,-0.872850716114,0
34.300000000000004,14.840330994141208,1.44259110318756,393.7732094802588,0.49758145846222307,357.13721842334866,2.67701101303,0.622347056866,-0.872850716114,0
34.4,14.821503579195607,1.9453726399531068,393.87996017321314,0.4927291857837546,356.40937682743584,2.67701101303,0.622347056866,-0.872850716114,0
34.5,14.803607786779308,2.054788916442524,394.00156283986274,0.48726387901191787,355.58958064140717,2.67701101303,0.622347056866,-0.872850716114,0
34.6,14.786909566946115,1.6585460487651962,394.1422572694777,0.48101053545518613,354.65157961108804,3.03781723976,1.72486948967,-3.18154907227,0
34.7,14.770211347112923,1.2623031810878687,394.2829516990926,0.47475719189845444,353.7135785807689,3.03781723976,1.72486948967,-3.18154907227,0
34.800000000000004,14.760060907328478,0.9477041628048564,394.3959662886645,0.47049853175741324,353.14956002745936,3.03781723976,1.72486948967,-3.18154907227,0
34.9,14.770729933705898,0.8927017325462833,394.42096944705656,0.4725822110913432,353.7746644238004,1.3618655769383319,-0.25270004108000355,-5.8668360282525605,0
35.0,14.781398960083317,0.8376993022877062,394.4459726054486,0.4746658904252733,354.3997688201415,1.11944615841,-0.539730966091,-6.25622034073,0
35.1,14.792067986460737,0.7826968720291292,394.47097576384067,0.4767495697592034,355.0248732164826,1.11944615841,-0.539730966091,-6.25622034073,0
35.2,14.802737012838158,0.7276944417705522,394.4959789222327,0.4788332490931335,355.6499776128237,1.11944615841,-0.539730966091,-6.25622034073,0
35.300000000000004,14.826811317727586,0.6606638698845322,394.4845950167473,0.4810577107571335,355.7884561314881,1.11944615841,-0.539730966091,-6.25622034073,0
35.4,14.867942890737826,0.5783283390936633,394.42691114784583,0.4834613079719928,355.3077376627403,-1.72796547413,-1.67032301426,-3.01321673393,0
35.5,14.909074463748068,0.4959928083027887,394.3692272789443,0.4858649051868524,354.82701919399244,-1.72796547413,-1.67032301426,-3.01321673393,0
35.6,14.950206036758312,0.41365727751191406,394.3115434100429,0.4882685024017119,354.3463007252446,-1.72796547413,-1.67032301426,-3.01321673393,0
35.7,14.993965355575202,0.3048182370505471,394.2500083715808,0.49057087453436043,353.82874033746157,-1.72796547413,-1.67032301426,-3.01321673393,0
35.800000000000004,15.044494541634947,0.1276981469211028,394.178551556595,0.4926124602673195,353.21626403345516,-2.44067001343,-1.04661273956,-5.09980916977,0
35.9,15.095023727694686,-0.04942194320832899,394.1070947416091,0.49465404600027835,352.60378772944887,-2.44067001343,-1.04661273956,-5.09980916977,0
36.0,15.145552913754429,-0.22654203333777329,394.0356379266233,0.49669563173323744,351.99131142544246,-2.44067001343,-1.04661273956,-5.09980916977,0
36.1,15.196082099814173,-0.4036621234672177,393.9641811116374,0.4987372174661965,351.3788351214361,-2.44067001343,-1.04661273956,-5.09980916977,0
36.2,15.238902303544254,-0.6232801415949171,393.9116725626286,0.5011875848471536,350.7624828040491,-2.44067001343,-1.04661273956,-5.09980916977,0
36.300000000000004,15.269222856207351,-0.9118059932513279,393.8898874869539,0.5043007670776019,350.13984576415055,-1.9909466154015634,-5.105147176895082,-7.6029496293924925,0
36.4,15.299543408870447,-1.2003318449077183,393.8681024112792,0.50741394930805,349.517208724252,-1.90294921398,-5.89408111572,-8.09433841705,0
36.5,15.323213083185806,-1.3916914343741462,393.85780300279544,0.5096101101995356,348.8050596823532,-1.90294921398,-5.89408111572,-8.09433841705,0
36.6,15.314254973548707,-1.1063741633653457,393.9038498162782,0.5073075609112394,347.65378394023344,-0.5197798777338754,-8.49639496869044,-10.053183653820154,0
36.7,15.305296863911607,-0.8210568923565452,393.949896629761,0.5050050116229432,346.5025081981137,0.092895373702,-9.61406040192,-10.9616365433,0
36.800000000000004,15.296338754274508,-0.5357396213477447,393.99594344324373,0.502702462334647,345.35123245599385,0.092895373702,-9.61406040192,-10.9616365433,0
36.9,15.28738064463741,-0.25042235033896443,394.04199025672654,0.5003999130463509,344.19995671387414,0.092895373702,-9.61406040192,-10.9616365433,0
37.0,15.295017596892812,-0.07291020814136417,394.0765260998269,0.5,343.3876005374299,0.7257107958155186,-13.202365043865777,-14.464549501700901,0
37.1,15.306142647193179,0.0819424910556878,394.108642464558,0.5,342.64648149659206,0.927216231823,-14.347205162,-15.5839490891,0
37.2,15.317267697493547,0.23679519025273982,394.14075882928904,0.5,341.90536245575424,0.927216231823,-14.347205162,-15.5839490891,0
37.300000000000004,15.328392747793913,0.3916478894497918,394.1728751940201,0.5,341.1642434149164,0.927216231823,-14.347205162,-15.5839490891,0
37.4,15.356955452594418,0.517264467464597,394.1675222720604,0.5020784832340506,339.96075739184903,0.19677165416013753,-17.71830432331679,-17.19276352550891,0
37.5,15.39048286693463,0.6345571708587557,394.15150139443745,0.5047487355927922,338.62562993916714,-0.177290692925,-19.4395999908,-18.1470603943,0
37.6,15.424010281274843,0.7518498742529146,394.1354805168145,0.507418987951534,337.29050248648525,-0.177290692925,-19.4395999908,-18.1470603943,0
37.7,15.45807831891282,0.8566163684673014,394.11884648553837,0.510176696189697,335.93815293667564,-0.177290692925,-19.4395999908,-18.1470603943,0
37.800000000000004,15.50778055797391,0.5991393593138652,394.0844807587236,0.5154635274607787,334.08776022716995,-0.30773893598266244,-22.121764514815286,-22.134462667866927,0
37.9,15.557482797034996,0.3416623501604472,394.05011503190883,0.5207503587318602,332.2373675176645,-0.347155362368,-22.9026222229,-23.3444595337,0
38.0,15.607185036096087,0.08418534100701103,394.01574930509406,0.526037190002942,330.3869748081588,-0.347155362368,-22.9026222229,-23.3444595337,0
38.1,15.664767469564643,-0.11395108022105258,393.9755592924965,0.5307594886720092,328.69619460828915,-0.347155362368,-22.9026222229,-23.3444595337,0
38.2,15.745934730237288,-0.13448559976462807,393.91793763206476,0.5337921838641652,327.4831226050357,-0.888646006584,-27.1907329559,-30.0746097565,0
38.300000000000004,15.827101990909933,-0.15502011930820359,393.86031597163304,0.536824879056321,326.27005060178226,-0.888646006584,-27.1907329559,-30.0746097565,0
38.400000000000006,15.908269251582578,-0.17555463885177908,393.8026943112013,0.5398575742484769,325.05697859852876,-0.888646006584,-27.1907329559,-30.0746097565,0
38.5,16.0233967903917,-0.5258583897843797,393.7086719151652,0.5465228433566468,322.8257239601773,-1.3940032792065775,-28.45359876338089,-32.20575915032623,0
38.6,16.14019807722669,-0.892414969913741,393.6128554920274,0.5533671455515392,320.54428771940746,-1.92750012875,-29.7872066498,-34.4950523376,0
38.7,16.256999364061677,-1.2589715500431025,393.51703906888963,0.5602114477464315,318.26285147863763,-1.92750012875,-29.7872066498,-34.4950523376,0
38.800000000000004,16.373800650896662,-1.6255281301724638,393.4212226457518,0.5670557499413238,315.9814152378678,-1.92750012875,-29.7872066498,-34.4950523376,0
38.900000000000006,16.510294232033022,-1.7749935361342317,393.3419948786892,0.5731673568596259,313.41631962989277,-1.92750012875,-29.7872066498,-34.4950523376,0
39.0,16.661653971218197,-1.760571908071883,393.2752902630307,0.5787258355534189,310.6370831544108,-1.55449795723,-32.5396575928,-44.8707351685,0
39.1,16.813013710403386,-1.7461502800095332,393.2085856473722,0.5842843142472123,307.8578466789286,-1.55449795723,-32.5396575928,-44.8707351685,0
39.2,16.96437344958857,-1.7317286519471835,393.14188103171375,0.5898427929410056,305.0786102034464,-1.55449795723,-32.5396575928,-44.8707351685,0
39.300000000000004,17.11573318877376,-1.7173070238848338,393.0751764160552,0.5954012716347991,302.2993737279642,-1.55449795723,-32.5396575928,-44.8707351685,0
39.400000000000006,17.2688321504125,-1.660603060124487,393.0135258175504,0.600000023842,299.5886509037386,-1.55449795723,-32.5396575928,-44.8707351685,0
39.5,17.430265000100412,-1.4012934713936724,392.97609271524385,0.600000023842,297.206227141112,-0.606202125549,-36.275894165,-59.3082046509,0
39.6,17.591697849788336,-1.1419838826628395,392.93865961293733,0.600000023842,294.8238033784852,-0.606202125549,-36.275894165,-59.3082046509,0
39.7,17.747425784343037,-0.8892767309109008,392.9038426323759,0.6005600361206195,292.43998718729637,-0.606202125549,-36.275894165,-59.3082046509,0
39.800000000000004,17.884528112333214,-0.6581254464530748,392.87756685763634,0.602948396083523,290.05162494661164,0.85949742794,-36.4519386292,-66.1709823608,0
39.900000000000006,18.021630440323392,-0.42697416199524885,392.8512910828968,0.6053367560464267,287.66326270592697,0.85949742794,-36.4519386292,-66.1709823608,0
40.0,18.15873276831356,-0.19582287753743932,392.8250153081572,0.6077251160093301,285.27490046524247,0.85949742794,-36.4519386292,-66.1709823608,0
40.1,18.2964620085633,0.014635621944981232,392.79879970106634,0.610000014305,282.9009883107345,0.85949742794,-36.4519386292,-66.1709823608,0
40.2,18.446760794683296,-0.18979473417380388,392.7737904510189,0.610000014305,280.8167993483591,1.19804024696,-37.1747894287,-76.2171630859,0
40.300000000000004,18.597059580803293,-0.394225090292589,392.7487812009714,0.610000014305,278.73261038598366,1.19804024696,-37.1747894287,-76.2171630859,0
40.400000000000006,18.72811814633567,-0.3541101186177765,392.7169947231601,0.610000014305,276.40806287905974,1.2613038655258975,-37.013338494511515,-77.47859441463385,0
40.5,18.848747732245755,-0.18144166458187938,392.68153471312894,0.610000014305,273.9532312960401,1.4867002964,-36.4499168396,-81.9767532349,0
40.6,18.969377318155846,-0.008773210545969967,392.6460747030978,0.610000014305,271.4983997130203,1.4867002964,-36.4499168396,-81.9767532349,0
