t_sec,airspeed,climb,altitude,throttle,heading,pitch,roll,yaw,is_boundary
0.0,27.0329589844,6.37458467484,396.029998779,0.409999996424,13.0,-0.0331018716097,-24.7974224091,19.2114086151,0
0.1,26.73389039742154,5.629157369287112,396.33297931628437,0.36921329733646846,12.12599921596303,-0.0331018716097,-24.7974224091,19.2114086151,0
0.2,26.43482181044308,4.883730063734224,396.6359598535688,0.32842659824893694,11.25199843192606,-0.0331018716097,-24.7974224091,19.2114086151,0
0.30000000000000004,26.13575322346462,4.138302758181336,396.9389403908532,0.28763989916140537,10.377997647889089,1.383421006119495,-19.73942233214288,16.22945236518108,0
0.4,25.900223143649626,3.8460726684977353,397.19843668631984,0.25362798538465053,10.503754586714251,2.62929105759,-13.665517807,13.3767614365,0
0.5,25.71311494770557,3.8992183821989763,397.4247941971106,0.2247790488671032,11.391414102679908,2.62929105759,-13.665517807,13.3767614365,0
0.6000000000000001,25.52600675176151,3.9523640959002178,397.6511517079013,0.19593011234955587,12.279073618645565,2.62929105759,-13.665517807,13.3767614365,0
0.7000000000000001,25.338898555817455,4.005509809601459,397.87750921869207,0.16708117583200854,13.166733134611224,1.6285913752513272,-23.84102539526723,11.333880141012648,0
0.8,25.153408844593056,4.045559223119032,398.09631486586875,0.13775792463240918,13.959234982949557,1.38063871861,-26.710773468,10.8275089264,0
0.9,24.99271347000649,3.884980189842835,398.1994299251661,0.10116842139085865,13.293971295308847,1.38063871861,-26.710773468,10.8275089264,0
1.0,24.832018095419926,3.724401156566638,398.30254498446345,0.06457891814930812,12.628707607668138,1.38063871861,-26.710773468,10.8275089264,0
1.1,24.67169147568632,3.5214098404797127,398.39611910160806,0.0301490242825728,11.925487521748247,1.132363396936947,-29.585000385025477,14.69674901559203,0
1.2000000000000002,24.51770686476753,2.588993354033052,398.32560388203365,0.032861046194457386,10.569476535499106,1.11889946461,-30.3350563049,14.9022464752,0
1.3,24.36372225384874,1.6565768675863934,398.25508866245923,0.03557306810634197,9.213465549249971,1.11889946461,-30.3350563049,14.9022464752,0
1.4000000000000001,24.209737642929944,0.724160381139733,398.1845734428848,0.03828509001822655,7.8574545630008314,-1.6503850385438243,-30.488614786420413,12.863156316068117,0
1.5,24.07578981705414,-0.05761839082273015,398.0524560802385,0.04525168236026384,6.649887796954119,-2.44899964333,-30.5453262329,12.2759618759,0
1.6,23.976302750205434,-0.5803191735720064,397.81439075221766,0.0595356026090884,5.697626484870585,-2.44899964333,-30.5453262329,12.2759618759,0
1.7000000000000002,23.876815683356728,-1.1030199563212826,397.5763254241968,0.07381952285791296,4.745365172787052,-2.44899964333,-30.5453262329,12.2759618759,0
1.8,23.777328616508022,-1.6257207390705577,397.3382600961759,0.08810344310673748,3.79310386070352,-7.83545970917,-31.8468456268,7.26645231247,0
1.9000000000000001,23.68490061437816,-2.1635628684556414,397.07067617666047,0.10332017722740078,17.691776598004303,-7.83545970917,-31.8468456268,7.26645231247,0
2.0,23.627648919941908,-2.776856447766475,396.6559969834153,0.12318525345619866,105.5947326880044,-7.83545970917,-31.8468456268,7.26645231247,0
2.1,23.570397225505655,-3.3901500270773104,396.24131779017017,0.14305032968499656,193.4976887780047,-7.83545970917,-31.8468456268,7.26645231247,0
2.2,23.5131455310694,-4.003443606388145,395.826638596925,0.1629154059137945,281.400644868005,-9.24019014353495,-33.11885296418661,5.586271060402675,0
2.3000000000000003,23.46888287934644,-4.591078940166116,395.3970155059161,0.18287023357742926,356.7539805670521,-11.1404504776,-35.0558662415,3.30700206757,0
2.4000000000000004,23.504431272882385,-5.021057436508964,394.8755697820083,0.20337653805008912,354.99629714692827,-11.1404504776,-35.0558662415,3.30700206757,0
2.5,23.539979666418326,-5.451035932851809,394.3541240581005,0.22388284252274887,353.23861372680443,-11.1404504776,-35.0558662415,3.30700206757,0
2.6,23.57552805995427,-5.881014429194656,393.83267833419274,0.24438914699540876,351.4809303066806,-12.268581695446276,-35.70213366042522,1.3227243463825722,0
2.7,23.651629657028295,-6.3163502906746665,393.31079945512255,0.26905522657971515,349.66613405992155,-14.1692047119,-36.9864196777,-2.02817225456,0
2.8000000000000003,23.743006928317712,-6.753704176807435,392.78875741416704,0.2952882198445931,347.829824421936,-14.1692047119,-36.9864196777,-2.02817225456,0
2.9000000000000004,23.834384199607133,-7.191058062940204,392.26671537321147,0.32152121310947107,345.9935147839505,-14.40976334706631,-36.6393351711709,-3.0478612300784644,0
3.0,23.92576147089655,-7.628411949072971,391.74467333225596,0.3477542063743489,344.157205145965,-15.7664279938,-33.7368202209,-8.78903770447,0
3.1,24.04648290888257,-7.472589376856287,391.25247953738915,0.3712179833541215,342.0710921313801,-15.7664279938,-33.7368202209,-8.78903770447,0
3.2,24.169951676788013,-7.261231016270877,390.76308026657097,0.3944224941283795,339.9615914262331,-15.7664279938,-33.7368202209,-8.78903770447,0
3.3000000000000003,24.293420444693457,-7.049872655685466,390.2736809957528,0.4176270049026375,337.8520907210861,-15.662705864545735,-33.70201912171426,-9.940058294409889,0
3.4000000000000004,24.416889212598896,-6.8385142951000555,389.7842817249346,0.4408315156768955,335.7425900159391,-15.1351394653,-32.6339454651,-15.8170518875,0
3.5,24.533436600153703,-6.68771795657911,389.3076657744865,0.46305044434015585,333.60780087928396,-15.1351394653,-32.6339454651,-15.8170518875,0
3.6,24.617111878363396,-6.8245523088467825,388.89176238189685,0.4805884912601786,331.3529079420015,-15.1351394653,-32.6339454651,-15.8170518875,0
3.7,24.70078715657309,-6.961386661114456,388.4758589893072,0.4981265381802013,329.09801500471906,-15.1351394653,-32.6339454651,-15.8170518875,0
3.8000000000000003,24.78446243478278,-7.098221013382129,388.05995559671754,0.5156645851002241,326.8431220674366,-12.830506158073252,-33.88058013796981,-22.47430840345625,0
3.9000000000000004,24.854720717886202,-7.126331816180974,387.6691938512627,0.5313196367167041,324.571108998889,-11.9159708023,-34.5403404236,-25.1484832764,0
4.0,24.864923369156525,-6.667786597510849,387.3909682953235,0.5385462383116041,322.222464740418,-11.9159708023,-34.5403404236,-25.1484832764,0
4.1000000000000005,24.875126020426848,-6.209241378840721,387.1127427393842,0.5457728399065042,319.873820481947,-11.9159708023,-34.5403404236,-25.1484832764,0
4.2,24.88532867169717,-5.7506961601705955,386.8345171834449,0.5529994415014041,317.52517622347597,-9.36554355526718,-34.549889718121044,-32.51123515600347,0
4.3,24.895531322967493,-5.292150941500471,386.55629162750563,0.5602260430963041,315.176531965005,-8.60977935791,-34.5536575317,-34.7172317505,0
4.4,24.905733974237815,-4.833605722830342,386.27806607156634,0.5674526446912042,312.827887706534,-8.60977935791,-34.5536575317,-34.7172317505,0
4.5,24.852448346822257,-4.169441076038775,386.1135926885848,0.5677104077559978,310.8552063627092,-8.60977935791,-34.5536575317,-34.7172317505,0
4.6000000000000005,24.764600208157873,-3.3933388567610185,386.0110450789713,0.5641743908495352,309.08719622332666,-8.60977935791,-34.5536575317,-34.7172317505,0
4.7,24.67675206949349,-2.617236637483268,385.90849746935777,0.5606383739430727,307.3191860839441,-8.60977935791,-34.5536575317,-34.7172317505,0
4.800000000000001,24.507692766580483,-1.9868629476346968,385.99783301428045,0.5531525036395627,306.315250492873,-3.4491776939092906,-28.821118719321507,-46.3882510329334,0
4.9,24.320742075550505,-1.3885942731969618,386.12944176169543,0.5447964529761778,305.4796458747737,-2.8457224369,-28.1701622009,-47.7491950989,0
5.0,24.133791384520528,-0.790325598759227,386.2610505091104,0.5364404023127931,304.6440412566745,-2.8457224369,-28.1701622009,-47.7491950989,0
5.1000000000000005,23.946840693490547,-0.1920569243214869,386.39265925652535,0.5280843516494081,303.8084366385752,0.677727103233,-18.7436122894,-52.9792022705,0
5.2,23.759963189805266,0.40966194579976273,386.5296941710457,0.5197186730809821,303.0140653952349,0.677727103233,-18.7436122894,-52.9792022705,0
5.300000000000001,23.57526351943593,1.1140481710084655,386.82819535475016,0.5110664972711555,303.44667427596846,0.677727103233,-18.7436122894,-52.9792022705,0
5.4,23.39056384906659,1.8184343962171616,387.12669653845455,0.502414321461329,303.879283156702,0.677727103233,-18.7436122894,-52.9792022705,0
5.5,23.205864178697254,2.522820621425858,387.425197722159,0.49376214565150256,304.31189203743554,3.091902859192061,-10.188548741643423,-54.857906220773856,0
5.6000000000000005,23.021164508327917,3.227206846634561,387.72369890586344,0.48510996984167604,304.7445009181691,5.06460666656,0.694295167923,-56.6612663269,0
5.7,22.866713863956534,3.4808593967852284,388.02495926381846,0.4757398297469629,305.2840106236511,5.06460666656,0.694295167923,-56.6612663269,0
5.800000000000001,22.755900547483684,3.0842823106247312,388.3302000141177,0.46533395240500225,305.9777357522178,5.06460666656,0.694295167923,-56.6612663269,0
5.9,22.64508723101083,2.687705224464237,388.6354407644169,0.4549280750630417,306.6714608807845,5.06460666656,0.694295167923,-56.6612663269,0
6.0,22.506598853134314,2.7860359267606336,388.92558393416317,0.442000838780027,307.3199660863852,6.08319187164,19.781539917,-54.8395309448,0
6.1000000000000005,22.343212642194732,3.3296097784355925,389.2021445851651,0.4268052651990096,307.9277892469956,6.08319187164,19.781539917,-54.8395309448,0
6.2,22.17982643125515,3.873183630110547,389.47870523616706,0.4116096916179922,308.53561240760604,6.08319187164,19.781539917,-54.8395309448,0
6.300000000000001,22.0293814728111,4.180704889765775,389.73884396740215,0.3983349053537803,309.11100670267064,5.59048128128,20.7502708435,-52.9826011658,0
6.4,21.920835167286203,3.723981295445943,389.9458150228799,0.39127886809752876,309.5814091677301,5.59048128128,20.7502708435,-52.9826011658,0
6.5,21.81228886176131,3.267257701126111,390.1527860783577,0.38422283084127723,310.0518116327895,5.59048128128,20.7502708435,-52.9826011658,0
6.6000000000000005,21.703742556236413,2.8105341068062755,390.35975713383544,0.37716679358502564,310.522214097849,4.214473887204056,8.255197638113698,-51.32896579675048,0
6.7,21.595196250711517,2.3538105124864437,390.5667281893132,0.3701107563287741,310.99261656290844,3.08115172386,-3.44438576698,-49.964138031,0
6.800000000000001,21.4748588278527,2.1989993106564243,390.6607515735331,0.37585590537783575,309.53602345141985,3.08115172386,-3.44438576698,-49.964138031,0
6.9,21.3543333803819,2.049002492301958,390.7529738610917,0.3818051858946635,308.0487019038287,3.08115172386,-3.44438576698,-49.964138031,0
7.0,21.2338079329111,1.899005673947492,390.8451961486503,0.3877544664114913,306.5613803562375,1.6931763429981348,-11.690905066403248,-48.81418482966124,0
7.1000000000000005,21.12938956720392,1.7109937238204584,390.9015278905806,0.3913454022229738,305.59637585955215,0.768033325672,-18.8666763306,-48.0484542847,0
7.2,21.034736615739945,1.4999339296011878,390.93609988418285,0.3935065189453171,304.94804215669745,0.768033325672,-18.8666763306,-48.0484542847,0
7.300000000000001,20.940083664275967,1.2888741353819149,390.97067187778515,0.39566763566766033,304.2997084538427,0.768033325672,-18.8666763306,-48.0484542847,0
7.4,20.845430712811993,1.077814341162644,391.00524387138745,0.3978287523900036,303.651374750988,-1.59781897068,-27.1916790009,-53.6486473083,0
7.5,20.75077776134802,0.8667545469433733,391.0398158649897,0.39998986911234685,303.00304104813324,-1.59781897068,-27.1916790009,-53.6486473083,0
7.6000000000000005,20.68903431955031,0.35065261610168386,391.02332463141977,0.3966685067421098,301.6674030133517,-1.59781897068,-27.1916790009,-53.6486473083,0
7.7,20.627445969248228,-0.16688687615241515,391.0065927539644,0.3933213072843309,300.3285259434745,-1.59781897068,-27.1916790009,-53.6486473083,0
7.800000000000001,20.565968239866887,-0.6774650565401945,390.9895561696171,0.390018857196318,298.98867712215497,-1.7306813401802823,-27.5557945656736,-54.19832699307367,0
7.9,20.518688266109624,-0.294586519727974,390.9334116664462,0.3924598109057068,297.5241078644713,-2.35252380371,-29.922164917,-56.7683296204,0
8.0,20.471408292352365,0.08829201708424661,390.87726716327535,0.39490076461509555,296.05953860678767,-2.35252380371,-29.922164917,-56.7683296204,0
8.1,20.424128318595102,0.4711705538964672,390.8211226601045,0.39734171832448434,294.594969349104,-2.4387231444916244,-29.463675246156527,-57.35141760575141,0
8.200000000000001,20.37684834483784,0.8540490907086946,390.76497815693364,0.39978267203387313,293.13040009142037,-3.01924800873,-25.9338207245,-61.2787017822,0
8.3,20.346923826990896,0.45028417373601115,390.6796011983748,0.40211535847796903,292.15385818593154,-3.01924800873,-25.9338207245,-61.2787017822,0
8.4,20.31869561055353,-0.030366329324728936,390.5913670947467,0.4044374630096291,291.22501548752314,-3.01924800873,-25.9338207245,-61.2787017822,0
8.5,20.290467394116167,-0.5110168323854689,390.50313299111855,0.4067595675412891,290.29617278911473,-3.360674017871323,-25.964711485991415,-63.22017034744422,0
8.6,20.2622391776788,-0.9916673354462089,390.4148988874904,0.40908167207294915,289.36733009070633,-3.86211037636,-26.0257205963,-66.5689849854,0
8.700000000000001,20.24182306856031,-1.6633613090255261,390.32570952199376,0.409999996424,288.3612814982323,-3.86211037636,-26.0257205963,-66.5689849854,0
8.8,20.226517480649516,-2.4600320229163555,390.2358952436741,0.409999996424,287.30472638519024,-3.86211037636,-26.0257205963,-66.5689849854,0
8.9,20.21088096897373,-2.4232886176302944,390.14580891910316,0.4117829154930038,286.28683169224985,-3.86211037636,-26.0257205963,-66.5689849854,0
9.0,20.195110329405587,-2.048751160993069,390.05561233049497,0.4142884758536441,285.28460659217166,-4.36805254437962,-21.262724566488536,-70.46006181647627,0
9.1,20.17933968983744,-1.6742137043558427,389.9654157418868,0.41679403621428435,284.28238149209346,-4.39376783371,-20.8325271606,-70.6578140259,0
9.200000000000001,20.1635690502693,-1.2996762477186103,389.87521915327864,0.41929959657492466,283.2801563920153,-4.47963476181,-15.7118816376,-72.9239654541,0
9.3,20.15200730812654,-1.0438929029248152,389.76556684539923,0.4236710910732243,282.63289032536204,-4.47963476181,-15.7118816376,-72.9239654541,0
9.4,20.142078581656513,-0.8341851228792678,389.6483658872956,0.42876655182280665,282.1233452830478,-4.47963476181,-15.7118816376,-72.9239654541,0
9.5,20.136287816973145,-1.086293011616821,389.551298144044,0.4318567048304374,281.4429901655485,-4.4765388913961655,-14.527292284624531,-73.62449399553098,0
9.600000000000001,20.131818643138995,-1.485896549989551,389.46066058886214,0.4343063984770921,280.70808137066956,-4.46685743332,-10.1142625809,-76.1270446777,0
9.700000000000001,20.127349469304843,-1.8855000883622737,389.3700230336803,0.43675609212374683,279.97317257579067,-4.440734976391516,-8.951910578262606,-76.48060010173506,0
9.8,20.122880295470694,-2.2851036267349962,389.27938547849845,0.4392057857704015,279.2382637809117,-4.34971523285,-4.6652879715,-77.718208313,0
9.9,20.104799424304712,-2.197526898764298,389.20711921957826,0.44147860023877206,279.14786040329165,-4.34971523285,-4.6652879715,-77.718208313,0
10.0,20.080188386964295,-1.8762270708326436,389.143666528467,0.44366655751418327,279.3666563394985,-4.34971523285,-4.6652879715,-77.718208313,0
10.100000000000001,20.05557734962388,-1.5549272429009835,389.08021383735576,0.44585451478959454,279.5854522757053,-4.34971523285,-4.6652879715,-77.718208313,0
10.200000000000001,20.030966312283468,-1.2336274149693292,389.01676114624456,0.44804247206500575,279.80424821191207,-3.4943857193,-0.105901390314,-80.8722457886,0
10.3,20.00438292471594,-0.9243526771680068,388.9602350977307,0.449999988079,279.902637991485,-3.4943857193,-0.105901390314,-80.8722457886,0
10.4,19.961045128102747,-0.7172267748447944,388.9625483982299,0.449999988079,278.9782205778274,-3.4943857193,-0.105901390314,-80.8722457886,0
10.5,19.917707331489552,-0.5101008725215819,388.9648616987292,0.449999988079,278.0538031641699,-3.4943857193,-0.105901390314,-80.8722457886,0
10.600000000000001,19.874369534876358,-0.3029749701983657,388.9671749992284,0.449999988079,277.1293857505123,-2.9998098055102744,0.3676722441056377,-80.60040103484371,0
10.700000000000001,19.831031738263167,-0.09584906787515324,388.9694882997277,0.449999988079,276.20496833685473,-1.82092666626,1.73096966743,-79.9530639648,0
10.8,19.761192235117093,-0.10075061733610162,388.979848750612,0.449999988079,276.3282643474261,-1.82092666626,1.73096966743,-79.9530639648,0
10.9,19.683802495426143,-0.16605799058777035,388.99250180438383,0.449999988079,276.7500499731609,-1.82092666626,1.73096966743,-79.9530639648,0
11.0,19.60641275573519,-0.2313653638394391,389.0051548581556,0.449999988079,277.17183559889577,-1.82092666626,1.73096966743,-79.9530639648,0
11.100000000000001,19.529023016044235,-0.296672737091109,389.0178079119274,0.449999988079,277.5936212246306,-0.440400630236,3.97151422501,-83.3926620483,0
11.200000000000001,19.452090595185446,-0.35328890256981166,389.0307058130962,0.449999988079,278.0088394097871,-0.440400630236,3.97151422501,-83.3926620483,0
11.3,19.387220644108503,-0.18066143372460014,389.05006193142106,0.449999988079,278.25083150419573,-0.440400630236,3.97151422501,-83.3926620483,0
11.4,19.32235069303156,-0.008033964879388567,389.0694180497459,0.449999988079,278.49282359860445,-0.440400630236,3.97151422501,-83.3926620483,0
11.5,19.25748074195462,0.164593503965823,389.08877416807076,0.449999988079,278.7348156930131,-0.455143771858436,-2.4229569642029967,-82.52575828930124,0
11.600000000000001,19.192610790877676,0.33722097281103763,389.1081302863956,0.449999988079,278.97680778742176,-0.466056317091,-8.34955692291,-81.8870391846,0
11.700000000000001,19.12081712618706,0.369072736898472,389.13458283683184,0.449999988079,277.90673395599043,-0.466056317091,-8.34955692291,-81.8870391846,0
11.8,19.04828956604542,0.38600264616916286,389.16178759042606,0.449999988079,276.69758458386787,-0.466056317091,-8.34955692291,-81.8870391846,0
11.9,18.975762005903782,0.40293255543985373,389.1889923440203,0.449999988079,275.48843521174524,-0.466056317091,-8.34955692291,-81.8870391846,0
12.0,18.904920351575637,0.5382550472226437,389.20271118436995,0.45272682188724683,274.04560867909686,-0.0338782705367,-14.1340198517,-80.992149353,0
12.100000000000001,18.835221252518732,0.75381337907564,389.2072904861156,0.45730165830422265,272.4444167921147,-0.0338782705367,-14.1340198517,-80.992149353,0
12.200000000000001,18.765522153461827,0.9693717109286326,389.21186978786125,0.4618764947211984,270.84322490513256,-0.0338782705367,-14.1340198517,-80.992149353,0
12.3,18.695823054404926,1.1849300427816252,389.2164490896069,0.46645133113817416,269.24203301815044,-0.214725136757,-20.0645427704,-84.6839065552,0
12.4,18.628426457902634,1.2359663160285326,389.2078753615199,0.4718654465827689,267.62691064519,-0.214725136757,-20.0645427704,-84.6839065552,0
12.5,18.56899231045946,0.7180570703535727,389.1538161985498,0.480181932967374,265.9636142605443,-0.214725136757,-20.0645427704,-84.6839065552,0
12.600000000000001,18.509558163016287,0.2001478246786037,389.0997570355797,0.4884984193519792,264.30031787589866,-0.214725136757,-20.0645427704,-84.6839065552,0
12.700000000000001,18.46479265884707,-0.13932327441456627,388.9949378162503,0.4970412633819587,262.59174788799345,-1.592589594143664,-28.445237481917342,-91.10718320507792,0
12.8,18.42325923483325,-0.4394774181655735,388.87893415622085,0.5056339829212114,260.873202341209,-1.68793785572,-29.3809986115,-91.5569839478,0
12.9,18.38172581081943,-0.7396315619165807,388.7629304961915,0.5142267024604642,259.15465679442445,-1.7548554033677215,-29.703822274370854,-92.08596379388835,0
13.0,18.340192386805608,-1.0397857056675879,388.64692683616204,0.522819421999717,257.43611124764,-2.13354706764,-32.1908607483,-95.1021728516,0
13.100000000000001,18.300857420907462,-1.2545866816357478,388.52522502259916,0.5307860865853599,255.60694319886935,-2.13354706764,-32.1908607483,-95.1021728516,0
13.200000000000001,18.27270109172926,-1.0353870966028558,388.3745494533522,0.5355694106091676,253.21528603377826,-2.13354706764,-32.1908607483,-95.1021728516,0
13.3,18.244544762551058,-0.8161875115699639,388.2238738841053,0.5403527346329754,250.8236288686872,-2.13354706764,-32.1908607483,-95.1021728516,0
13.4,18.216388433372856,-0.5969879265370719,388.07319831485836,0.5451360586567833,248.43197170359613,-2.347437725171151,-33.734564826692,-101.3511902847983,0
13.5,18.188232104194654,-0.37778834150417995,387.9225227456114,0.549919382680591,246.04031453850504,-2.44936084747,-34.6347694397,-104.330024719,0
13.600000000000001,18.16202200241078,-0.9762202247589795,387.7848616083747,0.5526495544914092,243.8803639221757,-2.44936084747,-34.6347694397,-104.330024719,0
13.700000000000001,18.13584526933223,-1.588670667001525,387.6474236078321,0.5553445243359076,241.72438599042087,-2.44936084747,-34.6347694397,-104.330024719,0
13.8,18.109668536253682,-2.2011211092440703,387.5099856072895,0.558039494180406,239.56840805866602,-2.2958995397361854,-34.49167642371537,-109.92117012587002,0
13.9,18.079573696503388,-2.537992494636228,387.37119637800384,0.5610212326029188,237.59150752285322,-2.20735406876,-34.3909912109,-113.143753052,0
14.0,18.039020202625082,-2.139257046935362,387.2288002959053,0.5647684461958411,236.0926206561959,-2.20735406876,-34.3909912109,-113.143753052,0
14.100000000000001,17.998466708746776,-1.740521599234489,387.08640421380665,0.5685156597887635,234.59373378953853,-2.20735406876,-34.3909912109,-113.143753052,0
14.200000000000001,17.945022205711506,-1.54086795409543,386.98104443277526,0.569999992847,233.1841647721408,-1.14923381805,-30.0416679382,-121.27255249,0
14.3,17.88312186475089,-1.4718017157179204,386.8999785573152,0.569999992847,231.83318366263947,-1.14923381805,-30.0416679382,-121.27255249,0
14.4,17.82122152379028,-1.4027354773404108,386.8189126818551,0.569999992847,230.48220255313814,-1.14923381805,-30.0416679382,-121.27255249,0
14.5,17.73549655075691,-1.2429046935534382,386.8355102732245,0.5659827628549936,229.06264544124346,0.225076183677,-26.2722415924,-126.149673462,0
14.600000000000001,17.636548071769216,-1.0326964053836694,386.906314512201,0.559735829396551,227.6050262441421,0.225076183677,-26.2722415924,-126.149673462,0
14.700000000000001,17.537599592781522,-0.822488117213904,386.9771187511775,0.5534888959381083,226.14740704704073,0.225076183677,-26.2722415924,-126.149673462,0
14.8,17.438651113793828,-0.6122798290441387,387.04792299015406,0.5472419624796658,224.68978784993936,2.42231249809,-24.412355423,-130.351272583,0
14.9,17.339702634806134,-0.40207154087437347,387.11872722913057,0.5409950290212232,223.232168652838,2.42231249809,-24.412355423,-130.351272583,0
15.0,17.223976378326782,0.30696000190449124,387.2682029354003,0.5337178782153529,222.68589347442023,2.42231249809,-24.412355423,-130.351272583,0
15.100000000000001,17.105071475417276,1.110496478863704,387.4325834035666,0.5262455468085171,222.31227766122956,2.42231249809,-24.412355423,-130.351272583,0
15.200000000000001,16.989393822013355,1.7880870794759154,387.5962694742356,0.5190496640295664,222.0,2.42231249809,-24.412355423,-130.351272583,0
15.3,16.89014636573124,1.8244766909860823,387.75642030917464,0.5132612043340632,222.0,4.38398218155,-12.6379432678,-136.191314697,0
15.4,16.79089890944913,1.860866302496249,387.9165711441137,0.50747274463856,222.0,4.38398218155,-12.6379432678,-136.191314697,0
15.5,16.691651453167015,1.897255914006416,388.0767219790527,0.5016842849430567,222.0,4.501425342318694,-10.999551582865712,-136.6169857712326,0
15.600000000000001,16.592403996884897,1.9336455255165836,388.23687281399174,0.49589582524755343,222.0,4.71029949188,-7.55411338806,-137.393920898,0
15.700000000000001,16.493156540602783,1.9700351370267504,388.39702364893077,0.4901073655520502,222.0,4.71029949188,-7.55411338806,-137.393920898,0
15.8,16.427944558120764,2.145685356231213,388.53092403476603,0.4870905239323551,222.0,4.71029949188,-7.55411338806,-137.393920898,0
15.9,16.363375745178157,2.3239671880124644,388.664328364946,0.4841260576764267,222.0,4.71029949188,-7.55411338806,-137.393920898,0
16.0,16.298806932235554,2.502249019793716,388.79773269512594,0.48116159142049825,222.0,4.555905713038303,-1.4380102594122217,-137.43574242348245,0
16.1,16.250478463333966,2.4855423334014035,388.90443579277286,0.4784879933880541,222.30239946498756,4.41921234131,5.99919986725,-137.472747803,0
16.2,16.21261379948533,2.3432027271289804,388.99393503739833,0.476001804463382,222.7996377241381,4.41921234131,5.99919986725,-137.472747803,0
16.3,16.174749135636688,2.2008631208565523,389.0834342820238,0.4735156155387098,223.29687598328866,4.41921234131,5.99919986725,-137.472747803,0
16.400000000000002,16.13688447178805,2.058523514584124,389.17293352664933,0.4710294266140376,223.79411424243924,3.54588246346,12.0147323608,-137.234481812,0
16.5,16.116736783942383,1.747635285526804,389.2333279225189,0.469999998808,224.4667008629572,3.54588246346,12.0147323608,-137.234481812,0
16.6,16.10910888915205,1.31764129729959,389.27315522594176,0.469999998808,225.26319831320956,3.54588246346,12.0147323608,-137.234481812,0
16.7,16.103025926466383,0.8911764504699747,389.31020357860245,0.469999998808,226.06193440701372,3.54588246346,12.0147323608,-137.234481812,0
16.8,16.116011462358866,0.508270428988487,389.3129524183614,0.469999998808,226.88830121109675,1.74290192127,14.5926408768,-135.280044556,0
16.900000000000002,16.12899699825135,0.12536440750699906,389.3157012581204,0.469999998808,227.71466801517977,1.74290192127,14.5926408768,-135.280044556,0
17.0,16.14198253414383,-0.25754161397447517,389.31845009787935,0.469999998808,228.5410348192628,0.6430784855508493,14.781000546173141,-133.4557330437334,0
17.1,16.161531847850778,-0.46188876241026083,389.31607773796276,0.469999998808,229.29259089797418,0.57555603981,14.8060798645,-133.344299316,0
17.2,16.189280759162937,-0.44317672919806705,389.30730787682313,0.469999998808,229.95069197836906,0.57555603981,14.8060798645,-133.344299316,0
17.3,16.217029670475092,-0.4244646959858726,389.2985380156835,0.469999998808,230.60879305876398,0.57555603981,14.8060798645,-133.344299316,0
17.400000000000002,16.24477858178725,-0.40575266277367816,389.2897681545439,0.469999998808,231.26689413915886,-0.565215408802,13.5079507828,-130.687286377,0
17.5,16.272527493099407,-0.3870406295614844,389.28099829340425,0.469999998808,231.92499521955375,-0.565215408802,13.5079507828,-130.687286377,0
17.6,16.29335366403737,-0.4221333918602474,389.2869336985318,0.469999998808,232.23117338544515,-0.565215408802,13.5079507828,-130.687286377,0
17.7,16.313289349781208,-0.4641471668195425,389.2947606698859,0.469999998808,232.49208304090578,-0.565215408802,13.5079507828,-130.687286377,0
17.8,16.333225035525047,-0.5061609417788391,389.3025876412399,0.469999998808,232.75299269636645,-0.565215408802,13.5079507828,-130.687286377,0
17.900000000000002,16.352472845974646,-0.5421458491099773,389.3115064030595,0.469999998808,233.0,-1.10025918484,10.9583759308,-127.126869202,0
18.0,16.359498967333128,-0.4710140358089538,389.33982333738874,0.469999998808,233.0,-1.10025918484,10.9583759308,-127.126869202,0
18.1,16.366525088691613,-0.3998822225079278,389.36814027171795,0.469999998808,233.0,-1.10025918484,10.9583759308,-127.126869202,0
18.2,16.365738880371268,-0.11356726349961604,389.416649370077,0.4664113483276286,233.0,-0.43807239601344516,9.872172838989126,-126.99918402540334,0
18.3,16.364405071186127,0.18783083735283262,389.46657382684253,0.4625711534056768,233.0,-0.294057995081,9.39494800568,-126.971305847,0
18.400000000000002,16.36082471907733,0.45319317685621807,389.5213081232286,0.459238999083182,233.07610077195596,0.007504631993993427,8.706396875165469,-126.98429433779721,0
18.5,16.352692782418526,0.6455456428883666,389.58578734434974,0.45693615504846824,233.30638470873393,0.115990802646,8.41241836548,-126.990020752,0
18.6,16.344560845759727,0.8378981089205217,389.65026656547093,0.4546333110137543,233.5366686455119,0.115990802646,8.41241836548,-126.990020752,0
18.7,16.336428909100928,1.03025057495267,389.71474578659206,0.4523304669790405,233.76695258228983,0.0912279561162,3.77437925339,-126.052833557,0
18.8,16.32829697244213,1.2226030409848254,389.7792250077132,0.45002762294432663,233.9972365190678,0.0912279561162,3.77437925339,-126.052833557,0
18.900000000000002,16.31740201298411,1.041237726838302,389.85560362826976,0.4457995517698349,234.21002201575624,0.0912279561162,3.77437925339,-126.052833557,0
19.0,16.30647349363895,0.8553332078290536,389.9321267798458,0.44154809663862987,234.42259497504733,0.0912279561162,3.77437925339,-126.052833557,0
19.1,16.29554497429379,0.6694286888197988,390.0086499314219,0.43729664150742464,234.63516793433843,0.03744858005953325,3.607045673625557,-125.92850152442513,0
19.200000000000003,16.28461645494863,0.4835241698105438,390.08517308299804,0.43304518637621947,234.84774089362952,-0.284997433424,2.23032927513,-125.181617737,0
19.3,16.275474956252495,0.4474363190661815,390.1632903872629,0.429167635541287,234.91676300751678,-0.284997433424,2.23032927513,-125.181617737,0
19.400000000000002,16.270844695918864,0.7895526606396904,390.2454320450066,0.42623398616948094,234.62339866486835,-0.284997433424,2.23032927513,-125.181617737,0
19.5,16.266214435585233,1.1316690022131872,390.3275737027503,0.423300336797675,234.33003432221994,-0.284997433424,2.23032927513,-125.181617737,0
19.6,16.261584175251603,1.4737853437866963,390.40971536049403,0.4203666874258689,234.0366699795715,-0.497737288475,2.10971641541,-124.749198914,0
19.700000000000003,16.2536963504912,1.509990878379169,390.46613881419546,0.4181537524799374,233.8153763832182,-0.497737288475,2.10971641541,-124.749198914,0
19.8,16.245343167553273,1.5024956362649224,390.51888830324276,0.41604377493033096,233.6043784270288,-0.497737288475,2.10971641541,-124.749198914,0
19.900000000000002,16.236989984615345,1.4950003941506755,390.5716377922901,0.4139337973807245,233.39338047083942,-0.5784433783690436,2.186659233242576,-124.9445124575783,0
20.0,16.228636801677414,1.4875051520364289,390.6243872813375,0.41182381983111804,233.18238251465002,-0.975575983524,2.84253621101,-125.909454346,0
20.1,16.222367649414437,1.4546894395647822,390.66873686943075,0.409999996424,233.0,-0.975575983524,2.84253621101,-125.909454346,0
20.200000000000003,16.229381212170267,1.2604919413343045,390.6595491022921,0.409999996424,233.0,-0.975575983524,2.84253621101,-125.909454346,0
20.3,16.2363947749261,1.0662944431038337,390.65036133515343,0.409999996424,233.0,-0.975575983524,2.84253621101,-125.909454346,0
20.400000000000002,16.24340833768193,0.8720969448733559,390.6411735680148,0.409999996424,233.0,-2.2917549861442605,-1.8595529183933164,-126.83972474238749,0
20.5,16.25042190043776,0.677899446642885,390.6319858008761,0.409999996424,233.0,-2.42203497887,-2.59162282944,-126.932136536,0
20.6,16.264677920779587,0.38158761535503827,390.5638846020396,0.4133906545236472,232.66093437192703,-2.42203497887,-2.59162282944,-126.932136536,0
20.700000000000003,16.2809246465152,0.057208025135010776,390.47959010350405,0.4177132892744945,232.22867112872993,-2.42203497887,-2.59162282944,-126.932136536,0
20.8,16.297171372250812,-0.26717156508500506,390.39529560496845,0.42203592402534174,231.79640788553283,-2.42203497887,-2.59162282944,-126.932136536,0
20.900000000000002,16.313418097986425,-0.5915511553050324,390.3110011064329,0.4263585587761891,231.3641446423357,-3.89845085144,-3.14132022858,-126.130714417,0
21.0,16.32830038204649,-0.9092492798440386,390.2265041973013,0.43070978876243965,230.9290217713641,-3.89845085144,-3.14132022858,-126.130714417,0
21.1,16.33588870939508,-1.1912299953358576,390.1409252528203,0.4352138815737746,230.47861206067486,-3.89845085144,-3.14132022858,-126.130714417,0
21.200000000000003,16.343477036743668,-1.4732107108276764,390.0553463083392,0.43971797438510957,230.02820234998563,-3.89845085144,-3.14132022858,-126.130714417,0
21.3,16.351065364092257,-1.7551914263194854,389.9697673638582,0.44422206719644436,229.5777926392964,-3.710515775433105,-2.6023858912614246,-127.10047024132972,0
21.400000000000002,16.358653691440846,-2.037172141811304,389.8841884193771,0.4487261600077793,229.12738292860718,-3.46489739418,-1.75968110561,-128.37071228,0
21.5,16.363652448476685,-1.8182884106233406,389.78969154188314,0.4521301945275615,229.0,-3.46489739418,-1.75968110561,-128.37071228,0
21.6,16.36763002996743,-1.4018929448291915,389.6916779515736,0.45510043019663116,229.0,-3.46489739418,-1.75968110561,-128.37071228,0
21.700000000000003,16.371607611458174,-0.9854974790350424,389.5936643612641,0.45807066586570083,229.0,-3.1999782960882066,-1.722334456581112,-129.07481158969466,0
21.8,16.373789420977033,-0.721214225649027,389.50083156091887,0.4607675561205458,228.9232451492443,-2.66567087173,-1.63218021393,-130.493713379,0
21.900000000000002,16.372642686143266,-0.7388778193587271,389.417601588465,0.4629577883202051,228.70422172039574,-2.66567087173,-1.63218021393,-130.493713379,0
22.0,16.3714959513095,-0.7565414130684265,389.3343716160112,0.4651480205198644,228.48519829154716,-2.66567087173,-1.63218021393,-130.493713379,0
22.1,16.370349216475734,-0.7742050067781265,389.25114164355733,0.4673382527195238,228.2661748626986,-1.93724906445,-0.0425394847989,-130.899185181,0
22.200000000000003,16.36920248164197,-0.7918686004878266,389.16791167110347,0.4695284849191831,228.04715143385002,-1.93724906445,-0.0425394847989,-130.899185181,0
22.3,16.361347094195136,-0.7997970553086774,389.1159589781927,0.4716207735842027,228.0,-1.93724906445,-0.0425394847989,-130.899185181,0
22.400000000000002,16.35165125222917,-0.8050547681198017,389.0725869070254,0.47368619237961596,228.0,-1.93724906445,-0.0425394847989,-130.899185181,0
22.5,16.341955410263203,-0.8103124809309259,389.02921483585817,0.4757516111750292,228.0,-1.5435252919644238,0.8483726979357457,-131.24596498539393,0
22.6,16.33225956829724,-0.8155701937420502,388.9858427646909,0.4778170299704424,228.0,-0.751059830189,3.06348872185,-131.943649292,0
22.700000000000003,16.32256372633127,-0.8208279065531745,388.94247069352366,0.4798824487658557,228.0,-0.751059830189,3.06348872185,-131.943649292,0
22.8,16.306145323190016,-0.6620331107907771,388.9246832103997,0.479999989271,228.0,-0.751059830189,3.06348872185,-131.943649292,0
22.900000000000002,16.289321261625254,-0.493338920993203,388.9084395739408,0.479999989271,228.0,-0.751059830189,3.06348872185,-131.943649292,0
23.0,16.272497200060492,-0.32464473119563486,388.892195937482,0.479999989271,228.0,-0.05928328952739936,3.8728577779903715,-131.85492993717034,0
23.1,16.253875562267556,-0.25380486024143306,388.8817875503026,0.479999989271,228.05942466200304,0.178159192204,4.24976158142,-131.823974609,0
23.200000000000003,16.229846421342558,-0.47733221963722916,388.8889328714226,0.479999989271,228.2976117268829,0.178159192204,4.24976158142,-131.823974609,0
23.3,16.205817280417563,-0.7008595790330172,388.8960781925426,0.479999989271,228.53579879176277,0.178159192204,4.24976158142,-131.823974609,0
23.400000000000002,16.181788139492564,-0.9243869384288134,388.90322351366257,0.479999989271,228.77398585664264,0.5198462810985587,4.513678202496003,-131.68226252399432,0
23.5,16.15840888451386,-1.1112000362565109,388.9104249802941,0.479999989271,229.0,0.841314017773,4.80053949356,-131.548965454,0
23.6,16.147096035710483,-0.6163409190806975,388.9186688983763,0.479999989271,229.0,0.841314017773,4.80053949356,-131.548965454,0
23.700000000000003,16.135783186907105,-0.12148180190488422,388.92691281645847,0.479999989271,229.0,0.841314017773,4.80053949356,-131.548965454,0
23.8,16.124470338103723,0.37337731527091145,388.93515673454067,0.479999989271,229.0,0.8643534433407539,4.586193288739276,-131.2060633699707,0
23.900000000000002,16.11615362895733,0.5874885731897812,388.93710973241053,0.479999989271,229.0,0.891684710979,4.28461503983,-130.799377441,0
24.0,16.11210928860372,0.4012652239637971,388.9300921433685,0.479999989271,229.0,0.891684710979,4.28461503983,-130.799377441,0
24.1,16.10806494825011,0.21504187473780634,388.92307455432643,0.479999989271,229.0,0.891684710979,4.28461503983,-130.799377441,0
24.200000000000003,16.10865902527153,-0.003807320765682104,388.9036848951439,0.48125363817322353,229.0,0.414149701595,4.12649917603,-130.159194946,0
24.3,16.112905812099132,-0.24834906159175918,388.874552347758,0.48349452372718144,229.0,0.414149701595,4.12649917603,-130.159194946,0
24.400000000000002,16.11715259892674,-0.492890802417845,388.8454198003722,0.4857354092811394,229.0,0.414149701595,4.12649917603,-130.159194946,0
24.5,16.121399385754348,-0.737432543243922,388.81628725298634,0.4879762948350973,229.0,0.142352774739,4.46602773666,-130.134658813,0
24.6,16.126138517290787,-0.9308427409995008,388.7867446102411,0.490000009537,229.02309845220165,0.142352774739,4.46602773666,-130.134658813,0
24.700000000000003,16.13546558139848,-0.6477817435487945,388.75338047856155,0.490000009537,229.26144069457735,0.142352774739,4.46602773666,-130.134658813,0
24.8,16.144792645506175,-0.36472074609809835,388.720016346882,0.490000009537,229.499782936953,0.142352774739,4.46602773666,-130.134658813,0
24.900000000000002,16.154119709613873,-0.08165974864739212,388.68665221520246,0.490000009537,229.7381251793287,-0.04712370085198192,4.096835888072646,-130.1645973687309,0
25.0,16.163446773721567,0.201401248803304,388.6532880835229,0.490000009537,229.97646742170437,-0.130789265037,3.85224795341,-130.178131104,0
25.1,16.17026035945732,-0.2493590251374084,388.6232453715368,0.4933428578319606,230.3342851483038,-0.130789265037,3.85224795341,-130.178131104,0
25.200000000000003,16.176798591535984,-0.7805100328840777,388.59356652385503,0.497051917952485,230.70519151408965,-0.130789265037,3.85224795341,-130.178131104,0
25.3,16.182923226549065,-1.1788233131193238,388.56661963026886,0.5,231.0,-0.1304161840023719,3.85224795341,-130.178131104,0
25.400000000000002,16.187445557728182,-1.0625139864765518,388.55025651709576,0.5,231.0,0.169429674745,2.5691421032,-129.1275177,0
25.5,16.1919678889073,-0.9462046598337842,388.5338934039226,0.5,231.0,0.169429674745,2.5691421032,-129.1275177,0
25.6,16.196490220086417,-0.8298953331910124,388.5175302907495,0.5,231.0,0.3633937132450479,2.138751938633093,-129.000743481498,0
25.700000000000003,16.201012551265535,-0.7135860065482404,388.50116717757635,0.5,231.0,0.405671626329,2.01172399521,-128.973144531,0
25.8,16.204033005753715,-0.513921359355157,388.49123516752434,0.5,231.0,0.405671626329,2.01172399521,-128.973144531,0
25.900000000000002,16.203816699329998,-0.13461397252561452,388.49516311237306,0.5,231.0,0.405671626329,2.01172399521,-128.973144531,0
26.0,16.203600392906285,0.24469341430391445,388.49909105722173,0.5,231.0,0.405671626329,2.01172399521,-128.973144531,0
26.1,16.21115092216024,0.00631320658075768,388.497956564375,0.5,231.0,0.7213038998751125,2.3447366045156928,-128.98380550886432,0
26.200000000000003,16.221039843052964,-0.4180366246052173,388.49529790358264,0.5,231.0,0.803283274174,2.44559693336,-128.986602783,0
26.3,16.230928763945688,-0.8423864557911772,388.49263924279023,0.5,231.0,0.830618064292536,2.4993087932470432,-128.9488303166823,0
26.400000000000002,16.240833405725287,-1.2641952350457701,388.48987733873753,0.5000102645628504,231.0,0.9518840909,2.79849338531,-128.781417847,0
26.5,16.255052672276108,-0.988607888136177,388.45878014215793,0.5028376562690643,231.0,0.9518840909,2.79849338531,-128.781417847,0
26.6,16.26927193882693,-0.7130205412265741,388.4276829455783,0.5056650479752783,231.0,0.9518840909,2.79849338531,-128.781417847,0
26.700000000000003,16.28349120537775,-0.43743319431697125,388.39658574899863,0.5084924396814924,231.0,0.8355946199537595,3.200488971722817,-128.4276758860942,0
26.8,16.295382683920693,-0.09731063349590294,388.38516241725813,0.509999990463,231.1290092244453,0.721931040287,3.85042214394,-128.035232544,0
26.900000000000002,16.304615312775947,0.31652544108719594,388.3962109984265,0.509999990463,231.40537556859613,0.721931040287,3.85042214394,-128.035232544,0
27.0,16.313847941631202,0.7303615156702801,388.40725957959484,0.509999990463,231.68174191274693,0.721931040287,3.85042214394,-128.035232544,0
27.1,16.323080570486457,1.144197590253379,388.41830816076316,0.509999990463,231.95810825689776,0.802546262741,1.48199689388,-128.130630493,0
27.200000000000003,16.32960114039046,0.7314087989216669,388.4657930632276,0.5075889630542858,231.75889702918866,0.802546262741,1.48199689388,-128.130630493,0
27.3,16.33563716793313,0.17093340797555245,388.5197877582431,0.5047471762355265,231.47471807629128,0.802546262741,1.48199689388,-128.130630493,0
27.400000000000002,16.3416731954758,-0.3895419829705822,388.5737824532587,0.501905389416767,231.19053912339385,0.802546262741,1.48199689388,-128.130630493,0
27.5,16.34446404678586,-0.5619302985879591,388.6562661445388,0.4982859227736183,231.08570381534327,1.29917061329,-1.63866782188,-127.893325806,0
27.6,16.340651585831267,0.05536427528375942,388.79671948829923,0.4930840265937452,231.34579848480914,1.29917061329,-1.63866782188,-127.893325806,0
27.700000000000003,16.33683912487668,0.672658849155478,388.9371728320596,0.4878821304138721,231.605893154275,1.29917061329,-1.63866782188,-127.893325806,0
27.8,16.33302666392209,1.2899534230271748,389.07762617582006,0.48268023423399914,231.86598782374088,2.18639469147,0.668424487114,-128.441238403,0
27.900000000000002,16.337512081380897,1.6532560003140977,389.2153053943442,0.47743880552862283,232.128059309249,2.18639469147,0.668424487114,-128.441238403,0
28.0,16.350817254193753,1.7465923090968385,389.35003601508396,0.4721553579858891,232.39223193832714,2.18639469147,0.668424487114,-128.441238403,0
28.1,16.364122427006613,1.8399286178795826,389.4847666358237,0.4668719104431552,232.65640456740527,2.18639469147,0.668424487114,-128.441238403,0
28.200000000000003,16.37742759981947,1.9332649266623267,389.6194972565635,0.4615884629004212,232.9205771964834,1.9305883646,0.833614528179,-127.862358093,0
28.3,16.39383299309107,1.8924036152543315,389.7287609648347,0.4580353729553119,232.6070737183668,1.9305883646,0.833614528179,-127.862358093,0
28.400000000000002,16.41157115189901,1.793851579709477,389.8270766054744,0.45522615300343167,232.04523086662147,1.9305883646,0.833614528179,-127.862358093,0
28.5,16.429309310706948,1.695299544164626,389.92539224611414,0.4524169330515515,231.48338801487614,1.7840977153302906,1.1663467846142912,-127.75104981139486,0
28.6,16.44978916465576,1.5403354199965509,390.01069695484904,0.4503584921336339,230.9641496671909,0.56429541111,4.77229738235,-126.821121216,0
28.700000000000003,16.487161572644943,1.0377964537563313,390.0158367075892,0.45292586654234823,230.7074127466225,0.56429541111,4.77229738235,-126.821121216,0
28.8,16.52453398063413,0.5352574875161298,390.02097646032934,0.4554932409510625,230.45067582605412,0.56429541111,4.77229738235,-126.821121216,0
28.900000000000002,16.561906388623314,0.03271852127591024,390.0261162130695,0.4580606153597768,230.19393890548574,-0.24169387605266135,8.659481928964421,-128.22499382166285,0
29.0,16.602354494958515,-0.3038295457772595,390.0183482420452,0.460000008345,230.13705431577196,-0.346202641726,9.34571456909,-128.412780762,0
29.1,16.65230127048009,-0.1277484594001263,389.9707173897516,0.460000008345,230.6973730286419,-0.346202641726,9.34571456909,-128.412780762,0
29.200000000000003,16.702248046001667,0.04833262697700691,389.923086537458,0.460000008345,231.25769174151182,-0.346202641726,9.34571456909,-128.412780762,0
29.3,16.752194821523243,0.22441371335413385,389.8754556851644,0.460000008345,231.81801045438172,-1.2513449192,12.0208272934,-129.801269531,0
29.400000000000002,16.79645022952591,0.06183819905453536,389.83041069604354,0.461739867227117,232.3479721082844,-1.2513449192,12.0208272934,-129.801269531,0
29.5,16.837967890935474,-0.26364297045929036,389.7866095974407,0.46431665901001085,232.8633309563609,-1.2513449192,12.0208272934,-129.801269531,0
29.6,16.87948555234504,-0.5891241399731277,389.74280849883786,0.4668934507929047,233.3786898044374,-1.4069692654469643,11.648974545342906,-129.50259583508395,0
29.700000000000003,16.92100321375461,-0.9146053094869648,389.699007400235,0.46947024257579856,233.89404865251393,-2.43384766579,8.08652496338,-127.525398254,0
29.8,16.93455776267386,-0.8745927278633364,389.6882980344647,0.469999998808,234.0,-2.43384766579,8.08652496338,-127.525398254,0
29.900000000000002,16.940875684408756,-0.7399933216824788,389.6861525413133,0.469999998808,234.0,-2.43384766579,8.08652496338,-127.525398254,0
30.0,16.94719360614365,-0.6053939155016259,389.68400704816185,0.469999998808,234.0,-2.1897606974155606,6.989053962695855,-126.85657649983368,0
30.1,16.953511527878543,-0.47079450932076816,389.6818615550104,0.469999998808,234.0,-1.73940181732,4.63279056549,-125.603027344,0
30.200000000000003,16.953300091170302,-0.36406178231051894,389.68329059822304,0.4697251610345753,233.94503239289244,-1.73940181732,4.63279056549,-125.603027344,0
30.3,16.908974565065055,-0.44560378195773476,389.7088701637405,0.4675934458646771,233.51868895230908,-1.73940181732,4.63279056549,-125.603027344,0
30.400000000000002,16.864649038959808,-0.5271457816049535,389.734449729258,0.4654617306947789,233.0923455117257,-1.73940181732,4.63279056549,-125.603027344,0
30.5,16.82032351285456,-0.6086877812521694,389.7600292947755,0.4633300155248808,232.66600207114234,-1.1048494638895225,3.8629068221464724,-125.66833109759718,0
30.6,16.775997986749314,-0.690229780899388,389.785608860293,0.46119830035498255,232.23965863055895,-0.0450681485236,2.34913516045,-125.777412415,0
30.700000000000003,16.73201492057373,-0.6480107290657702,389.82016415687207,0.4588132547456612,232.11867511942688,-0.0450681485236,2.34913516045,-125.777412415,0
30.8,16.68847149101215,-0.44691209773905594,389.8662421446342,0.45610299346301814,232.38970069843074,-0.0450681485236,2.34913516045,-125.777412415,0
30.900000000000002,16.64492806145057,-0.24581346641233454,389.91232013239636,0.453392732180375,232.66072627743463,-0.0450681485236,2.34913516045,-125.777412415,0
31.0,16.60138463188899,-0.04471483508562024,389.9583981201585,0.450682470897732,232.9317518564385,1.34104049206,1.23940229416,-127.461372375,0
31.1,16.563460598914602,0.23107141707897155,389.99865587591546,0.449999988079,233.22041214340743,1.34104049206,1.23940229416,-127.461372375,0
31.200000000000003,16.527427868018158,0.5319950394745815,390.03695473506946,0.449999988079,233.5150076868226,1.34104049206,1.23940229416,-127.461372375,0
31.3,16.491395137121714,0.8329186618701806,390.07525359422345,0.449999988079,233.80960323023777,1.336817920988137,1.3009837414182128,-127.37789627479731,0
31.400000000000002,16.461625223780675,0.934073030854643,390.1132578365431,0.44889563314888054,234.11043559833436,1.28744399548,2.86750030518,-126.404067993,0
31.5,16.443299017408126,0.6701998739493203,390.1507237414944,0.4457733503296478,234.42266417803003,1.28744399548,2.86750030518,-126.404067993,0
31.6,16.424972811035577,0.40632671704398826,390.1881896464458,0.44265106751041505,234.73489275772573,1.28744399548,2.86750030518,-126.404067993,0
31.700000000000003,16.409242840678882,0.20816761525845984,390.2264473390667,0.43962077643905917,235.0,0.720948576927,1.88630235195,-125.62134552,0
31.8,16.408119437285723,0.37971941059108927,390.26915967277034,0.4371080360130416,235.0,0.720948576927,1.88630235195,-125.62134552,0
31.900000000000002,16.406996033892565,0.5512712059237248,390.311872006474,0.4345952955870239,235.0,0.720948576927,1.88630235195,-125.62134552,0
32.0,16.405872630499402,0.7228230012563542,390.35458434017767,0.43208255516100635,235.0,0.5772040003584915,2.578570754273456,-125.15898031937805,0
32.1,16.408753958363594,0.8844638978002574,390.38884035296513,0.43076255615142733,235.1525099451342,0.437343627214,3.33075547218,-124.645515442,0
32.2,16.43102206468647,0.9981264440388702,390.3821595813239,0.43521658094346166,236.04331575310255,0.437343627214,3.33075547218,-124.645515442,0
32.300000000000004,16.453290171009346,1.111788990277483,390.3754788096826,0.43967060573549593,236.93412156107092,0.437343627214,3.33075547218,-124.645515442,0
32.4,16.47555827733222,1.2254515365160876,390.3687980380413,0.44412463052752993,237.82492736903922,-0.724272549152,9.58373355865,-124.419433594,0
32.5,16.497826383655095,1.3391140827547006,390.3621172664,0.4485786553195642,238.71573317700756,-0.724272549152,9.58373355865,-124.419433594,0
32.6,16.551681812597785,1.042017612917983,390.3282720194506,0.45373134546963145,239.1865677694473,-0.724272549152,9.58373355865,-124.419433594,0
32.7,16.62034128228705,0.5524105816705083,390.28169558903994,0.4592114793398591,239.46057431596788,-0.724272549152,9.58373355865,-124.419433594,0
32.800000000000004,16.689000751976316,0.06280355042303354,390.23511915862935,0.46469161321008684,239.73458086248843,-0.724272549152,9.58373355865,-124.419433594,0
32.9,16.75802043356965,-0.41568385752437925,390.1889938961257,0.469999998808,240.02327323848473,-2.46315145493,22.0407428741,-120.834854126,0
33.0,16.838173523715174,-0.5504865961314337,390.1568133050144,0.469999998808,240.76587437660118,-2.46315145493,22.0407428741,-120.834854126,0
33.1,16.918326613860696,-0.6852893347384881,390.12463271390305,0.469999998808,241.50847551471765,-2.46315145493,22.0407428741,-120.834854126,0
33.2,16.99847970400622,-0.8200920733455425,390.09245212279177,0.469999998808,242.2510766528341,-1.776370076429816,23.55470695825324,-120.52220505592265,0
33.300000000000004,17.078632794151737,-0.9548948119525968,390.0602715316805,0.469999998808,242.99367779095053,-0.761903464794,26.4878101349,-119.936485291,0
33.4,17.196244449690326,-0.7055972145670925,389.98434333871825,0.47667544334950435,244.78011847367114,-0.761903464794,26.4878101349,-119.936485291,0
33.5,17.314177750833267,-0.4530014613818526,389.9080394980586,0.48340820795576095,246.5755222973355,-0.761903464794,26.4878101349,-119.936485291,0
33.6,17.432111051976207,-0.20040570819661263,389.83173565739895,0.49014097256201755,248.37092612099988,-0.8718041844012987,26.423109037937735,-119.26208065502905,0
33.7,17.55004435311915,0.05219004498862723,389.7554318167393,0.4968737371682741,250.16632994466426,-1.32790911198,26.1217632294,-116.194908142,0
33.800000000000004,17.686989674068663,0.07431971599934527,389.6790564204167,0.5033198893434787,252.1066308365165,-1.32790911198,26.1217632294,-116.194908142,0
33.9,17.840415389204317,-0.10332801273054779,389.6026189967271,0.5095175941737692,254.1725344167967,-1.32790911198,26.1217632294,-116.194908142,0
34.0,17.99384110433998,-0.28097574146045345,389.52618157303743,0.5157152990040601,256.238437997077,-1.32790911198,26.1217632294,-116.194908142,0
34.1,18.147266819475647,-0.4586234701903591,389.44974414934774,0.5219130038343509,258.3043415773574,-2.49692153931,33.8026351929,-108.265228271,0
34.2,18.30069253461131,-0.6362711989202647,389.3733067256581,0.5281107086646418,260.3702451576378,-2.49692153931,33.8026351929,-108.265228271,0
34.300000000000004,18.4559509255761,-0.998382542183144,389.29723422631014,0.5379152780712153,262.8469029841865,-2.49692153931,33.8026351929,-108.265228271,0
34.4,18.612012949512447,-1.441381645484122,389.22132174720605,0.5493014666880317,265.50367758330793,-2.49692153931,33.8026351929,-108.265228271,0
34.5,18.772094698820208,-1.8340632129846606,389.14564120036204,0.560458174548959,268.13745178056854,-2.49692153931,33.8026351929,-108.265228271,0
34.6,18.994715519903966,-1.4439022496486489,389.0735690662623,0.5680446102798763,270.4133846702872,-2.35665655136,36.6944770813,-98.8204956055,0
34.7,19.217336340987725,-1.0537412863126372,389.00149693216247,0.5756310460107937,272.6893175600058,-2.35665655136,36.6944770813,-98.8204956055,0
34.800000000000004,19.399443226647428,-0.9035405865072074,388.94889085557736,0.579999983311,275.10999219944375,-2.6878415526658355,39.98953524119236,-91.95079086928203,0
34.9,19.526537546655863,-1.0791741857644712,388.9227171103811,0.579999983311,277.72720699045084,-2.70631122589,40.3498649597,-91.569442749,0
35.0,19.65363186666431,-1.2548077850217476,388.8965433651848,0.579999983311,280.3444217814581,-2.70631122589,40.3498649597,-91.569442749,0
35.1,19.78072618667275,-1.4304413842790238,388.8703696199886,0.579999983311,282.96163657246535,-0.141565486789,42.6970787048,-85.08568573,0
35.2,19.903555288297255,-1.3069002537126038,388.8281882721561,0.5813825811314701,285.6591189668659,-0.141565486789,42.6970787048,-85.08568573,0
35.300000000000004,20.023579283068255,-0.9866008309607718,388.77547920174993,0.583674472280609,288.4093909687669,-0.141565486789,42.6970787048,-85.08568573,0
35.4,20.143603277839247,-0.6663014082089624,388.7227701313437,0.5859663634297476,291.15966297066774,-0.141565486789,42.6970787048,-85.08568573,0
35.5,20.26362727261025,-0.34600198545713035,388.6700610609374,0.5882582545788865,293.90993497256875,-0.6197399733631188,42.570334168856775,-75.05945034103371,0
35.6,20.373880594906936,-0.15174832003712957,388.6196016276245,0.5894524415768101,296.60228599130915,-0.637567102909,42.5685462952,-74.482460022,0
35.7,20.453202191816363,-0.35652683610371594,388.5762640333632,0.5871715470538762,299.1112723593567,-0.637567102909,42.5685462952,-74.482460022,0
35.800000000000004,20.53252378872579,-0.5613053521703024,388.53292643910197,0.5848906525309422,301.6202587274043,-0.637567102909,42.5685462952,-74.482460022,0
35.9,20.61184538563521,-0.7660838682368742,388.4895888448407,0.5826097580080085,304.1292450954517,-0.26231124993406424,42.405000701614455,-66.40181286928777,0
36.0,20.691166982544637,-0.9708623843034607,388.44625125057945,0.5803288634850746,306.6382314634993,-0.131065785885,42.3297996521,-63.249080658,0
36.1,20.72161972591113,-0.7271221070557948,388.4599472521296,0.5781865789123632,308.8134061279008,-0.131065785885,42.3297996521,-63.249080658,0
36.2,20.743838924749927,-0.407814281389693,388.4832524140476,0.5760676476846641,310.93233937621466,-0.131065785885,42.3297996521,-63.249080658,0
36.300000000000004,20.766058123588724,-0.08850645572359117,388.5065575759657,0.5739487164569651,313.0512726245285,-0.131065785885,42.3297996521,-63.249080658,0
36.4,20.78827732242752,0.230801369942488,388.5298627378837,0.5718297852292661,315.1702058728422,2.00846791267,38.1975402832,-52.8329048157,0
36.5,20.80783492048319,0.5180291993622989,388.56417294289565,0.5697044759363249,317.2659654732588,2.00846791267,38.1975402832,-52.8329048157,0
36.6,20.81054878787271,0.6022413023179427,388.66812769528633,0.5675388035604639,319.21507247039705,2.00846791267,38.1975402832,-52.8329048157,0
36.7,20.813262655262225,0.6864534052735867,388.77208244767695,0.5653731311846031,321.16417946753523,2.00846791267,38.1975402832,-52.8329048157,0
36.800000000000004,20.81597652265174,0.7706655082292305,388.87603720006757,0.5632074588087421,323.1132864646735,3.0749213748605957,38.77457997804995,-46.645933178774875,0
36.9,20.818690390041258,0.8548776111848684,388.9799919524582,0.5610417864328813,325.0623934618115,3.76970052719,39.2592430115,-42.5456581116,0
37.0,20.83172238959908,0.952292702210126,389.0921431631259,0.5612428888811765,327.24288768251836,3.76970052719,39.2592430115,-42.5456581116,0
37.1,20.854318742882402,1.061946253265889,389.2118920499019,0.5636378643326068,329.637865418039,3.76970052719,39.2592430115,-42.5456581116,0
37.2,20.87691509616572,1.1715998043216518,389.33164093667796,0.5660328397840371,332.0328431535596,3.76970052719,39.2592430115,-42.5456581116,0
37.300000000000004,20.89951144944904,1.2812533553774148,389.451389823454,0.5684278152354674,334.4278208890802,3.85827276738903,40.807526227009156,-34.800058733229626,0
37.4,20.930131404053157,1.2781188946829083,389.5380829673614,0.569999992847,336.8083694932694,3.8730404377,41.1207389832,-33.4951057434,0
37.5,20.976082617137475,1.059472459692114,389.56161418211616,0.569999992847,339.161347342976,3.8730404377,41.1207389832,-33.4951057434,0
37.6,21.022033830221794,0.8408260247013197,389.5851453968709,0.569999992847,341.5143251926826,3.8730404377,41.1207389832,-33.4951057434,0
37.7,21.067985043306116,0.6221795897105256,389.6086766116257,0.569999992847,343.86730304238915,2.2213136292653504,42.99278874367758,-27.989305338614802,0
37.800000000000004,21.113441266794666,0.410888544250451,389.6282957082694,0.5694305349484647,346.19931045456974,0.759306490421,44.8534393311,-23.1195373535,0
37.9,21.154105141773556,0.2708102886286816,389.6100387898221,0.5633477476088745,348.32828805383224,0.759306490421,44.8534393311,-23.1195373535,0
38.0,21.19476901675245,0.13073203300690228,389.59178187137485,0.5572649602692837,350.4572656530949,0.759306490421,44.8534393311,-23.1195373535,0
38.1,21.235432891731342,-0.009346222614877053,389.5735249529276,0.5511821729296931,352.58624325235763,0.5428504901805703,44.51032986203874,-17.67153043399967,0
38.2,21.26758661886392,-0.0406217425514309,389.5565486635868,0.5446274320089328,258.4427851725414,0.409041792154,44.2051353455,-13.7775831223,0
38.300000000000004,21.297687472693607,-0.04565115779004675,389.5398812959417,0.5379588433707789,141.07586299096988,0.409041792154,44.2051353455,-13.7775831223,0
38.400000000000006,21.327788326523297,-0.05068057302866259,389.5232139282966,0.5312902547326251,23.70894080939837,0.409041792154,44.2051353455,-13.7775831223,0
38.5,21.31660658025457,0.3089564645732157,389.5162756806511,0.5281422860597098,2.857687101966313,-0.300790011883,39.7852516174,-6.18427419662,0
38.6,21.29552092405133,0.7560788760726427,389.51167149936737,0.5258389323811565,5.161042977230136,-0.300790011883,39.7852516174,-6.18427419662,0
38.7,21.274435267848094,1.2032012875720695,389.50706731808356,0.5235355787026031,7.464398852493959,-0.300790011883,39.7852516174,-6.18427419662,0
38.800000000000004,21.253349611644854,1.6503236990714965,389.5024631367998,0.5212322250240499,9.767754727757781,-2.50368571281,35.0388870239,1.79663383961,0
38.900000000000006,21.21087720776303,1.4983088035214047,389.50773377823646,0.5174219524238269,11.515606192342453,-2.50368571281,35.0388870239,1.79663383961,0
39.0,21.143800697973536,0.6570241799404826,389.5243647811307,0.5118780645352845,12.624384827437673,-2.50368571281,35.0388870239,1.79663383961,0
39.1,21.07672418818404,-0.18426044364049954,389.540995784025,0.5063341766467419,13.733163462532973,-2.50368571281,35.0388870239,1.79663383961,0
39.2,21.009647678394543,-1.0255450672214814,389.5576267869193,0.5007902887581991,14.841942097628273,-0.932831168175,33.1608161926,11.33751297,0
39.300000000000004,20.93670143642412,-0.6216313661873948,389.60051516549396,0.494211111183871,16.44722142767032,-0.932831168175,33.1608161926,11.33751297,0
39.400000000000006,20.86277934789427,-0.010702683307243221,389.64776884880956,0.4874598160670828,18.135044301434796,-0.932831168175,33.1608161926,11.33751297,0
39.5,20.788857259364427,0.6002259995728652,389.69502253212517,0.48070852095029504,19.822867175199153,-0.23880964092091472,31.42819736100956,12.878692410652274,0
39.6,20.710345791556545,0.8538329728932458,389.79193746754584,0.4731037265366736,20.919501661375325,1.1522179842,26.000377655,15.9598312378,0
39.7,20.63129620561109,1.0655429311241247,389.8946753299623,0.4653988568352608,21.946817580745012,1.1522179842,26.000377655,15.9598312378,0
39.800000000000004,20.55224661966563,1.2772528893550037,389.9974131923788,0.45769398713384796,22.9741335001147,1.3738950290146714,21.898025009063097,18.210825183532318,0
39.900000000000006,20.47322616018525,1.4888137116644808,390.10018571797633,0.4499905340830686,24.000472700247382,1.59011471272,17.3074436188,20.4445915222,0
40.0,20.41482075735222,1.5948194842843992,390.2274920631838,0.44328975447677177,24.335512000089206,1.59011471272,17.3074436188,20.4445915222,0
40.1,20.356415354519193,1.700825256904325,390.3547984083912,0.43658897487047443,24.670551299931052,1.59011471272,17.3074436188,20.4445915222,0
40.2,20.298317735752235,1.8031724566878726,390.48224962108816,0.4299159657678605,25.0,1.6657918174305228,16.334688953113623,21.03276502087826,0
