t_sec,airspeed,climb,altitude,throttle,heading,pitch,roll,yaw,is_boundary
0.0,21.7774925232,-1.88686871529,382.489990234,0.370000004768,88.0,0.280693769455,-30.3599681854,93.9836730957,0
0.1,21.637249760842458,-1.0080253568669753,382.5291314817622,0.39690899293395615,86.53223680234852,1.731305561064744,-24.764884728146463,90.1062284360602,0
0.2,21.49700699848492,-0.1291819984439504,382.5682727295244,0.42381798109991237,85.06447360469703,2.43592262268,-20.6687374115,88.2541275024,0
0.30000000000000004,21.35676423612738,0.7496613599790745,382.60741397728657,0.4507269692658685,83.59671040704555,2.43592262268,-20.6687374115,88.2541275024,0
0.4,21.216521473769838,1.6285047184020993,382.6465552250487,0.47763595743182474,82.12894720939406,2.43592262268,-20.6687374115,88.2541275024,0
0.5,21.096717296939904,1.32175490861927,382.70990033020877,0.5110638521791152,80.44680702652161,2.8349050353483145,-26.69533437890077,82.79511931020903,0
0.6000000000000001,20.978881649460426,0.9008154477882848,382.7755766144818,0.545119611262757,78.74401926082597,2.87380552292,-28.6497535706,82.1713409424,0
0.7000000000000001,20.86104600198095,0.4798759869573004,382.8412528987549,0.5791753703463988,77.04123149513032,2.87380552292,-28.6497535706,82.1713409424,0
0.8,20.74321035450147,0.058936526126315725,382.9069291830279,0.6132311294300405,75.33844372943467,2.87380552292,-28.6497535706,82.1713409424,0
0.9,20.61308720094817,-0.035468080329469666,383.04495419739675,0.5719359259709973,72.83711664750747,3.797582677493387,-30.39087292221935,79.59036216596338,0
1.0,20.479915967679958,-0.048871362362702696,383.20092627891484,0.5119489115744961,70.13770124100614,5.29655408859,-36.2098274231,75.4904708862,0
1.1,20.346744734411747,-0.062274644395935747,383.356898360433,0.45196189717799484,67.43828583450482,5.29655408859,-36.2098274231,75.4904708862,0
1.2000000000000002,20.176269112778314,0.324140306104725,383.5225949648205,0.4352949454059104,64.67443698103014,5.29655408859,-36.2098274231,75.4904708862,0
1.3,19.963248795863784,1.1665376655499973,383.69938213737873,0.4680334106552684,61.837103438822496,5.7148065567,-41.3740730286,66.4296798706,0
1.4000000000000001,19.750228478949253,2.008935024995271,383.8761693099369,0.5007718759046265,58.99976989661485,5.7148065567,-41.3740730286,66.4296798706,0
1.5,19.537208162034723,2.851332384440543,384.0529564824952,0.5335103411539844,56.16243635440721,5.7148065567,-41.3740730286,66.4296798706,0
1.6,19.324187845120193,3.693729743885817,384.2297436550534,0.5662488064033424,53.32510281219957,5.7148065567,-41.3740730286,66.4296798706,0
1.7000000000000002,19.14502955545176,2.7942916056465803,384.4645797023968,0.5859792892593844,50.032416077354895,7.403246324389873,-44.526638408444605,55.63106108645894,0
1.8,18.970253283785492,1.669445979184938,384.7069277398661,0.6040264348301221,46.680802986064506,7.81151676178,-46.2723960876,53.1191558838,0
1.9000000000000001,18.795477012119225,0.5446003527232937,384.94927577733534,0.6220735804008599,43.32918989477412,7.81151676178,-46.2723960876,53.1191558838,0
2.0,18.621195394993368,-0.5668657108473975,385.191814020752,0.639907556292515,39.977816948692464,7.81151676178,-46.2723960876,53.1191558838,0
2.1,18.52035553253158,0.3081426134208547,385.46259229308146,0.6260920596854895,36.66209855353995,9.18598079681,-50.7158508301,40.1191864014,0
2.2,18.419515670069785,1.183150937689107,385.7333705654109,0.6122765630784642,33.34638015838744,9.18598079681,-50.7158508301,40.1191864014,0
2.3000000000000003,18.318675807607995,2.0581592619573588,386.0041488377404,0.5984610664714388,30.030661763234928,9.18598079681,-50.7158508301,40.1191864014,0
2.4000000000000004,18.203178388039337,2.646741980085603,386.27220615534003,0.5873332688083529,26.577755995308156,9.18598079681,-50.7158508301,40.1191864014,0
2.5,18.064518922518715,2.782711551093646,386.5359637879358,0.5804526049609966,22.908065110389597,10.4478693008,-51.0029373169,28.1883525848,0
2.6,17.92585945699809,2.9186811221016904,386.7997214205316,0.5735719411136403,19.23837422547102,10.4478693008,-51.0029373169,28.1883525848,0
2.7,17.787199991477465,3.0546506931097346,387.0634790531274,0.566691277266284,15.568683340552447,10.4478693008,-51.0029373169,28.1883525848,0
2.8000000000000003,17.65021513098389,3.180083864479625,387.32642392403847,0.5602432835061899,14.092216528462757,10.4478693008,-51.0029373169,28.1883525848,0
2.9000000000000004,17.572395505122458,2.93325698246394,387.56065322620236,0.5690818957323877,90.10424089711354,8.96792888641,-52.6304664612,12.0259284973,0
3.0,17.49457587926102,2.6864301004482565,387.7948825283662,0.5779205079585854,166.11626526576399,8.96792888641,-52.6304664612,12.0259284973,0
3.1,17.416756253399587,2.439603218432571,388.0291118305301,0.5867591201847833,242.12828963441476,8.96792888641,-52.6304664612,12.0259284973,0
3.2,17.33893662753815,2.192776336416886,388.26334113269394,0.595597732410981,318.14031400306555,8.96792888641,-52.6304664612,12.0259284973,0
3.3000000000000003,17.288672979059,2.0491978773339214,388.4529864989161,0.589151260674714,354.1261229693398,8.96792888641,-52.6304664612,12.0259284973,0
3.4000000000000004,17.265753936325048,2.0080758609944334,388.59838991596035,0.5675369511609152,350.39274272064733,8.390765401814525,-56.13860683573255,-1.3425729009147425,0
3.5,17.242834893591095,1.9669538446549448,388.7437933330046,0.5459226416471165,346.65936247195486,8.27676868439,-57.0449905396,-3.96027302742,0
3.6,17.21991585085714,1.9258318283154563,388.8891967500488,0.5243083321333176,342.92598222326234,8.27676868439,-57.0449905396,-3.96027302742,0
3.7,17.19699680812319,1.884709811975968,389.0346001670931,0.5026940226195188,339.19260197456987,8.27676868439,-57.0449905396,-3.96027302742,0
3.8000000000000003,17.14508249034481,1.7677739214021764,389.19461310918587,0.4786943131791618,335.19108901402643,8.27676868439,-57.0449905396,-3.96027302742,0
3.9000000000000004,17.051906494372137,1.5429512224940822,389.3754161117351,0.4513000643187259,330.80801024137037,6.67031812668,-53.6996040344,-23.9523658752,0
4.0,16.958730498399465,1.318128523585989,389.5562191142843,0.42390581545829015,326.42493146871425,6.67031812668,-53.6996040344,-23.9523658752,0
4.1000000000000005,16.86555450242679,1.093305824677894,389.73702211683354,0.39651156659785414,322.04185269605813,6.67031812668,-53.6996040344,-23.9523658752,0
4.2,16.7298319047358,1.623757671934551,389.9624035302055,0.3642762021194952,318.42762128004813,6.2975957179524364,-49.29099096511113,-34.00082104531215,0
4.3,16.580842532904978,2.3897173250524184,390.2016852713125,0.33053129316769003,315.0531299094631,6.15247440338,-46.6489868164,-38.5486297607,0
4.4,16.43185316107415,3.1556769781702925,390.4409670124195,0.2967863842158846,311.6786385388781,6.15247440338,-46.6489868164,-38.5486297607,0
4.5,16.239874448289303,3.6546094559036506,390.73382489778027,0.2744815811847973,308.7583557018849,6.15247440338,-46.6489868164,-38.5486297607,0
4.6000000000000005,16.00534277151066,3.8892253024131547,391.07971508572507,0.26350075764551273,306.28767081049114,7.77358865738,-34.1732177734,-49.5877304077,0
4.7,15.770811094732013,4.123841148922657,391.4256052736699,0.25251993410622825,303.81698591909736,7.77358865738,-34.1732177734,-49.5877304077,0
4.800000000000001,15.536279417953367,4.358456995432161,391.7714954616147,0.2415391105669437,301.3463010277036,7.77358865738,-34.1732177734,-49.5877304077,0
4.9,15.26108860462595,4.371258421727518,392.2096790852111,0.23583951349664736,300.4452692034794,8.486026170044873,-29.889904019780374,-52.288832401024436,0
5.0,14.979269845656017,4.347901334962903,392.662907688278,0.23100082211529235,299.8001103782879,10.0226011276,-18.043680191,-58.1604690552,0
5.1000000000000005,14.69745108668608,4.324544248198287,393.11613629134484,0.22616213073393732,299.1549515530964,10.0226011276,-18.043680191,-58.1604690552,0
5.2,14.415632327716144,4.301187161433672,393.56936489441165,0.2213234393525823,298.5097927279049,10.0226011276,-18.043680191,-58.1604690552,0
5.300000000000001,14.133813568746207,4.277830074669057,394.0225934974785,0.21648474797122724,297.86463390271336,10.0226011276,-18.043680191,-58.1604690552,0
5.4,13.851994809776274,4.254472987904442,394.4758221005454,0.21164605658987223,297.21947507752185,10.0226011276,-18.043680191,-58.1604690552,0
5.5,13.622303679427418,4.134971385670438,394.9184636031573,0.21421108691802793,297.2105545607994,10.0226011276,-18.043680191,-58.1604690552,0
5.6000000000000005,13.419488640532066,3.9658993567958603,395.35564658237996,0.22059334636296432,297.5296673618582,11.8681678772,3.80330204964,-62.1154212952,0
5.7,13.216673601636716,3.7968273279212834,395.7928295616026,0.22697560580790066,297.8487801629169,11.8681678772,3.80330204964,-62.1154212952,0
5.800000000000001,13.050221291893166,3.785383297023252,396.1789260759951,0.230000004172,298.1771581706747,11.8681678772,3.80330204964,-62.1154212952,0
5.9,12.916520598703535,3.915913531212353,396.51900942398765,0.230000004172,298.5138812752989,9.70087814331,11.3119649887,-61.7993659973,0
6.0,12.782819905513904,4.046443765401453,396.8590927719802,0.230000004172,298.8506043799231,9.70087814331,11.3119649887,-61.7993659973,0
6.1000000000000005,12.688968741795346,3.8818831947689385,397.13503589136485,0.230000004172,299.61002695807576,8.76966269983032,12.268555346170457,-61.519002100248045,0
6.2,12.626897992891472,3.481984633708277,397.3598265103681,0.230000004172,300.7065567690863,6.24260044098,15.9918737411,-60.7629203796,0
6.300000000000001,12.564827243987597,3.0820860726476123,397.5846171293714,0.230000004172,301.8030865800969,6.24260044098,15.9918737411,-60.7629203796,0
6.4,12.502756495083725,2.6821875115869505,397.8094077483746,0.230000004172,302.89961639110743,6.24260044098,15.9918737411,-60.7629203796,0
6.5,12.480324938764324,2.212331516646748,397.86464644767324,0.230000004172,303.9901785540525,1.6368907850642955,17.13802361454455,-57.48628170329192,0
6.6000000000000005,12.461887901720061,1.7354257737209953,397.9027990670787,0.230000004172,305.0801393453834,0.314220517874,17.5625267029,-56.5528030396,0
6.7,12.443450864675798,1.2585200307952469,397.94095168648425,0.230000004172,306.1701001367143,0.314220517874,17.5625267029,-56.5528030396,0
6.800000000000001,12.445523327216856,0.771384979040837,397.9385038642865,0.2291923779444231,307.0807625794326,0.314220517874,17.5625267029,-56.5528030396,0
6.9,12.513045186673672,0.2516064153901292,397.8064929385916,0.2258074753036232,307.4192526619296,-5.23874282837,16.8492469788,-52.3375205994,0
7.0,12.580567046130486,-0.2681721482605788,397.6744820128967,0.22242257266282325,307.7577427444266,-5.23874282837,16.8492469788,-52.3375205994,0
7.1000000000000005,12.648088905587302,-0.7879507119112912,397.5424710872018,0.2190376700220233,308.0962328269236,-5.23874282837,16.8492469788,-52.3375205994,0
7.2,12.715610765044119,-1.307729275561999,397.41046016150693,0.21565276738122338,308.43472290942054,-5.23874282837,16.8492469788,-52.3375205994,0
7.300000000000001,12.783132624500935,-1.8275078392127118,397.27844923581205,0.21226786474042342,308.77321299191755,-5.23874282837,16.8492469788,-52.3375205994,0
7.4,12.84866666560364,-2.1405203591901705,397.14107439932616,0.20839583742177292,308.7593765466099,-5.23874282837,16.8492469788,-52.3375205994,0
7.5,12.9101649057268,-2.033742710781722,396.99280939454087,0.2035348171964198,308.0302233606691,-6.062836265655934,14.305232477530252,-50.62043212150758,0
7.6000000000000005,12.971663145849963,-1.9269650623732726,396.84454438975564,0.19867379697106663,307.3010701747283,-6.08452653885,14.1219854355,-50.5779190063,0
7.7,13.033161385973125,-1.820187413964824,396.69627938497035,0.19381277674571348,306.5719169887875,-6.08452653885,14.1219854355,-50.5779190063,0
7.800000000000001,13.093444509327,-1.7822873949854217,396.54418945305434,0.18864062800179013,306.0906246373465,-6.08452653885,14.1219854355,-50.5779190063,0
7.9,13.149307874786084,-1.9949167523905091,396.378187070656,0.18233680799712582,306.510879287626,-5.740030865773083,8.659410924189352,-52.946177496404566,0
8.0,13.205171240245168,-2.2075461097955964,396.2121846882576,0.17603298799246153,306.9311339379055,-5.70782279968,7.83621263504,-53.1639289856,0
8.1,13.261034605704252,-2.420175467200684,396.0461823058592,0.16972916798779722,307.351388588185,-5.70782279968,7.83621263504,-53.1639289856,0
8.200000000000001,13.316897971163336,-2.6328048246057754,395.8801799234608,0.16342534798313282,307.77164323846455,-5.70782279968,7.83621263504,-53.1639289856,0
8.3,13.35580605207498,-2.6991817248016696,395.7407433522364,0.15704591582080632,308.19693869905456,-5.70782279968,7.83621263504,-53.1639289856,0
8.4,13.374537496883393,-2.5915195164201505,395.6329198573567,0.15057650587097282,308.62823267857334,-5.6086769104,2.86079287529,-51.9358825684,0
8.5,13.393268941691808,-2.4838573080386315,395.525096362477,0.14410709592113935,309.0595266580922,-5.6086769104,2.86079287529,-51.9358825684,0
8.6,13.412000386500223,-2.376195099657113,395.41727286759726,0.13763768597130585,309.490820637611,-5.6086769104,2.86079287529,-51.9358825684,0
8.700000000000001,13.430731831308638,-2.2685328912755915,395.30944937271755,0.13116827602147227,309.9221146171298,-5.6086769104,2.86079287529,-51.9358825684,0
8.8,13.407517030774285,-1.9743378845701407,395.22023141840697,0.1257727569161393,310.42272391976627,-5.013205341647548,0.9408894537880155,-49.99891090000623,0
8.9,13.375057974697004,-1.6390341483287545,395.13511381610954,0.1206139055103978,310.9386091679541,-4.83985090256,-0.238789334893,-49.4660415649,0
9.0,13.342598918619723,-1.3037304120873683,395.0499962138121,0.11545505410465633,311.4544944161419,-4.83985090256,-0.238789334893,-49.4660415649,0
9.1,13.310139862542442,-0.9684266758459821,394.9648786115147,0.11029620269891484,311.9703796643297,-4.83985090256,-0.238789334893,-49.4660415649,0
9.200000000000001,13.245769614849705,-0.8768409383585185,394.9541948730801,0.11193227161772099,312.0,-3.1950848216079812,-1.1898217277778842,-48.43251829492503,0
9.3,13.179455529172863,-0.800101036435475,394.9480451982313,0.11398224624036235,312.0,-2.26178693771,-1.98725700378,-47.852596283,0
9.4,13.113141443496021,-0.7233611345124316,394.9418955233824,0.1160322208630037,312.0,-2.26178693771,-1.98725700378,-47.852596283,0
9.5,13.04682735781918,-0.6466212325893881,394.93574584853354,0.11808219548564505,312.0,-2.26178693771,-1.98725700378,-47.852596283,0
9.600000000000001,12.980095831284453,-0.5547968874807694,394.93287288780004,0.12044309025507588,311.9778453567774,-2.26178693771,-1.98725700378,-47.852596283,0
9.700000000000001,12.90730731797951,-0.2441001653976544,394.97754442030816,0.12731537671062101,311.63423109031845,-0.299389183521,0.491807878017,-47.7364463806,0
9.8,12.83451880467457,0.0665965566854606,395.0222159528163,0.13418766316616618,311.2906168238596,-0.299389183521,0.491807878017,-47.7364463806,0
9.9,12.763548994484013,0.33470427871958125,395.06523774900745,0.14104808128903012,311.0,-0.299389183521,0.491807878017,-47.7364463806,0
10.0,12.70255222632574,0.36927092181564103,395.0992130496485,0.14784341821213895,311.0,-1.57252168655,1.1833409071,-48.1239585876,0
10.100000000000001,12.641555458167465,0.4038375649117014,395.1331883502896,0.15463875513524789,311.0,-1.57252168655,1.1833409071,-48.1239585876,0
10.200000000000001,12.580558690009191,0.4384042080077612,395.1671636509306,0.16143409205835668,311.0,-1.57252168655,1.1833409071,-48.1239585876,0
10.3,12.519561921850919,0.472970851103821,395.20113895157164,0.1682294289814655,311.0,-1.57252168655,1.1833409071,-48.1239585876,0
10.4,12.465400145995265,0.39537266720750674,395.1888222511785,0.17564535135745168,310.85886623131967,-2.7677316394426157,1.2521811070352706,-48.356390590410406,0
10.5,12.413646811854115,0.2782510374508641,395.1601936690155,0.18327994901878533,310.6680012499671,-3.25351667404,1.29315674305,-48.4557876587,0
10.600000000000001,12.361893477712965,0.1611294076942193,395.1315650868524,0.19091454668011912,310.4771362686146,-3.25351667404,1.29315674305,-48.4557876587,0
10.700000000000001,12.310140143571815,0.04400777793757665,395.10293650468935,0.19854914434145277,310.286271287262,-3.25351667404,1.29315674305,-48.4557876587,0
10.8,12.258386809430664,-0.07311385181906599,395.0743079225263,0.20618374200278639,310.0954063059095,-3.25351667404,1.29315674305,-48.4557876587,0
10.9,12.210599202143197,-0.2347472200021895,395.01278130970104,0.21102645326344413,310.10264592697484,-3.25351667404,1.29315674305,-48.4557876587,0
11.0,12.166775146074094,-0.4408679070504525,394.91837471438464,0.21307880977875165,310.3078814683968,-2.14207220078,2.54577827454,-49.0620803833,0
11.100000000000001,12.122951090004992,-0.646988594098719,394.8239681190683,0.21513116629405923,310.51311700981864,-2.14207220078,2.54577827454,-49.0620803833,0
11.200000000000001,12.07912703393589,-0.853109281146982,394.7295615237519,0.21718352280936679,310.7183525512405,-2.14207220078,2.54577827454,-49.0620803833,0
11.3,12.035302977866788,-1.059229968195245,394.63515492843555,0.21923587932467434,310.92358809266244,-2.14207220078,2.54577827454,-49.0620803833,0
11.4,12.003427973639212,-1.1564534198603316,394.53051696015837,0.22283616968699066,311.0,-2.14207220078,2.54577827454,-49.0620803833,0
11.5,11.978640565166693,-1.1890843336843253,394.4198102396048,0.2273546190387121,311.0,-1.29741764069,3.33642220497,-48.6291122437,0
11.600000000000001,11.953853156694173,-1.2217152475083197,394.3091035190511,0.2318730683904336,311.0,-1.29741764069,3.33642220497,-48.6291122437,0
11.700000000000001,11.929065748221653,-1.2543461613323135,394.19839679849747,0.236391517742155,311.0,-1.29741764069,3.33642220497,-48.6291122437,0
11.8,11.90735115223355,-1.282759007903643,394.08999805786766,0.24088835478069895,311.0444180165028,-1.29741764069,3.33642220497,-48.6291122437,0
11.9,11.897821730371497,-1.2944451963369414,393.99075156372015,0.24529948863993406,311.2649747554837,-0.329165160656,4.47596120834,-48.1202354431,0
12.0,11.888292308509444,-1.3061313847702398,393.8915050695726,0.24971062249916917,311.4855314944646,-0.329165160656,4.47596120834,-48.1202354431,0
12.100000000000001,11.878762886647392,-1.3178175732035382,393.7922585754251,0.2541217563584044,311.70608823344554,-0.329165160656,4.47596120834,-48.1202354431,0
12.200000000000001,11.869233464785339,-1.3295037616368366,393.6930120812776,0.2585328902176395,311.92664497242646,-0.329165160656,4.47596120834,-48.1202354431,0
12.3,11.853183126891524,-1.2540788090643287,393.6050117404809,0.26166632940822676,312.0,-0.329165160656,4.47596120834,-48.1202354431,0
12.4,11.833883220967955,-1.135243762347192,393.5226156951864,0.2641630550256283,312.0,0.280292719603,1.47436308861,-47.5763816833,0
12.5,11.814583315044386,-1.0164087156300552,393.4402196498919,0.26665978064302986,312.0,0.280292719603,1.47436308861,-47.5763816833,0
12.600000000000001,11.795283409120815,-0.8975736689129161,393.35782360459734,0.2691565062604314,312.0,0.280292719603,1.47436308861,-47.5763816833,0
12.700000000000001,11.784331726340744,-0.8769070797776041,393.24058845639297,0.27576767531248375,312.0,-0.14476703333401875,1.2177748464801292,-47.46712786479455,0
12.8,11.77763946374237,-0.906327880766235,393.1055777437965,0.28447811065159656,312.0,-0.866817474365,0.604961156845,-47.2660675049,0
12.9,11.770947201143995,-0.9357486817548661,392.97056703120006,0.2931885459907094,312.0,-0.866817474365,0.604961156845,-47.2660675049,0
13.0,11.764254938545621,-0.9651694827434971,392.8355563186036,0.30189898132982224,312.0,-0.866817474365,0.604961156845,-47.2660675049,0
13.100000000000001,11.759384487862022,-1.005499139219712,392.69593379213273,0.310379944436277,312.0,-0.866817474365,0.604961156845,-47.2660675049,0
13.200000000000001,11.778731613042947,-1.1908415894004412,392.495005841391,0.3158105041733537,312.0,-1.5884949978706138,1.1632644794641802,-47.164101133120134,0
13.3,11.798078738223872,-1.3761840395811702,392.29407789064925,0.32124106391043045,312.0,-1.72902977467,1.30806612968,-47.1444320679,0
13.4,11.817425863404795,-1.5615264897618992,392.09314993990756,0.3266716236475072,312.0,-1.72902977467,1.30806612968,-47.1444320679,0
13.5,11.837935554921545,-1.757126501459608,391.90894842775083,0.330000013113,311.91278324486535,-1.72902977467,1.30806612968,-47.1444320679,0
13.600000000000001,11.860285950589335,-1.968967423875287,391.75123007099506,0.330000013113,311.6874752356926,-0.690909326077,1.45904898643,-47.5927429199,0
13.700000000000001,11.882636346257122,-2.1808083462909624,391.59351171423924,0.330000013113,311.4621672265199,-0.690909326077,1.45904898643,-47.5927429199,0
13.8,11.90498674192491,-2.392649268706638,391.4357933574835,0.330000013113,311.23685921734716,-0.690909326077,1.45904898643,-47.5927429199,0
13.9,11.9273371375927,-2.6044901911223133,391.27807500072765,0.330000013113,311.0115512081744,-0.690909326077,1.45904898643,-47.5927429199,0
14.0,11.9277030107645,-2.234902776068421,391.1838164575392,0.330000013113,310.74654857470614,0.3195269888848925,2.491776028553332,-48.45592360868913,0
14.100000000000001,11.926880861872062,-1.8338955431034245,391.0929872205239,0.330000013113,310.4794008826175,1.04580426216,3.43968057632,-49.0761299133,0
14.200000000000001,11.926058712979625,-1.4328883101384349,391.0021579835086,0.330000013113,310.2122531905289,1.04580426216,3.43968057632,-49.0761299133,0
14.3,11.91465687693501,-1.0996529138280853,390.9233836567537,0.3305083796289923,310.0,1.04580426216,3.43968057632,-49.0761299133,0
14.4,11.862347986649258,-1.0284617687489799,390.89122043114,0.33298237862021335,310.0,3.1914434433,2.50616812706,-49.6528930664,0
14.5,11.810039096363504,-0.9572706236698743,390.8590572055264,0.3354563776114343,310.0,3.1914434433,2.50616812706,-49.6528930664,0
14.600000000000001,11.757730206077749,-0.8860794785907675,390.82689397991277,0.3379303766026554,310.0,3.1914434433,2.50616812706,-49.6528930664,0
14.700000000000001,11.70082807868544,-0.7867602142222703,390.80463074381544,0.34038693151973504,310.0,3.1914434433,2.50616812706,-49.6528930664,0
14.8,11.620417184636592,-0.5434776887544925,390.8330369023176,0.34275420546589674,310.0,5.62208175659,0.530055701733,-49.1033172607,0
14.9,11.540006290587744,-0.3001951632867147,390.8614430608198,0.3451214794120584,310.0,5.62208175659,0.530055701733,-49.1033172607,0
15.0,11.459595396538894,-0.05691263781893696,390.88984921932195,0.3474887533582201,310.0,5.62208175659,0.530055701733,-49.1033172607,0
15.100000000000001,11.379184502490045,0.186369887648845,390.91825537782415,0.34985602730438187,310.0,5.62208175659,0.530055701733,-49.1033172607,0
15.200000000000001,11.308954190630791,0.35294098567280174,390.9874474817263,0.352698582377731,309.7301417130947,6.62307567569822,-0.9207672071580516,-49.4859798345294,0
15.3,11.239383106240227,0.5145447567608681,391.05928061489806,0.35557191352739453,309.4428091804077,6.65249729156,-1.0478823185,-49.4965019226,0
15.4,11.169812021849662,0.6761485278489344,391.1311137480698,0.3584452446770581,309.1554766477208,6.65249729156,-1.0478823185,-49.4965019226,0
15.5,11.109648024720146,0.8704241697912793,391.1933699917778,0.3638973553566693,308.8700885077188,6.65249729156,-1.0478823185,-49.4965019226,0
15.600000000000001,11.060576307563865,1.103224546192699,391.244333734815,0.37239021007762496,308.5869930803749,6.55565547943,-0.913176655769,-50.8393669128,0
15.700000000000001,11.011504590407588,1.3360249225941143,391.2952974778522,0.38088306479858053,308.3038976530311,6.55565547943,-0.913176655769,-50.8393669128,0
15.8,10.96243287325131,1.5688252989955298,391.34626122088946,0.38937591951953604,308.0208022256872,6.55565547943,-0.913176655769,-50.8393669128,0
15.9,10.957754978755037,1.2325720949271988,391.3471531294322,0.4014007560958774,308.28501910712345,5.359585260542854,0.15197802672558658,-50.97529690773517,0
16.0,10.95659791633622,0.8511877897313264,391.3440738881503,0.4137057108118225,308.5926428099973,4.72681188583,0.830263614655,-51.0471572876,0
16.1,10.955440853917402,0.4698034845354473,391.3409946468685,0.42601066552776784,308.9002665128712,4.72681188583,0.830263614655,-51.0471572876,0
16.2,10.976864942968515,-0.013977145643270128,391.3083235347023,0.43243628280361224,309.0,4.229558496808662,1.4488919001293126,-50.83533337863093,0
16.3,11.0091221391546,-0.546881504531934,391.2614559849433,0.43604134008914475,309.0,3.80490541458,2.17160129547,-50.6558799744,0
16.400000000000002,11.041379335340686,-1.0797858634205977,391.21458843518434,0.43964639737467726,309.0,3.80490541458,2.17160129547,-50.6558799744,0
16.5,11.098934925599366,-0.9809982499327925,391.1515263603451,0.439999997616,309.0,3.5102319676129574,2.765546173761013,-50.50635940721357,0
16.6,11.159241749574965,-0.8135133014235258,391.0867031095472,0.439999997616,309.0,3.13397264481,3.69608569145,-50.3174095154,0
16.7,11.219548573550565,-0.6460283529142652,391.0218798587494,0.439999997616,309.0,3.13397264481,3.69608569145,-50.3174095154,0
16.8,11.274489633890994,-0.5079515935847924,390.95690250657606,0.4390383776394834,308.9038379106386,3.13397264481,3.69608569145,-50.3174095154,0
16.900000000000002,11.319623348890335,-0.42362604037474894,390.89164349357867,0.4363191440523395,308.63191429259064,2.76115870476,4.89116716385,-51.0066566467,0
17.0,11.364757063889675,-0.3393004871647085,390.8263844805813,0.4335999104651957,308.3599906745427,2.76115870476,4.89116716385,-51.0066566467,0
17.1,11.409890778889018,-0.25497493395466514,390.76112546758395,0.4308806768780518,308.0880670564947,2.76115870476,4.89116716385,-51.0066566467,0
17.2,11.44805748948508,-0.5400410415570006,390.7017712940881,0.42775200721318074,308.2247995384032,3.0044613483347864,4.439367775713867,-51.07901606003306,0
17.3,11.482887013933425,-1.0020452795509227,390.6452455311182,0.42442721819372364,308.5572777665485,3.37495994568,3.31900787354,-51.1881141663,0
17.400000000000002,11.51771653838177,-1.4640495175448447,390.5887197681483,0.4211024291742666,308.8897559946938,3.37495994568,3.31900787354,-51.1881141663,0
17.5,11.550324375640926,-1.335927372013704,390.53928682026145,0.42153462983030343,309.0,3.3538188704814402,3.248693533958734,-51.05029114321702,0
17.6,11.581830097793128,-0.9150605028054771,390.4933724139101,0.42383056499324423,309.0,3.2520365715,2.48539090157,-50.3929634094,0
17.7,11.613335819945329,-0.4941936335972654,390.4474580075587,0.4261265001561849,309.0,3.2520365715,2.48539090157,-50.3929634094,0
17.8,11.64484154209753,-0.07332676438903851,390.40154360120727,0.4284224353191257,309.0,3.2520365715,2.48539090157,-50.3929634094,0
17.900000000000002,11.67908672582287,0.13511472997153662,390.3541324019187,0.430000007153,309.0,3.2520365715,2.48539090157,-50.3929634094,0
18.0,11.719347942442557,-0.12294349050624945,390.3034341495704,0.430000007153,309.0,2.48766207695,2.51470017433,-50.6319541931,0
18.1,11.759609159062245,-0.3810017109840447,390.2527358972221,0.430000007153,309.0,2.48766207695,2.51470017433,-50.6319541931,0
18.2,11.799870375681932,-0.6390599314618307,390.2020376448738,0.430000007153,309.0,2.48766207695,2.51470017433,-50.6319541931,0
18.3,11.83321038864707,-0.8011601075934237,390.16492452084316,0.42934386559239684,309.0328070604308,2.48766207695,2.51470017433,-50.6319541931,0
18.400000000000002,11.832972757618162,-0.49772781101660507,390.1937185171673,0.42550450781229354,309.22477484645486,3.85904455185,2.26167058945,-50.721912384,0
18.5,11.832735126589254,-0.1942955144397972,390.22251251349155,0.42166515003219035,309.4167426324789,3.85904455185,2.26167058945,-50.721912384,0
18.6,11.832497495560345,0.10913678213702149,390.2513065098158,0.41782579225208705,309.60871041850294,3.85904455185,2.26167058945,-50.721912384,0
18.7,11.832259864531437,0.4125690787138293,390.28010050614,0.41398643447198386,309.800678204527,3.85904455185,2.26167058945,-50.721912384,0
18.8,11.83202223350253,0.7160013752906481,390.30889450246417,0.41014707669188055,309.992645990551,3.85904455185,2.26167058945,-50.721912384,0
18.900000000000002,11.808514881359732,0.7565376512647087,390.3675132547852,0.4144246362429039,310.0,5.03483441315907,3.015428336332792,-50.082002766406795,0
19.0,11.784080590002967,0.7866015786661088,390.4273200632821,0.41902552966346274,310.0,5.55755519867,3.45600390434,-49.7766265869,0
19.1,11.759646298646201,0.8166655060675099,390.48712687177897,0.4236264230840217,310.0,5.55755519867,3.45600390434,-49.7766265869,0
19.200000000000003,11.735212007289435,0.8467294334689109,390.54693368027586,0.42822731650458074,310.0,5.55755519867,3.45600390434,-49.7766265869,0
19.3,11.717985966470744,0.7774062343821913,390.61326205057736,0.4311098424506794,310.3329509068391,5.55755519867,3.458021699214302,-49.7766265869,0
19.400000000000002,11.705277988658771,0.6457881279308606,390.6836780739065,0.4329153119768741,310.8745922812609,5.76464700699,4.40676355362,-49.2082443237,0
19.5,11.6925700108468,0.5141700214795348,390.7540940972356,0.4347207815030687,311.4162336556827,5.76464700699,4.40676355362,-49.2082443237,0
19.6,11.679862033034828,0.3825519150282042,390.82451012056475,0.4365262510292634,311.95787503010445,5.76464700699,4.40676355362,-49.2082443237,0
19.700000000000003,11.667154055222856,0.25093380857687364,390.8949261438939,0.4383317205554581,312.4995164045262,5.76464700699,4.40676355362,-49.2082443237,0
19.8,11.655910010568945,0.14151583163374906,390.96350616904596,0.44023432119610695,313.0468647607163,5.76464700699,4.40676355362,-49.2082443237,0
19.900000000000002,11.662467571084374,0.30205412833433387,391.0097602331666,0.443318047996549,313.66361070899535,5.68422698975,6.99698114395,-46.8260383606,0
20.0,11.6690251315998,0.462592425034913,391.0560142972873,0.44640177479699095,314.28035665727435,5.68422698975,6.99698114395,-46.8260383606,0
20.1,11.675582692115231,0.6231307217354978,391.10226836140794,0.449485501597433,314.89710260555336,5.68422698975,6.99698114395,-46.8260383606,0
20.200000000000003,11.697418741010186,0.8683032082863813,391.1174342914669,0.449999988079,315.2483080883694,5.061207643759352,8.554796335883179,-45.9062842362857,0
20.3,11.722314284056893,1.1304235631376476,391.12637486977724,0.449999988079,315.54633949525885,4.26889801025,11.751206398,-44.7164039612,0
20.400000000000002,11.7472098271036,1.3925439179889234,391.13531544808757,0.449999988079,315.8443709021482,4.26889801025,11.751206398,-44.7164039612,0
20.5,11.776763061371645,1.192354513275073,391.1331518450053,0.45113875104784545,316.11387606610333,4.252105144931144,11.751206398,-44.6690890328295,0
20.6,11.811406608344223,0.48691451750407166,391.11885266810964,0.4535220489874092,316.3522053770615,3.99949836731,12.0034103394,-43.9857559204,0
20.700000000000003,11.846050155316801,-0.21852547826692992,391.104553491214,0.455905346926973,316.5905346880197,3.99949836731,12.0034103394,-43.9857559204,0
20.8,11.880693702289378,-0.9239654740379064,391.0902543143184,0.4582886448665367,316.8288639989779,3.99949836731,12.0034103394,-43.9857559204,0
20.900000000000002,11.915455440628413,-1.3083345310909322,391.073350301104,0.460000008345,317.2489019367894,3.99949836731,12.0034103394,-43.9857559204,0
21.0,11.95051820295079,-0.8749615160705495,391.04981197754955,0.460000008345,318.1317372539901,4.458712074509294,13.668987655146774,-42.966387434188604,0
21.1,11.985580965273165,-0.44158850105015135,391.0262736539951,0.460000008345,319.01457257119074,4.46265506744,13.7808666229,-42.9583511353,0
21.200000000000003,12.020643727595541,-0.008215486029753194,391.0027353304406,0.460000008345,319.8974078883914,4.46265506744,13.7808666229,-42.9583511353,0
21.3,12.085520632863036,-0.031825821389008774,390.95942775613247,0.46881963693379547,321.2347484440268,4.319818043949029,15.329617702882235,-41.62316064179418,0
21.400000000000002,12.15431772078463,-0.11552368657155301,390.9135207754275,0.4787989351154098,322.63185068911247,4.08929204941,18.6070270538,-39.2823219299,0
21.5,12.223114808706223,-0.1992215517540943,390.8676137947225,0.4887782332970237,324.02895293419806,4.08929204941,18.6070270538,-39.2823219299,0
21.6,12.291911896627818,-0.2829194169366386,390.8217068140175,0.49875753147863794,325.4260551792837,4.08929204941,18.6070270538,-39.2823219299,0
21.700000000000003,12.360708984549412,-0.3666172821191828,390.7757998333125,0.5087368296602522,326.8231574243693,4.08929204941,18.6070270538,-39.2823219299,0
21.8,12.513994973676365,-0.7945797092006723,390.65529936576894,0.5175208077665817,329.2562439807124,3.128635480062334,24.8702445718538,-35.63126290495544,0
21.900000000000002,12.679525270531723,-1.272433674410101,390.5239886545797,0.5261315575952689,331.83946754354827,2.15582919121,34.31199646,-31.9861793518,0
22.0,12.845055567387075,-1.750287639619513,390.3926779433904,0.5347423074239558,334.4226911063841,2.15582919121,34.31199646,-31.9861793518,0
22.1,13.010585864242433,-2.2281416048289415,390.26136723220117,0.543353057252643,337.00591466922,2.15582919121,34.31199646,-31.9861793518,0
22.200000000000003,13.187980043626744,-2.5805730102318547,390.1236071476926,0.5494800712795068,339.67592347856936,2.15582919121,34.31199646,-31.9861793518,0
22.3,13.405530493356174,-2.5084804702335473,389.9640175501275,0.5472002618166338,342.63967860683744,0.8279725457141749,40.1145408658218,-21.041627623769916,0
22.400000000000002,13.623080943085613,-2.436387930235237,389.8044279525624,0.5449204523537609,345.6034337351056,0.797333538532,40.691444397,-20.8165531158,0
22.5,13.840631392815045,-2.36429539023693,389.64483835499726,0.542640642890888,348.56718886337364,0.797333538532,40.691444397,-20.8165531158,0
22.6,14.058181842544482,-2.29220285023862,389.48524875743215,0.5403608334280149,351.53094399164183,0.797333538532,40.691444397,-20.8165531158,0
22.700000000000003,14.285164129061494,-2.0305491091632204,389.32655378073986,0.5349646157187623,264.1323479184941,0.5922931033264762,42.190589566787885,-15.000165824504865,0
22.8,14.513919799663077,-1.7332538674326328,389.1680270116251,0.5289824475833464,159.7437255042485,0.325044214725,45.2386169434,-7.40769767761,0
22.900000000000002,14.742675470264668,-1.4359586257020345,389.00950024251034,0.5230002794479303,55.355103089999204,0.325044214725,45.2386169434,-7.40769767761,0
23.0,14.962130080228729,-1.0671711788434786,388.87025724298604,0.5169101485620752,4.7509066765720585,0.325044214725,45.2386169434,-7.40769767761,0
23.1,15.172226146030344,-0.6264496821990032,388.7504171929063,0.5107113876815063,8.2635411921102,1.55267453194,45.4340019226,3.77220129967,0
23.200000000000003,15.382322211831958,-0.18572818555452808,388.63057714282655,0.5045126268009374,11.776175707648338,1.55267453194,45.4340019226,3.77220129967,0
23.3,15.592418277633566,0.2549933110899316,388.5107370927468,0.4983138659203688,15.288810223186355,1.55267453194,45.4340019226,3.77220129967,0
23.400000000000002,15.80251434343518,0.6957148077344069,388.390897042667,0.49211510503979994,18.801444738724495,1.55267453194,45.4340019226,3.77220129967,0
23.5,15.983982136952582,0.6041848686046027,388.300172135644,0.4884427305169183,22.18018620974908,1.8308347820640436,45.42520570248779,11.202350197557351,0
23.6,16.150622190104457,0.23698037878961709,388.22452713905585,0.48607887369300584,25.489579056410918,2.18566346169,45.4094848633,20.5468063354,0
23.700000000000003,16.317262243256337,-0.13022411102536868,388.14888214246764,0.48371501686909346,28.798971903072754,2.18566346169,45.4094848633,20.5468063354,0
23.8,16.483902296408207,-0.49742860084034146,388.0732371458795,0.4813511600451811,32.10836474973448,2.18566346169,45.4094848633,20.5468063354,0
23.900000000000002,16.627023465017132,-0.6289764068532958,388.0287484175888,0.4787508488379512,35.24914162435514,2.18566346169,45.4094848633,20.5468063354,0
24.0,16.738764691694193,-0.44610058278049014,388.02582976836396,0.4758350496744587,38.16494356864797,4.655585570134378,44.893050423054085,30.84977034768039,0
24.1,16.850505918371255,-0.2632247587076779,388.02291111913905,0.47291925051096606,41.08074551294091,5.52165174484,44.6696128845,34.4803771973,0
24.200000000000003,16.96224714504832,-0.08034893463486581,388.01999246991414,0.47000345134747346,43.99654745723384,5.52165174484,44.6696128845,34.4803771973,0
24.3,17.026823824410926,0.14752004875319963,388.06314429568016,0.469999998808,47.299849145695404,6.28492212296,41.433331196010144,44.6452636719,0
24.400000000000002,17.09134459097112,0.375442370798592,388.1063507372437,0.469999998808,50.60361020879048,6.28492212296,41.3701324463,44.6452636719,0
24.5,17.155865357531308,0.6033646928439763,388.14955717880724,0.469999998808,53.90737127188543,6.28492212296,41.3701324463,44.6452636719,0
24.6,17.216409636424924,0.8158585186792089,388.19527563892177,0.469999998808,57.17102489190536,6.28492212296,41.3701324463,44.6452636719,0
24.700000000000003,17.218707034300593,0.8023584880283996,388.2777896980478,0.469999998808,59.84719185017427,5.84285736084,36.3497428894,57.561870575,0
24.8,17.22100443217626,0.7888584573775907,388.3603037571738,0.469999998808,62.523358808443085,5.84285736084,36.3497428894,57.561870575,0
24.900000000000002,17.22330183005193,0.7753584267267813,388.4428178162999,0.469999998808,65.199525766712,5.84285736084,36.3497428894,57.561870575,0
25.0,17.225599227927596,0.7618583960759725,388.52533187542593,0.469999998808,67.87569272498081,5.84285736084,36.3497428894,57.561870575,0
25.1,17.177962632150305,0.7861543214743394,388.65566830247764,0.4679644582994788,70.22132546989079,5.84285736084,36.3497428894,57.561870575,0
25.200000000000003,17.094149342731985,0.8378330501061844,388.82065157083065,0.4644541884536157,72.32748938605721,8.1448431015,25.8886032104,69.8864364624,0
25.3,17.010336053313665,0.8895117787380274,388.98563483918366,0.4609439186077527,74.43365330222353,8.1448431015,25.8886032104,69.8864364624,0
25.400000000000002,16.855477751816935,1.0960647295616217,389.2340564077965,0.45686062904679386,75.6278755228174,8.53735554429471,25.46641465504086,70.88912718111385,0
25.5,16.67448900606776,1.3595806129082684,389.5131666875472,0.4525665821183182,76.48668444780449,10.3042955399,19.7538223267,75.1885375977,0
25.6,16.49350026031858,1.6230964962549244,389.7922769672979,0.44827253518984234,77.34549337279161,10.3042955399,19.7538223267,75.1885375977,0
25.700000000000003,16.3125115145694,1.8866123796015803,390.07138724704856,0.4439784882613665,78.20430229777872,10.3042955399,19.7538223267,75.1885375977,0
25.8,16.130596591570743,2.1859260755111958,390.3543110200058,0.4402211275235443,79.04422602368722,10.3042955399,19.7538223267,75.1885375977,0
25.900000000000002,15.93700455193628,2.9365737173118145,390.68531479599466,0.4432302331922032,79.64604773137637,13.1443090439,9.69362163544,79.7940216064,0
26.0,15.743412512301822,3.6872213591124066,391.01631857198356,0.44623933886086203,80.2478694390655,13.1443090439,9.69362163544,79.7940216064,0
26.1,15.549820472667358,4.437869000913025,391.3473223479724,0.44924844452952095,80.84969114675464,13.1443090439,9.69362163544,79.7940216064,0
26.200000000000003,15.384373830584174,4.275154728304535,391.66094194724343,0.4568940187143636,80.82764932657344,13.349244430394805,9.361823485023304,79.92247015474099,0
26.3,15.228296805309093,3.808381821259293,391.96877434546053,0.46608307556845197,80.5979230284579,15.0823507309,3.27128696442,81.0065078735,0
26.400000000000002,15.072219780034006,3.341608914214035,392.27660674367763,0.4752721324225406,80.36819673034235,15.0823507309,3.27128696442,81.0065078735,0
26.5,14.916142754758924,2.8748360071687937,392.5844391418948,0.484461189276629,80.13847043222681,15.0823507309,3.27128696442,81.0065078735,0
26.6,14.777408308286946,2.4933134139585102,392.865731822487,0.4870691399755671,79.70691305550203,15.0823507309,3.27128696442,81.0065078735,0
26.700000000000003,14.664989259290035,2.2411485084895646,393.1067534899789,0.4796910080817944,78.96909989544054,14.0895853043,-1.53257596493,79.9955673218,0
26.8,14.552570210293132,1.9889836030206278,393.3477751574708,0.4723128761880219,78.23128673537907,14.0895853043,-1.53257596493,79.9955673218,0
26.900000000000002,14.440151161296221,1.7368186975516822,393.5887968249627,0.46493474429424925,77.49347357531758,14.0895853043,-1.53257596493,79.9955673218,0
27.0,14.348131835321558,1.7382920734454645,393.81643011085856,0.45908998063457596,76.90899741338343,14.0895853043,-1.53257596493,79.9955673218,0
27.1,14.29731223662737,2.252018875949024,394.01702392813615,0.4563420410345506,76.63420401027722,11.8802471161,-6.11919021606,77.7977752686,0
27.200000000000003,14.246492637933182,2.765745678452583,394.21761774541375,0.4535941014345253,76.35941060717099,11.8802471161,-6.11919021606,77.7977752686,0
27.3,14.195673039238995,3.279472480956124,394.41821156269134,0.4508461618345,76.08461720406477,11.8802471161,-6.11919021606,77.7977752686,0
27.400000000000002,14.18645389104564,3.1177461602384735,394.5366654268386,0.4556681381419994,76.0,10.263740230146546,-5.86871573018972,77.20791996913157,0
27.5,14.195744492373825,2.65548299499518,394.6185718512383,0.4638582810356896,76.0,7.79590463638,-5.35249757767,76.316734314,0
27.6,14.205035093702008,2.193219829751871,394.70047827563803,0.47204842392938,76.0,7.79590463638,-5.35249757767,76.316734314,0
27.700000000000003,14.216249763318023,1.7293204220057024,394.7788177815133,0.48012430326549527,76.0,7.79590463638,-5.35249757767,76.316734314,0
27.8,14.291591818681937,1.2108865911199729,394.73827524895285,0.48439188573402825,76.0,5.8127781986517455,-3.15343559480741,76.2300324282481,0
27.900000000000002,14.366933874045852,0.6924527602342254,394.69773271639235,0.48865946820256145,76.0,4.64684677124,-1.54462683201,76.1794662476,0
28.0,14.442275929409767,0.17401892934849617,394.6571901838319,0.49292705067109444,76.0,4.64684677124,-1.54462683201,76.1794662476,0
28.1,14.517617984773683,-0.34441490153725174,394.6166476512715,0.4971946331396276,76.0,4.64684677124,-1.54462683201,76.1794662476,0
28.200000000000003,14.60588484972637,-0.7078381922738914,394.55779585332687,0.49856890540095555,75.9284453084333,4.64684677124,-1.54462683201,76.1794662476,0
28.3,14.718948900740122,-0.7738625016867497,394.46381639974805,0.49439215185817514,75.71960774332518,0.827513813972,2.0270383358,76.3885192871,0
28.400000000000002,14.83201295175388,-0.8398868110996105,394.36983694616924,0.49021539831539457,75.51077017821707,0.827513813972,2.0270383358,76.3885192871,0
28.5,14.945077002767631,-0.9059111205124689,394.27585749259043,0.48603864477261416,75.30193261310896,0.827513813972,2.0270383358,76.3885192871,0
28.6,15.05814105378139,-0.9719354299253297,394.1818780390116,0.4818618912298336,75.09309504800083,0.827513813972,2.0270383358,76.3885192871,0
28.700000000000003,15.17748848822424,-1.2232719823431766,394.08185087481473,0.47823830544273876,75.70467420335228,0.827513813972,2.0270383358,76.3885192871,0
28.8,15.30188982936066,-1.623660521782357,393.97695936237005,0.47505964845151916,76.97613821243536,-0.269780516624,8.85688018799,75.3218383789,0
28.900000000000002,15.426291170497084,-2.024049061221552,393.8720678499254,0.4718809914602994,78.24760222151848,-0.269780516624,8.85688018799,75.3218383789,0
29.0,15.550684600339368,-2.0636342007088615,393.74869542194836,0.47204338368453763,79.71518432312754,-0.269780516624,8.85688018799,75.3218383789,0
29.1,15.67506656258893,-1.5802269731570626,393.59853450539106,0.4770486993341637,81.46704386071164,-1.42261910439,16.3183288574,79.3209838867,0
29.200000000000003,15.799448524838489,-1.0968197456052635,393.44837358883376,0.48205401498378986,83.21890339829572,-1.42261910439,16.3183288574,79.3209838867,0
29.3,15.923830487088045,-0.6134125180534817,393.29821267227646,0.4870593306334158,84.97076293587973,-1.42261910439,16.3183288574,79.3209838867,0
29.400000000000002,16.06247650571701,-0.5120730635284589,393.1485774756152,0.490000009537,86.67301978258016,-1.42261910439,16.3183288574,79.3209838867,0
29.5,16.22143893581877,-0.9549158444660095,392.99969106607597,0.490000009537,88.3046271133682,-1.68785750866,30.0298461914,87.1985855103,0
29.6,16.380401365920537,-1.3977586254035759,392.8508046565368,0.490000009537,89.9362344441563,-1.68785750866,30.0298461914,87.1985855103,0
29.700000000000003,16.539363796022304,-1.8406014063411422,392.7019182469976,0.490000009537,91.56784177494441,-1.68785750866,30.0298461914,87.1985855103,0
29.8,16.698326226124063,-2.283444187278693,392.55303183745843,0.490000009537,93.19944910573246,-1.68785750866,30.0298461914,87.1985855103,0
29.900000000000002,16.85693375826151,-2.4599144250924083,392.43022789057255,0.48351042197660565,95.62239682563535,-1.68785750866,30.0298461914,87.1985855103,0
30.0,17.015199419654405,-2.3797898418625385,392.3325489988385,0.47076945978436074,98.80763724713637,1.74336636066,38.2465858459,94.776802063,0
30.1,17.173465081047304,-2.299665258632666,392.2348701071044,0.45802849759211534,101.99287766863749,1.74336636066,38.2465858459,94.776802063,0
30.200000000000003,17.331730742440207,-2.2195406754027935,392.1371912153703,0.44528753539987,105.17811809013863,1.74336636066,38.2465858459,94.776802063,0
30.3,17.4899964038331,-2.1394160921729237,392.03951232363625,0.432546573207625,108.36335851163963,1.74336636066,38.2465858459,94.776802063,0
30.400000000000002,17.631015944723604,-1.9068000770437896,391.91216260511294,0.4333177707981871,111.98599012840718,0.6871386996520814,40.54604437130598,102.94568952202437,0
30.5,17.767727394732358,-1.63609161398018,391.7774010968873,0.43746431372191547,115.71788231886829,-0.183148100972,42.7421035767,109.624824524,0
30.6,17.904438844741115,-1.3653831509165606,391.6426395886616,0.441610856645644,119.44977450932954,-0.183148100972,42.7421035767,109.624824524,0
30.700000000000003,18.041150294749873,-1.0946746878529412,391.50787808043594,0.4457573995693725,123.1816666997908,-0.183148100972,42.7421035767,109.624824524,0
30.8,18.177861744758626,-0.8239662247893313,391.37311657221034,0.4499039424931009,126.9135588902519,-0.183148100972,42.7421035767,109.624824524,0
30.900000000000002,18.30671158218633,-0.5666598963177423,391.35903761502107,0.41987329769641124,130.01266946268922,3.5700917244,47.3094596863,127.187232971,0
31.0,18.435375004681866,-0.3096713599002807,391.34782028823304,0.3890322417957987,133.09677548724494,3.5700917244,47.3094596863,127.187232971,0
31.1,18.564038427177405,-0.05268282348281017,391.336602961445,0.35819118589518506,136.18088151180078,3.5700917244,47.3094596863,127.187232971,0
31.200000000000003,18.64559512756853,0.19503904265596128,391.3719348307706,0.3447668230030033,139.23937349424563,3.5700917244,47.3094596863,127.187232971,0
31.3,18.659409888505124,0.4294349504405581,391.47420688790623,0.35638857902056287,142.2610311394163,7.853156721500253,42.3654095258001,138.31255516516862,0
31.400000000000002,18.673224649441718,0.6638308582251633,391.57647894504186,0.36801033503812275,145.2826887845871,7.94023656845,41.9745368958,138.516647339,0
31.5,18.68703941037831,0.8982267660097601,391.6787510021775,0.3796320910556823,148.30434642975777,7.94023656845,41.9745368958,138.516647339,0
31.6,18.700111658573643,1.106857256046433,391.778044514481,0.39142155997108996,151.37908645856163,7.94023656845,41.9745368958,138.516647339,0
31.700000000000003,18.707044237740693,1.1024393651503885,391.8527091168161,0.4045978087049953,154.89275264799338,5.2530412674,43.5248451233,152.655303955,0
31.8,18.713976816907742,1.0980214742543444,391.92737371915115,0.4177740574389002,158.406418837425,5.2530412674,43.5248451233,152.655303955,0
31.900000000000002,18.72090939607479,1.0936035833583,392.0020383214863,0.43095030617280555,161.92008502685678,5.2530412674,43.5248451233,152.655303955,0
32.0,18.72784197524184,1.0891856924622558,392.07670292382136,0.4441265549067105,165.4337512162884,5.2530412674,43.5248451233,152.655303955,0
32.1,18.70685415771063,0.9007193896941521,392.1605495187037,0.44334689610359884,168.46368075802977,5.2530412674,43.5248451233,152.655303955,0
32.2,18.66341081151826,0.5642285286613756,392.25178091184097,0.4313429239400134,171.1045555784482,4.90343523026,43.0598526001,167.491653442,0
32.300000000000004,18.61996746532589,0.22773766762859915,392.34301230497823,0.41933895177642794,173.74543039886666,4.90343523026,43.0598526001,167.491653442,0
32.4,18.576524119133524,-0.10875319340415324,392.4342436981155,0.4073349796128434,176.38630521928494,4.90343523026,43.0598526001,167.491653442,0
32.5,18.495044163562333,-0.11984733628473265,392.5602419359682,0.3976582665884222,178.7025217835598,4.90343523026,43.0598526001,167.491653442,0
32.6,18.353808882090895,0.3802551615868186,392.74085871554735,0.3916376662035392,180.50870182725916,8.44646644592,34.2282447815,178.538726807,0
32.7,18.212573600619457,0.8803576594583699,392.9214754951265,0.3856170658186561,182.31488187095852,8.44646644592,34.2282447815,178.538726807,0
32.800000000000004,18.07133831914802,1.380460157329921,393.1020922747057,0.3795964654337731,184.12106191465787,8.44646644592,34.2282447815,178.538726807,0
32.9,17.93010303767659,1.8805626552014365,393.28270905428485,0.3735758650488905,185.92724195835711,8.44646644592,34.2282447815,178.538726807,0
33.0,17.79184288642781,2.2234358289888867,393.4971734673617,0.36872393689381816,187.38282072735066,8.844352629542541,31.2666171278351,81.07744249324608,0
33.1,17.65793438383742,2.336333598002056,393.761145968447,0.36558139641604337,188.32558376979622,9.87481403351,21.7893466949,-172.317840576,0
33.2,17.524025881247038,2.4492313670152255,394.02511846953234,0.3624388559382686,189.2683468122418,9.87481403351,21.7893466949,-172.317840576,0
33.300000000000004,17.39808134018274,2.5301912600271237,394.28394320108987,0.3604775580876634,190.1432632714292,9.87481403351,21.7893466949,-172.317840576,0
33.4,17.299737868932898,2.500462578973333,394.52492706969724,0.36261014744551917,190.78304068894164,8.171043396,13.1380882263,-169.298156738,0
33.5,17.201394397683046,2.47073389791954,394.76591093830467,0.36474273680337504,191.42281810645414,8.171043396,13.1380882263,-169.298156738,0
33.6,17.1030509264332,2.4410052168657477,395.0068948069121,0.366875326161231,192.06259552396665,8.171043396,13.1380882263,-169.298156738,0
33.7,17.00470745518335,2.411276535811955,395.24787867551953,0.36900791551908685,192.70237294147913,8.171043396,13.1380882263,-169.298156738,0
33.800000000000004,16.918882656589037,2.3378841611369015,395.4885287129314,0.370000004768,192.86748123787788,8.171043396,13.1380882263,-169.298156738,0
33.9,16.843947502331307,2.2265099566752324,395.72888835989306,0.370000004768,192.6196880990593,6.99075126648,-1.28593635559,-166.959716797,0
34.0,16.769012348073574,2.1151357522135554,395.9692480068547,0.370000004768,192.37189496024067,6.99075126648,-1.28593635559,-166.959716797,0
34.1,16.69407719381584,2.0037615477518784,396.20960765381636,0.370000004768,192.12410182142204,6.99075126648,-1.28593635559,-166.959716797,0
34.2,16.65157778055776,2.0338580867805334,396.4146882423582,0.3712833550653301,191.74332969577318,6.99075126648,-1.28593635559,-166.959716797,0
34.300000000000004,16.64162175532363,2.2058948792935498,396.58437268911644,0.37385431481474957,191.22913725555537,6.54912233353,-9.87682056427,-167.818328857,0
34.4,16.6316657300895,2.377931671806554,396.75405713587463,0.37642527456416885,190.7149448153376,6.54912233353,-9.87682056427,-167.818328857,0
34.5,16.621709704855373,2.5499684643195706,396.9237415826329,0.37899623431358836,190.2007523751198,6.54912233353,-9.87682056427,-167.818328857,0
34.6,16.642977510616706,2.0299008127173868,397.04737864327916,0.379999995232,189.42609255491425,6.5158111729455515,-9.87682056427,-167.818328857,0
34.7,16.684243583768385,1.0665534835677737,397.1415232326068,0.379999995232,188.4846083526457,2.94535088539,-12.8068170547,-169.884414673,0
34.800000000000004,16.725509656920064,0.10320615441816017,397.23566782193444,0.379999995232,187.54312415037714,2.94535088539,-12.8068170547,-169.884414673,0
34.9,16.780897692122277,-0.3840096693434348,397.296859791501,0.3782799231978356,186.56998158137182,2.94535088539,-12.8068170547,-169.884414673,0
35.0,16.85553961235624,-0.22206773217029893,397.3131241546837,0.37421470471209384,185.55367599073656,0.493615627289,-12.5023002625,-172.901412964,0
35.1,16.930181532590204,-0.060125794997163085,397.32938851786633,0.3701494862263521,184.53737040010128,0.493615627289,-12.5023002625,-172.901412964,0
35.2,17.004823452824166,0.10181614217597279,397.34565288104903,0.36608426774061026,183.52106480946603,0.493615627289,-12.5023002625,-172.901412964,0
35.300000000000004,17.07946537305813,0.26375807934910855,397.3619172442317,0.3620190492548685,182.50475921883074,0.493615627289,-12.5023002625,-172.901412964,0
35.4,17.1483411464242,0.30376514512616437,397.35171999493735,0.35817260992177397,181.63451986400028,0.493615627289,-12.5023002625,-172.901412964,0
35.5,17.211527277659826,0.22345516082424927,397.31541222354946,0.3545420469984697,180.9084087508036,-1.70703577995,-12.9691829681,-177.934555054,0
35.6,17.27471340889545,0.14314517652233416,397.27910445216156,0.3509114840751654,180.18229763760692,-1.70703577995,-12.9691829681,-177.934555054,0
35.7,17.342274474417366,0.11163884696543361,397.1954944012202,0.34999999404,179.68961288471579,-1.883299804603991,-12.597850993469855,-178.40009384289024,0
35.800000000000004,17.41130210930704,0.09649252201664267,397.09602763799944,0.34999999404,179.27517752421554,-2.47702288628,-8.66244411469,-179.942718506,0
35.9,17.480329744196712,0.08134619706785282,396.99656087477877,0.34999999404,178.86074216371532,-2.47702288628,-8.66244411469,-179.942718506,0
36.0,17.549357379086388,0.06619987211906186,396.89709411155803,0.34999999404,178.44630680321507,-2.47702288628,-8.66244411469,-179.942718506,0
36.1,17.618385013976066,0.05105354717027093,396.79762734833736,0.34999999404,178.0318714427148,-2.47702288628,-8.66244411469,-179.942718506,0
36.2,17.687333235366104,-0.3818253421997368,396.6641524436971,0.34999999404,177.54244226906715,-3.553296266016714,-0.7790615841991704,151.61650307976117,0
36.300000000000004,17.756274840808615,-0.8495055781633462,396.52784431699723,0.34999999404,177.046765352471,-3.61386203766,0.188265115023,178.761825562,0
36.4,17.825216446251126,-1.3171858141269224,396.39153619029736,0.34999999404,176.55108843587487,-3.61386203766,0.188265115023,178.761825562,0
36.5,17.89415805169364,-1.7848660500905318,396.25522806359743,0.34999999404,176.05541151927875,-3.61386203766,0.188265115023,178.761825562,0
36.6,17.935812826234134,-1.838329623533677,396.1283450454728,0.34999999404,176.37846061521543,-3.039466944642663,3.833098668312984,177.80657343350472,0
36.7,17.974033297816014,-1.8396601546785176,396.0026482654417,0.34999999404,176.8045540396501,-2.53836297989,7.47555828094,176.977005005,0
36.800000000000004,18.012253769397898,-1.8409906858233585,395.87695148541053,0.34999999404,177.23064746408477,-2.53836297989,7.47555828094,176.977005005,0
36.9,18.050474240979774,-1.8423212169681993,395.7512547053794,0.34999999404,177.6567408885194,-2.53836297989,7.47555828094,176.977005005,0
37.0,18.087943103889252,-1.7967992978815115,395.6221905741357,0.35042125500881843,178.25275606908087,-2.53836297989,7.47555828094,176.977005005,0
37.1,18.12229735745546,-1.55712437789914,395.47917239481654,0.3525881894878193,179.5529141217111,-2.2125962854221073,7.90547893130677,178.30204559485966,0
37.2,18.156651611021665,-1.3174494579167686,395.3361542154974,0.35475512396682013,180.85307217434132,-2.18296861649,7.97012138367,178.429138184,0
37.300000000000004,18.191005864587872,-1.0777745379343973,395.1931360361783,0.356922058445821,182.15323022697154,-2.18296861649,7.97012138367,178.429138184,0
37.4,18.225360118154075,-0.8380996179520428,395.0501178568592,0.35908899292482166,183.45338827960165,-2.18296861649,7.97012138367,178.429138184,0
37.5,18.247688060306693,-1.190518143000117,394.9075286208227,0.360000014305,184.4340029146115,-2.106843732607837,7.8976015270433235,69.44318910681089,0
37.6,18.26129228834825,-1.9724327756944025,394.765250534102,0.360000014305,185.18282532958614,-1.93369269371,7.67306280136,-175.874633789,0
37.7,18.274896516389806,-2.754347408388688,394.62297244738136,0.360000014305,185.9316477445608,-1.93369269371,7.67306280136,-175.874633789,0
37.800000000000004,18.26396237823114,-2.470008339175746,394.54605939572025,0.35573810818318446,186.21309519177586,-1.0489656260127336,7.75305310833767,-174.96553303318552,0
37.9,18.250563396241965,-2.0785656088037108,394.4757121684537,0.35104809967978184,186.44759549114832,0.524319171906,7.94670391083,-173.365890503,0
38.0,18.23716441425279,-1.687122878431647,394.4053649411871,0.3463580911763789,186.68209579052078,0.524319171906,7.94670391083,-173.365890503,0
38.1,18.223765432263612,-1.2956801480595832,394.33501771392054,0.34166808267297594,186.91659608989323,0.524319171906,7.94670391083,-173.365890503,0
38.2,18.20623945680161,-0.9400311321930639,394.30243220359114,0.3381090704781396,187.5672804703735,0.8906004389668525,7.251489250475529,-173.19966791696555,0
38.300000000000004,18.186435416362077,-0.604139939538045,394.2906908369254,0.3351743585389824,188.44769489177187,2.00725889206,3.36359906197,-172.690063477,0
38.400000000000006,18.16663137592254,-0.26824874688302613,394.2789494702597,0.3322396465998253,189.32810931317024,2.00725889206,3.36359906197,-172.690063477,0
38.5,18.143842602213883,-0.03201520080493028,394.268652410697,0.33133734974036144,190.0668668951357,2.00725889206,3.36359906197,-172.690063477,0
38.6,18.111436628380048,-0.1168915981341306,394.26300909711404,0.33698375951443027,190.34918765307432,2.110307805506378,1.6129470657365388,-170.38295258921886,0
38.7,18.079030654546212,-0.20176799546333088,394.25736578353116,0.34263016928849915,190.63150841101296,2.13706803322,1.03473436832,-169.789260864,0
38.800000000000004,18.04662468071238,-0.2866443927925312,394.2517224699482,0.348276579062568,190.9138291689516,2.13706803322,1.03473436832,-169.789260864,0
38.900000000000006,18.019191194183357,-0.21080497752628152,394.23092949492053,0.35408610348131986,190.45518542947133,2.1524204764706627,1.1365164418063105,-169.41587156933576,0
39.0,17.993942176291295,-0.06436132929633692,394.2034811061617,0.3599672859664868,189.67102779593958,2.18884301186,1.46572589874,-168.539154053,0
39.1,17.96869315839923,0.08208231893361806,394.17603271740285,0.36584846845165414,188.8868701624078,2.18884301186,1.46572589874,-168.539154053,0
39.2,17.943444140507165,0.22852596716357304,394.14858432864395,0.37172965093682153,188.10271252887603,2.18884301186,1.46572589874,-168.539154053,0
39.300000000000004,17.9181951226151,0.3749696153935281,394.1211359398851,0.3776108334219889,187.31855489534422,2.18884301186,1.46572589874,-168.539154053,0
39.400000000000006,17.905360701094473,0.3032209990393603,394.098418706374,0.379999995232,186.76868120717845,2.18884301186,1.46572589874,-168.539154053,0
39.5,17.90102006649451,0.08219015492150855,394.0789384226082,0.379999995232,186.37909931194207,2.20148658752,1.0321764946,-172.326385498,0
39.6,17.89667943189455,-0.1388406891963589,394.05945813884244,0.379999995232,185.98951741670567,2.20148658752,1.0321764946,-172.326385498,0
39.7,17.892338797294588,-0.35987153331422644,394.03997785507664,0.379999995232,185.59993552146926,2.20148658752,1.0321764946,-172.326385498,0
39.800000000000004,17.887998162694625,-0.5809023774320938,394.0204975713109,0.379999995232,185.21035362623283,2.20148658752,1.0321764946,-172.326385498,0
39.900000000000006,17.886607451151793,-0.594884323284862,394.01564288302774,0.38094397190717194,185.09439775754433,2.20148658752,1.0321764946,-172.326385498,0
40.0,17.888678955785146,-0.36586059375108854,394.02795371814483,0.3829958592808378,185.2995866905996,3.77919411659,-4.21113967896,-174.280487061,0
40.1,17.8907504604185,-0.1368368642172989,394.040264553262,0.3850477466545038,185.5047756236549,3.77919411659,-4.21113967896,-174.280487061,0
40.2,17.892821965051855,0.09218686531649078,394.0525753883791,0.38709963402816977,185.7099645567102,3.77919411659,-4.21113967896,-174.280487061,0
40.300000000000004,17.894893469685208,0.3212105948502805,394.0648862234963,0.3891515214018358,185.91515348976546,3.77919411659,-4.21113967896,-174.280487061,0
40.400000000000006,17.902114648108558,0.2655836579826989,394.0479419988875,0.39881606602607433,186.22040189004227,3.361857971654966,-3.6731625450514245,-174.07083401043886,0
