t_sec,airspeed,climb,altitude,throttle,heading,pitch,roll,yaw,is_boundary
0.0,19.1388339996,-0.71922814846,423.069976807,0.439999997616,280.0,-0.0597896613181,0.713456630707,-81.0063095093,0
0.1,19.13167855007086,-0.5947431720279751,423.04113805782487,0.42763643679176905,280.41211867776616,-0.0597896613181,0.713456630707,-81.0063095093,0
0.2,19.124523100541715,-0.4702581955959501,423.01229930864974,0.41527287596753815,280.8242373555324,-0.0597896613181,0.713456630707,-81.0063095093,0
0.30000000000000004,19.133065816920194,-0.46838398412550253,423.0173081746795,0.3974105591914619,281.15736799823566,-0.038223104586555465,0.8836771623386203,-80.9600628257341,0
0.4,19.153282240606703,-0.5576874421610658,423.04748731571476,0.375459174436496,281.4317603649144,0.476829379797,4.76368236542,-79.8566436768,0
0.5,19.173498664293213,-0.6469909001966291,423.0776664567501,0.3535077896815301,281.70615273159314,0.476829379797,4.76368236542,-79.8566436768,0
0.6000000000000001,19.19371508797972,-0.7362943582321925,423.10784559778534,0.33155640492656424,281.98054509827193,0.8651578687126522,15.53474145647218,-78.95979384016947,0
0.7000000000000001,19.198186314370975,-0.3753631854445487,423.06811657933457,0.2602158826924411,283.3956825442861,0.950224339962,17.8698158264,-78.7597961426,0
0.8,19.20145598623148,0.01992649364950616,423.0230526981831,0.18510635453257843,284.8978730384647,0.950224339962,17.8698158264,-78.7597961426,0
0.9,19.204725658091988,0.4152161727435608,422.9779888170316,0.10999682637271574,286.4000635326433,0.950224339962,17.8698158264,-78.7597961426,0
1.0,19.207995329952496,0.8105058518376158,422.93292493588007,0.03488729821285308,287.90225402682194,0.0249942243099,29.3770599365,-77.441116333,0
1.1,19.20968378085457,0.8517446569300972,422.7563061802472,0.037894796064826125,289.84211927943744,0.0249942243099,29.3770599365,-77.441116333,0
1.2000000000000002,19.211262182567026,0.8683423696074911,422.5705315205966,0.046339051734662615,291.8124456464361,0.0249942243099,29.3770599365,-77.441116333,0
1.3,19.212840584279483,0.884940082284885,422.38475686094597,0.0547833074044991,293.78277201343474,-0.8304259636113908,30.553574519733374,-76.2976994182259,0
1.4000000000000001,19.217256942804866,0.6808596748904655,422.1758247041291,0.058135376930751693,295.65261761943793,-4.16441440582,35.142829895,-71.8300247192,0
1.5,19.22626027236499,0.12009866539537739,421.92946323610687,0.05325697929917673,297.36005682865044,-4.16441440582,35.142829895,-71.8300247192,0
1.6,19.23526360192511,-0.44066234409971194,421.68310176808455,0.048378581667601755,299.06749603786295,-4.16441440582,35.142829895,-71.8300247192,0
1.7000000000000002,19.24426693148523,-1.0014233535948012,421.4367403000623,0.043500184036026776,300.7749352470754,-6.4312308836409,35.4206466675,-64.64421243033996,0
1.8,19.263254785496915,-1.510187509552245,421.1701887770308,0.03800461926584956,302.3990759769305,-6.43265295029,35.4206466675,-64.63697052,0
1.9000000000000001,19.307599888054575,-1.8868975907103254,420.8523614776205,0.030941662818295423,303.8116672980165,-6.43265295029,35.4206466675,-64.63697052,0
2.0,19.35194499061224,-2.263607671868405,420.53453417821027,0.023878706370741302,305.2242586191025,-6.43265295029,35.4206466675,-64.63697052,0
2.1,19.3962900931699,-2.640317753026485,420.2167068788,0.016815749923187163,306.63684994018854,-8.50823116302,32.1112632751,-57.8489837646,0
2.2,19.440801800140672,-3.006337984671565,419.89700151890486,0.009915570746220827,308.0506574192878,-8.50823116302,32.1112632751,-57.8489837646,0
2.3000000000000003,19.489906974386418,-3.0776272845528547,419.5255159617357,0.007503340307163733,309.497995715073,-8.50823116302,32.1112632751,-57.8489837646,0
2.4000000000000004,19.53901214863216,-3.1489165844341445,419.1540304045665,0.0050911098681066394,310.9453340108581,-8.50823116302,32.1112632751,-57.8489837646,0
2.5,19.588117322877906,-3.2202058843154338,418.7825448473974,0.0026788794290495566,312.3926723066433,-8.695830115482519,31.677054413735487,-57.18612686989734,0
2.6,19.637222497123652,-3.2914951841967235,418.41105929022825,0.00026664898999246255,313.84001060242844,-10.3397169113,27.8835639954,-51.3266525269,0
2.7,19.688529665796356,-3.433687054981513,418.0557478534091,0.0,314.43645379291524,-10.3397169113,27.8835639954,-51.3266525269,0
2.8000000000000003,19.740110494362124,-3.584690569308211,417.70244650707497,0.0,314.9271492754713,-10.3397169113,27.8835639954,-51.3266525269,0
2.9000000000000004,19.791691322927896,-3.7356940836349084,417.34914516074076,0.0,315.4178447580274,-10.3397169113,27.8835639954,-51.3266525269,0
3.0,19.843272151493668,-3.8866975979616054,416.99584381440656,0.0,315.9085402405834,-11.8233003616,14.0504350662,-45.4743843079,0
3.1,19.920337178068205,-4.141437345349723,416.6726275968087,0.0,316.0,-11.8233003616,14.0504350662,-45.4743843079,0
3.2,20.003240306004205,-4.419941726934323,416.356303494512,0.0,316.0,-11.8233003616,14.0504350662,-45.4743843079,0
3.3000000000000003,20.086143433940208,-4.698446108518923,416.03997939221534,0.0,316.0,-11.8233003616,14.0504350662,-45.4743843079,0
3.4000000000000004,20.16904656187621,-4.9769504901035235,415.72365528991867,0.0,316.0,-11.3196754456,7.60347652435,-43.8544044495,0
3.5,20.210244007899004,-4.829417237272295,415.4419204456251,0.0,316.0,-11.3196754456,7.60347652435,-43.8544044495,0
3.6,20.248067724285235,-4.647420196113369,415.16298365664386,0.0,316.0,-11.3196754456,7.60347652435,-43.8544044495,0
3.7,20.28589144067147,-4.465423154954443,414.8840468676627,0.0,316.0,-11.04182239311409,6.387870217226426,-43.67618490523098,0
3.8000000000000003,20.323715157057702,-4.2834261137955165,414.60511007868143,0.0,316.0,-10.4068651199,3.60934090614,-43.2596893311,0
3.9000000000000004,20.32196368166794,-3.9347190071393685,414.3130036900206,0.0,315.7979046832476,-10.4068651199,3.60934090614,-43.2596893311,0
4.0,20.31947007030896,-3.5828856607738517,414.0206503377146,0.0,315.59201956290764,-10.4068651199,3.60934090614,-43.2596893311,0
4.1000000000000005,20.31697645894998,-3.231052314408332,413.7282969854085,0.0,315.3861344425677,-10.4068651199,3.555365514252567,-43.2596893311,0
4.2,20.314482847590998,-2.879218968042815,413.43594363310245,0.0,315.1802493222277,-9.80642986298,-0.747216761112,-43.8574562073,0
4.3,20.312315571415606,-2.605742434506427,413.14554381606143,0.0,314.96780502416584,-9.80642986298,-0.747216761112,-43.8574562073,0
4.4,20.31244280916186,-2.8832049566818827,412.8688796122409,0.0,314.7092421175249,-9.80642986298,-0.747216761112,-43.8574562073,0
4.5,20.312570046908107,-3.1606674788573352,412.59221540842043,0.0,314.450679210884,-9.80642986298,-0.747216761112,-43.8574562073,0
4.6000000000000005,20.31269728465436,-3.438130001032791,412.31555120459996,0.0,314.1921163042431,-9.898899848255006,-1.91767843558103,-44.00958346556107,0
4.7,20.31187564121793,-3.658426046304833,412.0270364123861,0.0,313.90465585622525,-10.0513153076,-3.80735588074,-44.2649726868,0
4.800000000000001,20.308310508432108,-3.7134373084132872,411.7042581490077,0.0,313.53364427615986,-10.0513153076,-3.80735588074,-44.2649726868,0
4.9,20.304745375646284,-3.7684485705217416,411.3814798856294,0.0,313.1626326960945,-10.0513153076,-3.80735588074,-44.2649726868,0
5.0,20.296950434466808,-3.6504447074335156,411.09912837471467,0.0,313.0,-9.94688892365,-3.67414307594,-45.1359291077,0
5.1000000000000005,20.285854270390303,-3.3974083701345634,410.8483285816239,0.0,313.0,-9.94688892365,-3.67414307594,-45.1359291077,0
5.2,20.274758106313797,-3.1443720328356135,410.59752878853305,0.0,313.0,-9.94688892365,-3.67414307594,-45.1359291077,0
5.300000000000001,20.259972089720502,-2.9567757895015236,410.35128023262166,0.0,312.9245028561453,-9.18174648285,-3.6902115345,-46.1060409546,0
5.4,20.23624295915568,-2.9277870287085483,410.11606253299004,0.0,312.6660229077079,-9.18174648285,-3.6902115345,-46.1060409546,0
5.5,20.21251382859085,-2.898798267915573,409.8808448333585,0.0,312.4075429592705,-9.18174648285,-3.6902115345,-46.1060409546,0
5.6000000000000005,20.188784698026026,-2.8698095071225973,409.64562713372686,0.0,312.1490630108331,-8.197023188915121,-2.157717559057889,-46.596147397239925,0
5.7,20.150532155487227,-2.7611716356612472,409.4247682167485,0.0,311.90316646184175,-8.11528015137,-2.03672003746,-46.6387443542,0
5.800000000000001,20.092493795836273,-2.5440246384067047,409.2234708358636,0.0,311.6744127743581,-8.11528015137,-2.03672003746,-46.6387443542,0
5.9,20.03445543618532,-2.326877641152164,409.0221734549787,0.0,311.44565908687434,-8.11528015137,-2.03672003746,-46.6387443542,0
6.0,19.976417076534368,-2.109730643897623,408.82087607409386,0.0,311.2169053993906,-6.89965581894,0.197254002094,-47.1077346802,0
6.1000000000000005,19.918079435735027,-1.901674397370953,408.62241281361827,0.0,311.01186233689117,-6.89965581894,0.197254002094,-47.1077346802,0
6.2,19.85426288553456,-1.8600415954719443,408.4758335058683,0.0,311.2408872630847,-6.89965581894,0.197254002094,-47.1077346802,0
6.300000000000001,19.790446335334092,-1.8184087935729352,408.3292541981183,0.0,311.4699121892782,-6.89965581894,0.197254002094,-47.1077346802,0
6.4,19.72662978513362,-1.7767759916739265,408.1826748903683,0.0,311.6989371154717,-6.7038121084163285,1.271747305243418,-47.22706603063376,0
6.5,19.662813234933154,-1.7351431897749179,408.0360955826183,0.0,311.92796204166524,-5.38804721832,5.90958309174,-48.0319709778,0
6.6000000000000005,19.58366309629956,-1.8198500665564683,407.8919113321654,0.0029720713774615782,312.2972071443887,-5.38804721832,5.90958309174,-48.0319709778,0
6.7,19.497476702238306,-1.9625315168516968,407.74882612222615,0.00730796267563234,312.73079628389655,-5.38804721832,5.90958309174,-48.0319709778,0
6.800000000000001,19.41129030817705,-2.105212967146927,407.6057409122869,0.011643853973803141,313.1643854234043,-5.38804721832,5.90958309174,-48.0319709778,0
6.9,19.325103914115797,-2.247894417442155,407.46265570234755,0.015979745271973905,313.5979745629121,-4.26325082779,11.1984643936,-47.5766830444,0
7.0,19.239496724260302,-2.3330623550730407,407.3181012318132,0.020758636349243843,314.0758636766098,-4.26325082779,11.1984643936,-47.5766830444,0
7.1000000000000005,19.161266831937425,-1.6856833069373551,407.1548328561399,0.031179995393446902,315.1179995396191,-4.26325082779,11.1984643936,-47.5766830444,0
7.2,19.08303693961455,-1.038304258801675,406.9915644804665,0.041601354437649875,316.1601354026284,-4.26325082779,11.1984643936,-47.5766830444,0
7.300000000000001,19.00961533166455,-0.5549365910159485,406.8208567275119,0.055318460739683155,317.22793400486233,-4.111537485506002,11.730090563672222,-46.96344993736789,0
7.4,18.95615853585006,-0.752571988533127,406.61925941846886,0.08272006856994558,318.402288652407,-3.68063688278,12.8423748016,-45.2000160217,0
7.5,18.902701740035575,-0.9502073860503056,406.4176621094258,0.11012167640020801,319.57664329995157,-3.68063688278,12.8423748016,-45.2000160217,0
7.6000000000000005,18.84924494422109,-1.1478427835674858,406.21606480038275,0.13752328423047067,320.7509979474962,-3.66691788295902,14.529164588932378,-44.4932224182534,0
7.7,18.795788148406604,-1.3454781810846645,406.0144674913397,0.1649248920607331,321.92535259504086,-3.62588310242,19.5481090546,-42.3111305237,0
7.800000000000001,18.747196104912003,-1.5363861883688366,405.8101523916397,0.19134016254432554,323.1608198009839,-3.62588310242,19.5481090546,-42.3111305237,0
7.9,18.75103649582008,-1.65478619855489,405.57654486943375,0.20712466195725415,325.0549598434261,-3.62588310242,19.5481090546,-42.3111305237,0
8.0,18.75487688672816,-1.7731862087409436,405.3429373472278,0.2229091613701828,326.9490998858683,-3.62588310242,19.5481090546,-42.3111305237,0
8.1,18.758717277636233,-1.8915862189269972,405.1093298250219,0.2386936607831114,328.8432399283105,-3.498715543771449,22.27925067932064,-41.27214315662249,0
8.200000000000001,18.801578876784436,-2.2096310199829854,404.84211769298116,0.25116553907382977,331.0097981186335,-2.90216255188,35.0302658081,-36.3983650208,0
8.3,18.8479612759327,-2.545689342695749,404.5718734890071,0.26333852665938284,333.20093601466874,-2.90216255188,35.0302658081,-36.3983650208,0
8.4,18.894343675080965,-2.881747665408513,404.3016292850331,0.2755115142449359,335.3920739107039,-2.90296629683935,35.04593748999246,-36.39565264718205,0
8.5,18.94072607422923,-3.2178059881212766,404.03138508105906,0.28768450183048905,337.5832118067391,-3.5183299737724383,38.931953769446984,-30.59266679335784,0
8.6,19.017237269018825,-3.3744533817074807,403.7299538355162,0.2999218492368622,340.38124525191046,-3.5679204464,39.1763305664,-30.1192932129,0
8.700000000000001,19.100825606651707,-3.488957810530315,403.4211968690693,0.3121743145274928,343.32183622056607,-3.5679204464,39.1763305664,-30.1192932129,0
8.8,19.18441394428459,-3.6034622393531475,403.1124399026225,0.3244267798181231,346.2624271892216,-3.5679204464,39.1763305664,-30.1192932129,0
8.9,19.26800228191747,-3.71796666817598,402.8036829361756,0.33667924510875347,349.20301815787724,-4.5943770728246385,41.7777862549,-21.824478544728926,0
9.0,19.3520465000159,-3.8227391406669993,402.49510487810267,0.3418136516788521,287.0663508175052,-4.61015748978,41.7777862549,-21.1440906525,0
9.1,19.436260211912764,-3.9238933264149822,402.18659333715897,0.3443016039671465,200.7343240874679,-4.61015748978,41.7777862549,-21.1440906525,0
9.200000000000001,19.520473923809632,-4.025047512162967,401.8780817962152,0.34678955625544094,114.40229735742909,-4.61015748978,41.7777862549,-21.1440906525,0
9.3,19.604687635706497,-4.12620169791095,401.5695702552715,0.3492775085437354,28.07027062739178,-4.51186132431,43.6793174744,-8.60265827179,0
9.4,19.639466905538175,-3.8948459629369996,401.27564271783547,0.3531680768497219,5.05925272173608,-4.51186132431,43.6793174744,-8.60265827179,0
9.5,19.654016020053835,-3.527416529964185,400.9876834212405,0.3576326405059386,7.961217541663009,-4.51186132431,43.6793174744,-8.60265827179,0
9.600000000000001,19.668565134569494,-3.159987096991364,400.6997241246455,0.3620972041621554,10.863182361589992,-4.51186132431,43.6793174744,-8.60265827179,0
9.700000000000001,19.683114249085158,-2.7925576640185494,400.41176482805054,0.3665617678183721,13.765147181516921,-2.02800989151,43.3106956482,3.64668321609,0
9.8,19.685915753785668,-2.4782846030274066,400.1390038835707,0.3711086518224413,16.720621272607314,-2.02800989151,43.3106956482,3.64668321609,0
9.9,19.64936227933874,-2.3420875884669368,399.9171580477793,0.3759313123992875,19.85535363699487,-2.02800989151,43.3106956482,3.64668321609,0
10.0,19.612808804891813,-2.205890573906467,399.6953122119879,0.38075397297613367,22.990086001382423,-2.02800989151,43.3106956482,3.64668321609,0
10.100000000000001,19.576255330444887,-2.0696935593459944,399.47346637619654,0.38557663355298,26.124818365770032,-0.9324614015484687,43.11003660543698,13.199825811368179,0
10.200000000000001,19.533548368237355,-1.9467307589239562,399.2575510201831,0.3908577986905605,29.278789074000752,-0.506363272667,43.0321006775,16.9595603943,0
10.3,19.422675945716914,-1.9703703949935532,399.1073307463192,0.4012180629754768,32.6458731603263,-0.506363272667,43.0321006775,16.9595603943,0
10.4,19.31180352319647,-1.9940100310631503,398.95711047245527,0.4115783272603932,36.01295724665186,-0.506363272667,43.0321006775,16.9595603943,0
10.5,19.20093110067603,-2.0176496671327473,398.80689019859136,0.4219385915453095,39.38004133297741,0.2575272411065731,43.35413877622202,20.44606043455687,0
10.600000000000001,19.082591016799064,-1.981505797936983,398.6717365965596,0.4315656237245083,42.67843382069716,2.31660509109,44.2187767029,29.8500232697,0
10.700000000000001,18.938063945318792,-1.7357179938432645,398.5894175741442,0.43862141717901404,45.73594419616457,2.31660509109,44.2187767029,29.8500232697,0
10.8,18.79353687383852,-1.489930189749546,398.50709855172886,0.4456772106335198,48.793454571631976,2.31660509109,44.2187767029,29.8500232697,0
10.9,18.649009802358247,-1.2441423856558274,398.4247795293135,0.4527330040880255,51.850964947099385,3.7166781334090353,44.633631746158585,36.88856721661054,0
11.0,18.504482730877978,-0.9983545815621089,398.3424605068982,0.45978879754253127,54.908475322566794,4.7805480957,44.9488449097,42.4601325989,0
11.100000000000001,18.334771741636416,-0.967259678595312,398.31748831273376,0.46750298901978976,58.251291496557585,4.7805480957,44.9488449097,42.4601325989,0
11.200000000000001,18.164283624591736,-0.942789790218392,398.29428573261737,0.4752374974077787,61.60291166484841,4.7805480957,44.9488449097,42.4601325989,0
11.3,17.993795507547052,-0.918319901841472,398.271083152501,0.48297200579576766,64.95453183313924,5.41477268967163,44.844142477806415,47.629663018855545,0
11.4,17.82387665937746,-0.8889281500529878,398.25,0.49093221783306007,68.2796627555254,6.40984535217,44.7029876709,55.7441978455,0
11.5,17.659620652637514,-0.8105758222384175,398.25,0.5011376325013568,71.34129007581186,6.40984535217,44.7029876709,55.7441978455,0
11.600000000000001,17.495364645897563,-0.7322234944238458,398.25,0.5113430471696537,74.40291739609837,6.40984535217,44.7029876709,55.7441978455,0
11.700000000000001,17.331108639157616,-0.6538711666092756,398.25,0.5215484618379505,77.46454471638484,6.540024663751928,44.832207487797824,58.77795901975961,0
11.8,17.16682619787539,-0.6006743123898168,398.25329806496114,0.5305496739993871,80.49472987143493,6.9532251358,45.2345275879,68.5018920898,0
11.9,17.002416376962138,-0.6686936650255555,398.27248845343763,0.53374821821998,83.37340525701654,6.9532251358,45.2345275879,68.5018920898,0
12.0,16.838006556048885,-0.7367130176612943,398.2916788419141,0.5369467624405727,86.25208064259814,6.9532251358,45.2345275879,68.5018920898,0
12.100000000000001,16.674125738648943,-0.780582232948569,398.3114880083049,0.5402980928433911,89.16393941831419,7.862625433655692,47.42596563177788,77.53159281382779,0
12.200000000000001,16.521362259505683,-0.3169212729348354,398.34430117789367,0.5468603200096365,92.77316780187022,8.1481552124,48.0908622742,80.3709030151,0
12.3,16.368598780362422,0.14673968707889817,398.3771143474824,0.5534225471758818,96.38239618542623,8.1481552124,48.0908622742,80.3709030151,0
12.4,16.21583530121916,0.6104006470926318,398.4099275170712,0.5599847743421271,99.99162456898226,8.676945733450822,48.57205377828928,83.50225284060329,0
12.5,16.09064048829165,0.6110863744263623,398.43218129154513,0.5539507461727946,103.02462498076184,9.81255722046,49.5845794678,90.5319900513,0
12.600000000000001,15.965509798910748,0.6106952410342199,398.45441050531457,0.54788741964859,106.056285110755,9.81255722046,49.5845794678,90.5319900513,0
12.700000000000001,15.84037910952985,0.6103041076420777,398.476639719084,0.5418240931243855,109.08794524074808,9.825057311125878,49.43025285856314,91.6251861398733,0
12.8,15.715248420148951,0.6099129742499353,398.49886893285344,0.535760766600181,112.11960537074118,9.9196023941,48.2811927795,100.134788513,0
12.9,15.588003087729836,0.6155607623420175,398.5231768465426,0.5294096082179653,115.1298799442953,9.9196023941,48.2811927795,100.134788513,0
13.0,15.420490765015433,0.7362015721425481,398.5870673223856,0.5175775613719503,117.73293118132179,9.9196023941,48.2811927795,100.134788513,0
13.100000000000001,15.252978442301028,0.856842381943081,398.65095779822866,0.5057455145259351,120.33598241834832,9.9196023941,48.2811927795,100.134788513,0
13.200000000000001,15.085466119586625,0.9774831917436116,398.7148482740717,0.49391346767992,122.93903365537481,8.983642322266899,42.35829186467073,111.48108598427653,0
13.3,14.917953796872222,1.0981240015441425,398.77873874991474,0.48208142083390504,125.5420848924013,8.62541007996,40.1659088135,115.874511719,0
13.4,14.711717748892003,1.2376367545106994,398.92497601351334,0.4755001064576171,126.89997742098505,8.62541007996,40.1659088135,115.874511719,0
13.5,14.497215475482793,1.3811780387051433,399.08879157326675,0.47003964855792413,127.99207004245237,8.62541007996,40.1659088135,115.874511719,0
13.600000000000001,14.282713202073579,1.5247193228995894,399.2526071330202,0.4645791906582311,129.0841626639197,8.62541007996,40.1659088135,115.874511719,0
13.700000000000001,14.068721806818472,1.7068779444902393,399.43737781616073,0.460000008345,130.06404504508285,9.63606071472,26.6678562164,126.674438477,0
13.8,13.857384977562266,2.089695509895224,399.73103308870776,0.460000008345,130.46087354882346,9.63606071472,26.6678562164,126.674438477,0
13.9,13.64604814830606,2.4725130753002094,400.0246883612548,0.460000008345,130.8577020525641,9.63606071472,26.6678562164,126.674438477,0
14.0,13.434711319049853,2.855330640705194,400.3183436338018,0.460000008345,131.25453055630473,10.992074663806747,22.32565030592741,128.12637076397021,0
14.100000000000001,13.223374489793644,3.238148206110186,400.61199890634884,0.460000008345,131.65135906004534,13.2851200104,15.2199544907,130.643981934,0
14.200000000000001,13.030317799331296,3.559754317800158,400.90198498923604,0.4611675256740122,131.97664964506873,13.2851200104,15.2199544907,130.643981934,0
14.3,12.969519398578297,3.4384905875122476,401.1654241867574,0.47078212575674194,131.7843575746428,13.2851200104,15.2199544907,130.643981934,0
14.4,12.908720997825297,3.3172268572243366,401.4288633842787,0.48039672583947174,131.59206550421686,13.2851200104,15.2199544907,130.643981934,0
14.5,12.847922597072296,3.1959631269364257,401.6923025818001,0.49001132592220153,131.39977343379095,13.379566245071498,0.6131845599231838,132.44499827995182,0
14.600000000000001,12.787124196319295,3.0746993966485126,401.95574177932144,0.49962592600493144,131.20748136336502,13.3912334442,-1.18709003925,132.669143677,0
14.700000000000001,12.726325795566295,2.9534356663606016,402.2191809768428,0.5092405260876612,131.01518929293908,13.3912334442,-1.18709003925,132.669143677,0
14.8,12.779130482079168,2.086024550833629,402.4050202319815,0.5283363674777779,130.08318118568937,13.3912334442,-1.18709003925,132.669143677,0
14.9,12.841678384343654,1.1546197962968903,402.58420409597596,0.5482453714488974,129.08773102668596,13.3912334442,-1.18709003925,132.669143677,0
15.0,12.904226286608141,0.22321504176015194,402.76338795997043,0.5681543754200168,128.09228086768255,13.041588238351359,-2.229073266419337,132.50773571803285,0
15.100000000000001,13.059823855148169,0.15744725315438343,402.84087196998547,0.572099225445988,126.74045923950912,10.6045713425,-8.21872329712,131.379470825,0
15.200000000000001,13.224928726498412,0.18012548577832194,402.9079648486161,0.5744129460790175,125.35222553587178,10.6045713425,-8.21872329712,131.379470825,0
15.3,13.390033597848653,0.20280371840226047,402.97505772724674,0.576726666712047,123.96399183223444,10.6045713425,-8.21872329712,131.379470825,0
15.4,13.555138469198896,0.22548195102619897,403.0421506058774,0.5790403873450765,122.5757581285971,7.16846704483,-14.4679965973,128.551864624,0
15.5,13.745033420614744,0.1367333285346683,403.06872624393503,0.5762404960058761,121.248101821915,7.16846704483,-14.4679965973,128.551864624,0
15.600000000000001,13.952495780263929,-0.0309775662363298,403.06658947349086,0.5698168604582953,119.96337348719624,7.16846704483,-14.4679965973,128.551864624,0
15.700000000000001,14.159958139913112,-0.19868846100732496,403.06445270304675,0.5633932249107145,118.67864515247749,6.313948327336891,-14.552021809294086,127.39549318050027,0
15.8,14.367420499562295,-0.36639935577832006,403.06231593260264,0.5569695893631337,117.39391681775875,2.69274735451,-14.8996191025,122.495506287,0
15.9,14.574882859211478,-0.5341102505493152,403.06017916215853,0.5505459538155529,116.10918848304,2.69274735451,-14.8996191025,122.495506287,0
16.0,14.76360342473405,0.4361938491359515,403.0426422928635,0.5376046873786139,115.00837427303252,2.69274735451,-14.8996191025,122.495506287,0
16.1,14.950583183199164,1.5122009845320257,403.02367500551003,0.5240580393131341,113.92464268617742,2.69274735451,-14.8996191025,122.495506287,0
16.2,15.137562941664273,2.5882081199280615,403.0047077181566,0.5105113912476547,112.84091109932235,2.69274735451,-14.8996191025,122.495506287,0
16.3,15.312610985519303,3.2766993651540384,403.00516818561624,0.49604072333657695,111.60407234938923,0.192308992147,-19.0096969604,116.498191833,0
16.400000000000002,15.446338334603013,2.623185178635469,403.07290886828036,0.4783700843190557,109.83700851784843,0.192308992147,-19.0096969604,116.498191833,0
16.5,15.580065683686719,1.9696709921169224,403.1406495509445,0.460699445301535,108.06994468630771,0.192308992147,-19.0096969604,116.498191833,0
16.6,15.713793032770429,1.3161568055983528,403.2083902336086,0.44302880628401375,106.30288085476691,0.8706937741305527,-17.04270274054416,113.75795126622123,0
16.7,15.757460787765735,1.2554105425431277,403.3300435078125,0.439999997616,105.4565796613799,1.37101602554,-15.6038675308,111.733215332,0
16.8,15.782498817330444,1.317284237638606,403.4628491393837,0.439999997616,104.80074740480289,1.37101602554,-15.6038675308,111.733215332,0
16.900000000000002,15.807536846895152,1.3791579327340844,403.595654770955,0.439999997616,104.14491514822588,1.37101602554,-15.6038675308,111.733215332,0
17.0,15.83257487645986,1.4410316278295607,403.7284604025262,0.439999997616,103.48908289164889,2.61732721329,-14.8614997864,106.242576599,0
17.1,15.857612906024569,1.5029053229250393,403.86126603409747,0.439999997616,102.83325063507189,2.61732721329,-14.8614997864,106.242576599,0
17.2,15.882650935589275,1.5647790180205154,403.9940716656687,0.439999997616,102.17741837849489,2.61732721329,-14.8614997864,106.242576599,0
17.3,15.881985714391083,1.581754317651162,404.1483436688893,0.439999997616,101.35151749990538,2.61732721329,-14.8614997864,106.242576599,0
17.400000000000002,15.871788518303948,1.582079179480282,404.31057641285076,0.439999997616,100.46254717343261,2.61732721329,-14.8614997864,106.242576599,0
17.5,15.86159132221681,1.582404041309402,404.47280915681216,0.439999997616,99.57357684695988,2.61732721329,-14.8614997864,106.242576599,0
17.6,15.851394126129673,1.582728903138522,404.63504190077356,0.439999997616,98.68460652048711,3.65095472336,-9.00026702881,102.057441711,0
17.7,15.842817929191794,1.6246321368238412,404.7849982034533,0.4407148117665776,97.85703703354069,3.65095472336,-9.00026702881,102.057441711,0
17.8,15.839671982399889,1.8058204280892416,404.8938291624879,0.44382421054559146,97.23515668465063,3.65095472336,-9.00026702881,102.057441711,0
17.900000000000002,15.836526035607983,1.9870087193546422,405.0026601215225,0.4469336093246053,96.61327633576057,3.65095472336,-9.00026702881,102.057441711,0
18.0,15.833762316720321,2.154988973104638,405.1111995357113,0.449999988079,95.99581328296553,3.293816526527678,-5.508891286618638,100.50857838973423,0
18.1,15.858243015642442,1.3815275149286663,405.1989582337333,0.449999988079,95.69320599832638,2.833070755,-1.20766341686,98.5087127686,0
18.2,15.882723714564563,0.6080660567527221,405.2867169317553,0.449999988079,95.39059871368725,2.833070755,-1.20766341686,98.5087127686,0
18.3,15.907204413486681,-0.1653954014232495,405.3744756297773,0.449999988079,95.0879914290481,2.736132479131117,-0.8036648718059995,98.38847536136018,0
18.400000000000002,15.963399406758182,-0.41538416251883636,405.38915712609577,0.4512041250724934,95.24082691063887,1.5100697279,4.28429841995,96.7947463989,0
18.5,16.032597102338734,-0.4507517319185937,405.3738773346472,0.4529019522201247,95.58039165200321,1.5100697279,4.28429841995,96.7947463989,0
18.6,16.101794797919293,-0.48611930131835224,405.3585975431986,0.454599779367756,95.91995639336757,1.5100697279,4.28429841995,96.7947463989,0
18.7,16.170992493499845,-0.5214868707181096,405.34331775175,0.45629760651538726,96.25952113473191,-0.026408072561,4.22059583664,95.1403808594,0
18.8,16.2401901890804,-0.5568544401178681,405.32803796030146,0.45799543366301854,96.59908587609627,-0.026408072561,4.22059583664,95.1403808594,0
18.900000000000002,16.30938788466096,-0.5922220095176267,405.3127581688529,0.4596932608106499,96.93865061746064,-0.026408072561,4.22059583664,95.1403808594,0
19.0,16.389597208023496,-0.7495362745420274,405.2056310445359,0.4575151657419845,97.0,-0.026408072561,4.22059583664,95.1403808594,0
19.1,16.472234709930994,-0.9337410552837737,405.07825062729086,0.45448238948050246,97.0,-0.026408072561,4.22059583664,95.1403808594,0
19.200000000000003,16.554872211838493,-1.11794583602552,404.95087021004576,0.4514496132190204,97.0,-0.026408072561,4.22059583664,95.1403808594,0
19.3,16.637038722755932,-1.2409070718162443,404.80535228864244,0.4460635600248549,97.19682159041601,-3.83356571198,5.01313209534,97.4815597534,0
19.400000000000002,16.718773966960647,-1.3077901599043047,404.643226614733,0.43852270975743257,97.57386446337291,-3.83356571198,5.01313209534,97.4815597534,0
19.5,16.80050921116536,-1.3746732479923627,404.4811009408235,0.4309818594900105,97.9509073363298,-3.83356571198,5.01313209534,97.4815597534,0
19.6,16.860721490857102,-1.6536073187271485,404.3563878745066,0.4211198547449101,98.59201013699706,-3.456303663517834,6.614707075452298,97.63839585501249,0
19.700000000000003,16.917711880066392,-1.9642844628835143,404.23727530640423,0.4109103836684203,99.27264151502993,-3.39887976646,6.85802984238,97.6626358032,0
19.8,16.974702269275678,-2.2749616070398693,404.1181627383018,0.4007009125919309,99.95327289306279,-3.39887976646,6.85802984238,97.6626358032,0
19.900000000000002,16.96215248810902,-1.9574648882634622,404.00418449039813,0.4018241992368016,100.0,-2.580108881,5.05124998093,98.0427627563,0
20.0,16.94447667904548,-1.593663469224226,403.8905847096226,0.4037828596219757,100.0,-2.580108881,5.05124998093,98.0427627563,0
20.1,16.92680086998194,-1.2298620501849769,403.776984928847,0.40574152000714986,100.0,-2.580108881,4.96864114823176,98.0427627563,0
20.200000000000003,16.9091250609184,-0.8660606311457277,403.6633851480714,0.407700180392324,100.0,-1.90000367165,2.80194950104,100.3751297,0
20.3,16.89144925185486,-0.5022592121064915,403.5497853672959,0.4096588407774981,100.0,-1.90000367165,2.80194950104,100.3751297,0
20.400000000000002,16.830724644514444,-0.9114735734487565,403.4851737113968,0.4075096159205699,99.75096171217407,-1.90000367165,2.80194950104,100.3751297,0
20.5,16.760920409611803,-1.4837283834568258,403.4308943747877,0.40449397737592957,99.44939757013849,-1.90000367165,2.80194950104,100.3751297,0
20.6,16.69111617470916,-2.0559831934649155,403.37661503817867,0.4014783388312892,99.14783342810287,-1.90000367165,2.80194950104,100.3751297,0
20.700000000000003,16.61293517636388,-2.112404551313632,403.3537715664199,0.40094188806667874,99.09418830048584,1.90101540089,6.69745492935,100.401809692,0
20.8,16.526698756792406,-1.6727804175878762,403.3611580438191,0.4027895206062865,99.27895173063702,1.90101540089,6.69745492935,100.401809692,0
20.900000000000002,16.44046233722093,-1.2331562838621046,403.36854452121827,0.4046371531458943,99.46371516078821,1.90101540089,6.69745492935,100.401809692,0
21.0,16.354225917649455,-0.7935321501363488,403.3759309986175,0.40648478568550206,99.64847859093939,3.91614222527,5.16969156265,99.359916687,0
21.1,16.267989498077977,-0.35390801641057745,403.3833174760167,0.4083324182251099,99.83324202109058,3.91614222527,5.16969156265,99.359916687,0
21.200000000000003,16.18184111804015,0.05718500267612212,403.3944824074851,0.409999996424,100.03212718490076,3.91614222527,5.16969156265,99.359916687,0
21.3,16.096508118550084,0.20403632354830753,403.4406415946111,0.409999996424,100.3618011710541,3.91614222527,5.16969156265,99.359916687,0
21.400000000000002,16.01117511906001,0.35088764442049813,403.48680078173714,0.409999996424,100.69147515720744,3.91614222527,5.16969156265,99.359916687,0
21.5,15.926091346168365,0.49244133065606965,403.53383163147794,0.41034843581144304,100.98257803997386,4.182915274535291,4.538920670835253,99.5935809980518,0
21.6,15.844643304321998,0.5567128373937651,403.5935783424058,0.4157799277556623,100.711003588449,5.14159822464,2.5553612709,100.769393921,0
21.700000000000003,15.763195262475634,0.6209843441314604,403.6533250533337,0.4212114196998816,100.43942913692416,5.14159822464,2.5553612709,100.769393921,0
21.8,15.681747220629271,0.6852558508691536,403.7130717642616,0.4266429116441006,100.16785468539932,5.135147491619608,2.7801509668786384,100.79288679647583,0
21.900000000000002,15.610861316263385,0.7131968325866634,403.76797016579025,0.4325672782599457,100.08557570016465,5.06287193298,5.2963385582,101.060890198,0
22.0,15.557068626914825,0.6823423785308694,403.8150223150631,0.43928928765920094,100.3096426712369,5.06287193298,5.2963385582,101.060890198,0
22.1,15.503275937566261,0.6514879244750743,403.86207446433605,0.44601129705845644,100.53370964230915,5.06287193298,5.2963385582,101.060890198,0
22.200000000000003,15.4494832482177,0.6206334704192792,403.909126613609,0.4527333064577119,100.75777661338141,5.132986942660938,8.599893394784036,100.29739527295915,0
22.3,15.39569055886914,0.5897790163634852,403.95617876288185,0.4594553158569672,100.98184358445366,5.14282798767,9.05361747742,100.190040588,0
22.400000000000002,15.368681530725864,0.27516552722069837,403.96247164256516,0.46247777375910726,101.74333033314633,5.14282798767,9.05361747742,100.190040588,0
22.5,15.344034184728768,-0.0644687625454855,403.965170523708,0.46517401917473744,102.55220472925889,5.14282798767,9.05361747742,100.190040588,0
22.6,15.31938683873167,-0.40410305231168153,403.96786940485083,0.4678702645903677,103.36107912537148,4.665713172676177,11.499289105609572,100.75695412287307,0
22.700000000000003,15.303385415669533,-0.6837655411320586,403.95710876462135,0.47085944390332474,104.21486115856892,3.76152086258,15.6466331482,101.832267761,0
22.8,15.319887353498874,-0.7379708862653827,403.8957485893414,0.474949874783499,105.23746833003487,3.76152086258,15.6466331482,101.832267761,0
22.900000000000002,15.336389291328215,-0.7921762313987089,403.83438841406144,0.4790403056636734,106.26007550150084,3.76152086258,15.6466331482,101.832267761,0
23.0,15.352891229157557,-0.846381576532033,403.7730282387815,0.4831307365438476,107.28268267296679,2.805412643173091,19.886036647682072,103.53262872632682,0
23.1,15.369393166986898,-0.9005869216653591,403.7116680635016,0.487221167424022,108.30528984443275,2.1693379879,22.6729183197,104.664123535,0
23.200000000000003,15.390956742912199,-0.9315063038675446,403.6323175220737,0.4908370514194924,109.502225608468,2.1693379879,22.6729183197,104.664123535,0
23.3,15.423244330397749,-0.9130900893852463,403.5148510800451,0.49344752053128943,111.06850856931028,2.1693379879,22.6729183197,104.664123535,0
23.400000000000002,15.455531917883299,-0.8946738749029473,403.3973846380165,0.49605798964308656,112.63479153015263,2.1693379879,22.6729183197,104.664123535,0
23.5,15.487819505368849,-0.8762576604206488,403.2799181959879,0.49866845875488364,114.20107449099491,0.668851912022,27.3395690918,109.668891907,0
23.6,15.52231945373212,-0.9853159283138895,403.1518950433544,0.4989015056598784,115.87879631020533,0.668851912022,27.3395690918,109.668891907,0
23.700000000000003,15.559122776534645,-1.2270928079482402,403.0128808911897,0.4966593263946679,117.67254143306842,0.668851912022,27.3395690918,109.668891907,0
23.8,15.595926099337168,-1.4688696875825822,402.87386673902495,0.49441714712945756,119.46628655593145,0.668851912022,27.3395690918,109.668891907,0
23.900000000000002,15.632729422139693,-1.7106465672169329,402.73485258686026,0.49217496786424714,121.26003167879452,-0.163141101599,30.5117702484,115.511077881,0
24.0,15.66859720782951,-1.9413705712460176,402.5970044514808,0.48968068555434896,123.05747830317321,-0.163141101599,30.5117702484,115.511077881,0
24.1,15.674195343981781,-1.8144746942371728,402.4968832207491,0.47902951592657783,124.97468837907078,-0.163141101599,30.5117702484,115.511077881,0
24.200000000000003,15.679793480134052,-1.6875788172283277,402.3967619900174,0.4683783462988067,126.89189845496837,-0.163141101599,30.5117702484,115.511077881,0
24.3,15.685391616286323,-1.560682940219487,402.29664075928576,0.4577271766710359,128.80910853086587,-0.11582648286877674,30.65351393028761,115.85199556869252,0
24.400000000000002,15.690989752438593,-1.4337870632106422,402.19651952855406,0.4470760070432648,130.72631860676344,0.880246281624,33.3913040161,123.165184021,0
24.5,15.678938163940746,-1.2662396171565764,402.1159927813304,0.4380892670078691,132.70060119514412,0.880246281624,33.3913040161,123.165184021,0
24.6,15.631953981934165,-1.0182339903036635,402.07424772282826,0.4323967903973674,134.78784253606167,0.880246281624,33.3913040161,123.165184021,0
24.700000000000003,15.584969799927586,-0.7702283634507506,402.0325026643261,0.4267043137868657,136.87508387697926,0.880246281624,33.3913040161,123.165184021,0
24.8,15.537985617921008,-0.5222227365978466,401.990757605824,0.4210118371763642,138.96232521789673,1.93785738945,33.4076576233,132.307846069,0
24.900000000000002,15.491001435914427,-0.27421710974493374,401.94901254732184,0.4153193605658625,141.04956655881432,1.93785738945,33.4076576233,132.307846069,0
25.0,15.44169680220426,-0.01303813953252074,401.9117374902952,0.4101576380199139,143.1418775716312,1.93785738945,33.4076576233,132.307846069,0
25.1,15.359310112485565,0.43594964487103477,401.9381900423984,0.41256273346165995,145.30646553357013,1.93785738945,33.4076576233,132.307846069,0
25.200000000000003,15.276923422766867,0.8849374292745902,401.9646425945016,0.414967828903406,147.4710534955091,1.93785738945,33.4076576233,132.307846069,0
25.3,15.194536733048174,1.3339252136781297,401.9910951466048,0.41737292434515194,149.63564145744797,2.175374306609683,33.40468853858808,133.96038589183613,0
25.400000000000002,15.112150043329477,1.7829129980816854,402.017547698708,0.41977801978689794,151.80022941938694,3.55882692337,33.3877372742,143.563644409,0
25.5,15.003669802523762,1.6322003021298455,402.09776213730186,0.419999986887,153.601228608271,3.55882692337,33.3877372742,143.563644409,0
25.6,14.89253652948184,1.4205137394496363,402.18344275477887,0.419999986887,155.3652603206925,3.55882692337,33.3877372742,143.563644409,0
25.700000000000003,14.781403256439916,1.2088271767694274,402.26912337225593,0.419999986887,157.12929203311398,3.55882692337,33.3877372742,143.563644409,0
25.8,14.670269983397997,0.9971406140892258,402.35480398973294,0.419999986887,158.89332374553538,4.99279689789,31.4455928802,152.241668701,0
25.900000000000002,14.551045943035536,1.1843564920024763,402.4645847219283,0.41756740428145056,160.45955095530343,4.99279689789,31.4455928802,152.241668701,0
26.0,14.431301137649891,1.3972478627950542,402.5759166663021,0.41497824765927127,162.0130464101796,4.99279689789,31.4455928802,152.241668701,0
26.1,14.311556332264239,1.6101392335876397,402.68724861067585,0.4123890910370919,163.56654186505583,5.049985831671662,31.223745477578408,152.63492237883403,0
26.200000000000003,14.193239990329175,1.7943388699208573,402.7998930125514,0.41030983279683286,165.07745905165532,6.02933454514,27.4250392914,159.328765869,0
26.3,14.091982031194332,1.6359083959707295,402.9282104808021,0.4143196640495106,166.07991632705654,6.02933454514,27.4250392914,159.328765869,0
26.400000000000002,13.990724072059486,1.4774779220205958,403.0565279490528,0.41832949530218844,167.0823736024578,6.02933454514,27.4250392914,159.328765869,0
26.5,13.88946611292464,1.319047448070468,403.18484541730345,0.42233932655486617,168.08483087785902,6.128005188171374,24.199026612142614,163.890198834687,0
26.6,13.788208153789794,1.1606169741203345,403.31316288555416,0.426349157807544,169.08728815326026,6.15140390396,23.4389438629,165.158859253,0
26.700000000000003,13.688756676995641,1.0054137583509348,403.4423236165741,0.430256895623758,170.07706661472582,6.15140390396,23.4389438629,165.158859253,0
26.8,13.607677142459353,0.8830317883873005,403.58006033782414,0.4331263422386858,170.9379014201823,6.15140390396,23.4389438629,165.158859253,0
26.900000000000002,13.526597607923062,0.7606498184236619,403.71779705907426,0.4359957888536136,171.79873622563883,6.15140390396,23.4389438629,165.158859253,0
27.0,13.445518073386772,0.6382678484600276,403.8555337803244,0.4388652354685414,172.6595710310953,5.703610002470987,18.35671814489071,169.60135632729748,0
27.1,13.384145183738653,0.6387036273731671,403.96835886961554,0.4412686114419283,173.25372300716128,5.56423616409,16.7747097015,170.997711182,0
27.200000000000003,13.335663603773575,0.7194819325929949,404.06488775201234,0.4433671023875304,173.67342159654825,5.56423616409,16.7747097015,170.997711182,0
27.3,13.2871820238085,0.8002602378128197,404.1614166344091,0.4454655933331324,174.0931201859352,5.56423616409,16.7747097015,170.997711182,0
27.400000000000002,13.238700443843422,0.8810385430326475,404.2579455168059,0.44756408427873445,174.51281877532216,5.132252347881485,13.406007487171282,172.71918684587578,0
27.5,13.190218863878346,0.9618168482524725,404.3544743992026,0.4496625752243365,174.9325173647091,4.89938259125,11.6330022812,173.651184082,0
27.6,13.172324796288628,0.6894620391215637,404.4239506867798,0.449999988079,175.28397303325085,4.89938259125,11.6330022812,173.651184082,0
27.700000000000003,13.16029112746301,0.3494488718506161,404.48824384631104,0.449999988079,175.62235373433288,4.89938259125,11.6330022812,173.651184082,0
27.8,13.148257458637394,0.009435704579680682,404.55253700584234,0.449999988079,175.9607344354149,4.688263181267746,11.003241883846629,173.8638469233081,0
27.900000000000002,13.158273885483869,0.24645008593135,404.5683885538905,0.449999988079,176.20973006867558,3.1373603344,6.44236946106,175.430511475,0
28.0,13.171184881511492,0.5592122637441315,404.57788105489544,0.449999988079,176.44699190874013,3.1373603344,6.44236946106,175.430511475,0
28.1,13.184095877539116,0.871974441556924,404.58737355590046,0.449999988079,176.6842537488047,3.1373415119718397,6.44236946106,175.430511475,0
28.200000000000003,13.197006873566743,1.1847366193697164,404.59686605690547,0.449999988079,176.92151558886925,1.71894574165,3.38831806183,176.438995361,0
28.3,13.221314027339066,0.9330727422647463,404.5755441592679,0.45152882772229186,177.15288365449518,1.71894574165,3.38831806183,176.438995361,0
28.400000000000002,13.251254354137,0.40241047826980003,404.5389905630946,0.45381337981112996,177.3813384003926,1.71894574165,3.38831806183,176.438995361,0
28.5,13.281194680934934,-0.12825178572512752,404.50243696692127,0.45609793189996795,177.60979314629,1.71894574165,3.38831806183,176.438995361,0
28.6,13.311135007732869,-0.6589140497200738,404.465883370748,0.458382483988806,177.8382478921874,0.149806961417,1.52786278725,177.867736816,0
28.700000000000003,13.343573008631989,-0.9999751553151451,404.4101262125032,0.46072868964160363,177.92713180084525,0.149806961417,1.52786278725,177.867736816,0
28.8,13.382067802217197,-0.881258538537725,404.3078009314412,0.46322440353291977,177.67756017369715,0.149806961417,1.52786278725,177.867736816,0
28.900000000000002,13.420562595802407,-0.7625419217603004,404.2054756503792,0.4657201174242361,177.42798854654907,0.149806961417,1.52786278725,177.867736816,0
29.0,13.459057389387615,-0.6438253049828803,404.1031503693171,0.4682158313155522,177.178416919401,-0.9285277344839368,3.096537873929533,178.09340450765322,0
29.1,13.501640078241097,-0.6725493701022015,403.99558629951906,0.4692352985148424,177.0,-0.996686935425,3.18956923485,178.108337402,0
29.200000000000003,13.55447296281166,-1.070973671387157,403.8748862254104,0.4665531499615482,177.0,-0.996686935425,3.18956923485,178.108337402,0
29.3,13.60730584738222,-1.4693979726720985,403.7541861513018,0.463871001408254,177.0,-0.996686935425,3.18956923485,178.108337402,0
29.400000000000002,13.660138731952781,-1.867822273957054,403.63348607719314,0.46118885285495975,177.0,-0.9317252260766866,3.13330793381,177.50906008170048,0
29.5,13.695448887138639,-1.656009015470226,403.54483370009797,0.4560939745873821,177.0,-0.931622624397,3.13330793381,177.505889893,0
29.6,13.71680890221639,-0.9583753536005624,403.48169503457495,0.449078281541564,177.0,-0.931622624397,3.13330793381,177.505889893,0
29.700000000000003,13.738168917294145,-0.2607416917308987,403.41855636905194,0.4420625884957458,177.0,-0.931622624397,3.13330793381,177.505889893,0
29.8,13.759528932371898,0.43689197013874015,403.35541770352893,0.4350468954499279,177.0,-0.211775034666,2.16632843018,177.899719238,0
29.900000000000002,13.767159876903174,0.8056681313398835,403.3259493952384,0.4274813284262242,176.91604404577944,-0.211775034666,2.16632843018,177.899719238,0
30.0,13.739597344017367,0.3314419214748121,403.382792607664,0.4185061993089002,176.616873087099,-0.211775034666,2.16632843018,177.899719238,0
30.1,13.712034811131561,-0.14278428839027602,403.43963582008956,0.40953107019157586,176.31770212841857,-0.211775034666,2.16632843018,177.899719238,0
30.200000000000003,13.684472278245753,-0.617010498255364,403.4964790325152,0.4005559410742515,176.01853116973814,1.4411243048464986,2.7168468072480185,177.60278736981658,0
30.3,13.629898304864154,-0.05536627036569619,403.6259525889192,0.4021716505271575,176.43432932760794,1.93543827534,2.87066793442,177.504379272,0
30.400000000000002,13.573540715586226,0.574678418417609,403.7602220626715,0.404486692843567,176.89733823241514,1.93543827534,2.87066793442,177.504379272,0
30.5,13.5171831263083,1.204723107200892,403.8944915364238,0.40680173515997636,177.3603471372223,2.1732161107534056,2.894422094837857,177.34524051910319,0
30.6,13.460825537030374,1.834767795984197,404.0287610101761,0.40911677747638586,177.8233560420295,3.55135297775,3.03192663193,176.41078186,0
30.700000000000003,13.417556789776931,1.9701426795751118,404.1360503539085,0.41533923240787524,178.26696185488868,3.55135297775,3.03192663193,176.41078186,0
30.8,13.38236188286602,1.8003809420714296,404.22669702888584,0.42397197127032743,178.69859888806155,3.55135297775,3.03192663193,176.41078186,0
30.900000000000002,13.347166975955107,1.6306192045677417,404.31734370386323,0.43260471013277996,179.13023592123446,3.55135297775,3.03192663193,176.41078186,0
31.0,13.311972069044193,1.4608574670640597,404.40799037884057,0.4412374489952322,179.56187295440736,2.76877331734,1.94169664383,178.576812744,0
31.1,13.27677716213328,1.2910957295603716,404.4986370538179,0.44987018785768473,179.99350998758027,2.76877331734,1.94169664383,178.576812744,0
31.200000000000003,13.302655572168673,0.9457060184428119,404.5025291425972,0.45760319434583757,179.74655980117544,2.76877331734,1.94169664383,178.576812744,0
31.3,13.329466286950773,0.5976352871737202,404.50509689340777,0.46532246611635464,179.48925075238196,2.76877331734,1.94169664383,178.576812744,0
31.400000000000002,13.356277001732874,0.24956455590461601,404.5076646442183,0.4730417378868719,179.23194170358846,2.76877331734,1.94169664383,178.576812744,0
31.5,13.386861408637577,-0.10861793341070414,404.50628898816456,0.479999989271,179.0,1.57470834255,2.63455724716,-179.744216919,0
31.6,13.45194988258835,-0.5592554419075859,404.46885750921507,0.479999989271,179.0,1.57470834255,2.63455724716,-179.744216919,0
31.700000000000003,13.517038356539123,-1.0098929504044676,404.4314260302655,0.479999989271,179.0,1.57470834255,2.63455724716,-179.744216919,0
31.8,13.582126830489893,-1.4605304589013333,404.393994551316,0.479999989271,179.0,1.1962640530489592,2.6334418944059688,-82.52839388521814,0
31.900000000000002,13.647215304440666,-1.911167967398215,404.3565630723665,0.479999989271,179.0,0.177932620049,2.63060379028,179.147003174,0
32.0,13.721805133140204,-1.9374523969846098,404.26949386871536,0.47701810466026323,179.0,0.177932620049,2.63060379028,179.147003174,0
32.1,13.798412810263898,-1.8736149214106086,404.17188286263547,0.47340294286728457,179.0,0.177932620049,2.63060379028,179.147003174,0
32.2,13.87502048738759,-1.8097774458366074,404.0742718565555,0.46978778107430585,179.0,0.177932620049,2.63060379028,179.147003174,0
32.300000000000004,13.951628164511284,-1.7459399702626064,403.97666085047564,0.4661726192813272,179.0,-1.38358128071,3.53005242348,179.240249634,0
32.4,14.028235841634972,-1.6821024946886096,403.87904984439575,0.46255745748834876,179.0,-1.38358128071,3.53005242348,179.240249634,0
32.5,14.094960773954146,-1.5665532709490468,403.7904481367452,0.458651811329492,179.0,-1.38358128071,3.53005242348,179.240249634,0
32.6,14.13779016409266,-1.3259699312864581,403.72363006055514,0.454043801449325,179.0,-1.38358128071,3.53005242348,179.240249634,0
32.7,14.180619554231175,-1.0853865916238696,403.65681198436505,0.449435791569158,179.0,-1.38358128071,3.53005242348,179.240249634,0
32.800000000000004,14.22344894436969,-0.844803251961281,403.58999390817496,0.444827781688991,179.0,-1.05101966858,3.7598721981,179.695678711,0
32.9,14.2662783345082,-0.6042199122987095,403.5231758319849,0.4402197718088244,179.0,-1.05101966858,3.7598721981,179.695678711,0
33.0,14.272356791336865,-0.5006334907886949,403.51471009448824,0.4373590897266712,179.2640910407965,-1.05101966858,3.7598721981,179.695678711,0
33.1,14.27659466637385,-0.40390822926451486,403.50916679303407,0.43458591833987925,179.54140844395332,-1.05101966858,3.7598721981,179.695678711,0
33.2,14.280832541410835,-0.30718296774033493,403.50362349157996,0.43181274695308725,179.8187258471101,-0.6187372084730016,3.835383781671853,179.76471188559495,0
33.300000000000004,14.27426311426994,-0.2584062131829487,403.5292335461307,0.4237356482731986,180.0,0.609674930573,4.04971837997,179.961090088,0
33.4,14.247295746181871,-0.3001285302269906,403.61364313322287,0.4056478000156619,180.0,0.609674930573,4.04971837997,179.961090088,0
33.5,14.2203283780938,-0.34185084727103543,403.69805272031505,0.38755995175812397,180.0,0.609674930573,4.04971837997,179.961090088,0
33.6,14.19250545081974,-0.3631979461758768,403.78466196289764,0.36983346167065717,180.01665430080092,1.6283385753971271,2.4214193722625637,-149.7146514647455,0
33.7,14.136223463338295,0.29321000595245345,403.94443987582343,0.36412707970299474,180.587292191477,1.72118210793,2.27325439453,-179.895217896,0
33.800000000000004,14.07994147585685,0.9496179580807838,404.10421778874917,0.3584206977353323,181.15793008215306,1.72118210793,2.27325439453,-179.895217896,0
33.9,14.023659488375412,1.6060259102090673,404.26399570167496,0.3527143157676703,181.7285679728291,1.8899282814354708,1.4939505700849298,-179.72081386529413,0
34.0,13.959953873453394,2.0264183371894045,404.4139016231732,0.35307950787813525,182.15397560931424,2.46570801735,-1.13055956364,-179.058624268,0
34.1,13.889513730599502,2.232703421204477,404.5548519225657,0.3589526791466216,182.4476340152202,2.46570801735,-1.13055956364,-179.058624268,0
34.2,13.81907358774561,2.4389885052195495,404.6958022219583,0.364825850415108,182.74129242112613,2.46570801735,-1.13055956364,-179.058624268,0
34.300000000000004,13.751908531484533,2.559568209905131,404.8317009270078,0.3718036478671414,183.03006071712412,2.6325883835443844,0.5121324676922869,-178.1394564172614,0
34.4,13.708985812100098,2.045752878317723,404.930207505664,0.3869579375447707,183.28263220171155,2.74064064026,1.5405766964,-177.541473389,0
34.5,13.666063092715659,1.5319375467302776,405.0287140843202,0.40211222722240114,183.535203686299,2.74064064026,1.5405766964,-177.541473389,0
34.6,13.623140373331221,1.0181222151428326,405.1272206629764,0.41726651690003164,183.78777517088648,2.668175285737675,3.0799597714233635,-176.83843860666988,0
34.7,13.59079291936861,0.5735949659553383,405.2149565080436,0.43124147761091725,184.0,2.62107610703,4.07942676544,-176.324310303,0
34.800000000000004,13.614071734067315,0.4935254710528002,405.24603791500385,0.4390131264116538,184.0,2.62107610703,4.07942676544,-176.324310303,0
34.9,13.637350548766015,0.4134559761502678,405.27711932196416,0.4467847752123898,184.0,2.62107610703,4.07942676544,-176.324310303,0
35.0,13.676320663246278,0.19485148344964925,405.27630571119016,0.4513675563089216,184.13675654584134,1.317916508819634,6.904220612347398,-175.79708277878518,0
35.1,13.726363218924195,-0.12150913132439778,405.2529856342039,0.4537001382101381,184.3700142632429,1.01495146751,7.36291313171,-175.672363281,0
35.2,13.776405774602114,-0.43786974609844476,405.2296655572177,0.45603272011135465,184.60327198064448,1.01495146751,7.36291313171,-175.672363281,0
35.300000000000004,13.826448330280034,-0.7542303608724917,405.20634548023145,0.4583653020125712,184.83652969804604,-0.274583756924,6.35605144501,-175.454299927,0
35.4,13.88790861168767,-1.030375296937434,405.15553455153423,0.45936172290234323,184.87234317017797,-0.274583756924,6.35605144501,-175.454299927,0
35.5,13.97611381638406,-1.2123188773611926,405.04032894936563,0.45722831526072333,184.44566250656504,-0.274583756924,6.35605144501,-175.454299927,0
35.6,14.06431902108045,-1.3942624577849512,404.925123347197,0.4550949076191035,184.0189818429521,-0.274583756924,6.35605144501,-175.454299927,0
35.7,14.15252422577684,-1.5762060382087095,404.8099177450284,0.4529614999774836,183.59230117933916,-2.64332771301,3.45900058746,-174.839065552,0
35.800000000000004,14.240729430473232,-1.758149618632468,404.6947121428597,0.45082809233586374,183.1656205157262,-2.64332771301,3.45900058746,-174.839065552,0
35.9,14.320585228520352,-1.831387941081891,404.5754075015339,0.44670937627514323,182.89031294422966,-2.64332771301,3.45900058746,-174.839065552,0
36.0,14.395144036404666,-1.8356619998028174,404.4535023676215,0.44133115045428173,182.7110387573241,-2.64332771301,3.45900058746,-174.839065552,0
36.1,14.469702844288978,-1.8399360585237439,404.33159723370915,0.43595292463342017,182.53176457041857,-2.64332771301,3.45900058746,-174.839065552,0
36.2,14.54426165217329,-1.8442101172446705,404.2096920997968,0.4305746988125586,182.35249038351301,-3.29408288002,0.307442784309,-176.083694458,0
36.300000000000004,14.618820460057602,-1.848484175965597,404.08778696588445,0.42519647299169705,182.17321619660746,-3.29408288002,0.307442784309,-176.083694458,0
36.4,14.691898784806389,-1.836482929101824,403.96762952511057,0.41983057946117514,181.99152962063098,-3.29408288002,0.307442784309,-176.083694458,0
36.5,14.722645635707055,-1.3591216546906504,403.8974438973283,0.4148173032712068,181.7408655720868,-3.29408288002,0.307442784309,-176.083694458,0
36.6,14.75339248660772,-0.8817603802794766,403.82725826954606,0.4098040270812385,181.4902015235426,-3.29408288002,0.307442784309,-176.083694458,0
36.7,14.784139337508385,-0.40439910586830274,403.75707264176384,0.4047907508912702,181.23953747499843,-3.092399153681753,0.18020213441650543,-176.29522932341536,0
36.800000000000004,14.812969785601558,0.043161429457148265,403.68978293050475,0.40000000596,180.9890351829303,-2.15493679047,-0.368011981249,-177.278915405,0
36.9,14.800543121817581,-0.15084066582602773,403.68483770732286,0.40000000596,180.74201525114893,-2.15493679047,-0.368011981249,-177.278915405,0
37.0,14.788116458033604,-0.3448427611092176,403.6798924841409,0.40000000596,180.49499531936752,-2.15493679047,-0.368011981249,-177.278915405,0
37.1,14.775689794249628,-0.5388448563924073,403.674947260959,0.40000000596,180.24797538758614,-1.9876855116318615,-0.3216010513896533,-177.39572426993317,0
37.2,14.763263130465651,-0.7328469516755971,403.67000203777707,0.40000000596,180.00095545580473,-0.241355508566,0.162734493613,-178.634002686,0
37.300000000000004,14.720760163098461,-0.44871946731187545,403.7167995612081,0.40000000596,180.0,-0.241355508566,0.162734493613,-178.634002686,0
37.4,14.678140410979111,-0.1627354301870636,403.7637979990841,0.40000000596,180.0,-0.241355508566,0.162734493613,-178.634002686,0
37.5,14.635520658859758,0.12324860693776851,403.81079643696006,0.40000000596,180.0,-0.10455143763083666,0.201788778589331,-178.67332022338275,0
37.6,14.591195948451498,0.35186896934830725,403.86853120593094,0.40000000596,180.0,1.52628362179,0.655426681042,-179.142196655,0
37.7,14.544074119731103,0.48637970688493215,403.9438797713836,0.40000000596,180.0,1.52628362179,0.655426681042,-179.142196655,0
37.800000000000004,14.49695229101071,0.620890444421557,404.01922833683625,0.40000000596,180.0,1.52628362179,0.655426681042,-179.142196655,0
37.9,14.449830462290317,0.7554011819581725,404.09457690228885,0.40000000596,180.0,2.411818867480809,0.9499009142604813,-179.28748042369224,0
38.0,14.403100759567437,0.7992026822194719,404.16730278190806,0.4012363591613566,180.0,2.42796707153,0.955281555653,-179.290313721,0
38.1,14.357461309245123,0.5907996249665053,404.23273664430843,0.4059102223831429,180.0,2.42796707153,0.955281555653,-179.290313721,0
38.2,14.311821858922809,0.3823965677135387,404.2981705067088,0.41058408560492926,180.0,2.42796707153,0.955281555653,-179.290313721,0
38.300000000000004,14.266182408600494,0.1739935104605721,404.3636043691091,0.41525794882671563,180.0,2.3171790464836013,1.3005306802198815,-179.5787949867324,0
38.400000000000006,14.22054295827818,-0.034409546792394496,404.4290382315095,0.41993181204850194,180.0,2.27498316765,1.43198883533,-179.692276001,0
38.5,14.207514503386323,-0.08905881597531318,404.4276740133119,0.42463279035503065,180.46328009827644,2.27498316765,1.43198883533,-179.692276001,0
38.6,14.194968766638139,-0.14143217354680865,404.4253210290542,0.4293341700275161,180.93341781331964,2.27498316765,1.43198883533,-179.692276001,0
38.7,14.182423029889957,-0.19380553111830412,404.4229680447965,0.4340355497000016,181.4035555283628,2.0281326845851915,3.0862104201249427,-179.7496626910033,0
38.800000000000004,14.169877293141774,-0.24617888868979956,404.42061506053886,0.4387369293724871,181.87369324340597,1.59929633141,5.81189060211,-179.851119995,0
38.900000000000006,14.176244545185497,-0.31038555323617495,404.3739319061643,0.4421929897030782,182.65789825356103,1.59929633141,5.81189060211,-179.851119995,0
39.0,14.189559508635371,-0.3789391987249254,404.31096400526195,0.44519158032905615,183.557476299282,1.59929633141,5.81189060211,-179.851119995,0
39.1,14.202874472085245,-0.44749284421368063,404.2479961043596,0.44819017095503433,184.45705434500303,1.5870987952137923,5.837525543151578,-179.8347080384583,0
39.2,14.223944356178507,-0.4853863837337443,404.1714790663088,0.44893015699129124,185.3209496324023,0.0604534707963,9.05379676819,-177.719985962,0
39.300000000000004,14.256820516363582,-0.4766022468833324,404.07433449880455,0.44623158954715453,186.13052063773117,0.0604534707963,9.05379676819,-177.719985962,0
39.400000000000006,14.28969667654866,-0.46781811003292056,403.9771899313003,0.4435330221030178,186.94009164306004,0.0604534707963,9.05379676819,-177.719985962,0
39.5,14.322572836733734,-0.45903397318250927,403.88004536379606,0.44083445465888127,187.7496626483889,-1.32569313049,12.90721035,-174.481628418,0
39.6,14.353735926660791,-0.6539309896016654,403.7772611263159,0.439999997616,188.5897832809672,-1.32569313049,12.90721035,-174.481628418,0
39.7,14.384132171694544,-0.9400045654850596,403.67195232680996,0.439999997616,189.44357925788057,-1.32569313049,12.90721035,-174.481628418,0
39.800000000000004,14.414528416728297,-1.2260781413684538,403.56664352730405,0.439999997616,190.29737523479392,-1.32569313049,12.90721035,-174.481628418,0
39.900000000000006,14.444090265485855,-1.428530294519929,403.4605901316205,0.43922438370474304,191.23268404855372,-1.342021575992379,16.47087262386775,-172.34990990682974,0
40.0,14.469773945370985,-1.2423205996273352,403.3510759466205,0.43484381395478655,192.54685426855406,-1.35196566582,18.5785808563,-171.048736572,0
40.1,14.495457625256117,-1.0561109047347286,403.24156176162046,0.43046324420482973,193.8610244885545,-1.35196566582,18.5785808563,-171.048736572,0
40.2,14.52114130514125,-0.8699012098421217,403.13204757662044,0.4260826744548729,195.17519470855493,-0.9360926257541133,20.79562593333647,-169.56637809459576,0
40.300000000000004,14.54682498502638,-0.683691514949515,403.02253339162036,0.4217021047049161,196.48936492855537,-0.522888243198,22.971031189,-168.088256836,0
40.400000000000006,14.578137544905983,-0.6263981037949246,402.91779479544476,0.4216807063539201,197.84035803039046,-0.522888243198,22.971031189,-168.088256836,0
40.5,14.61302717735459,-0.6510291434565202,402.8160910175281,0.4244294989556762,199.21475154592264,-0.522888243198,22.971031189,-168.088256836,0
40.6,14.6479168098032,-0.6756601831181175,402.7143872396114,0.4271782915574326,200.5891450614549,-0.522888243198,22.971031189,-168.088256836,0
