t_sec,airspeed,climb,altitude,throttle,heading,pitch,roll,yaw,is_boundary
0.0,19.5370883942,6.91417980194,404.639984131,0.0,296.0,13.7238178253,15.6513271332,-69.9196472168,0
0.1,19.039324186697883,7.464146938766674,405.3593325915603,0.0,298.80265930265654,13.7238178253,15.6513271332,-69.9196472168,0
0.2,18.541559979195764,8.014114075593348,406.0786810521206,0.0,301.605318605313,13.7238178253,15.6513271332,-69.9196472168,0
0.30000000000000004,18.043795771693645,8.564081212420023,406.79802951268084,0.0,304.40797790796955,26.2848510742,33.8125534058,-63.3791427612,0
0.4,17.67959770442779,8.570619213831735,407.49095997018986,0.0,307.3057952242793,26.2848510742,33.8125534058,-63.3791427612,0
0.5,17.351169461983037,8.431623587169051,408.1768155257844,0.0,310.2290964354794,26.2848510742,33.8125534058,-63.3791427612,0
0.6000000000000001,17.02274121953829,8.292627960506367,408.86267108137895,0.0,313.15239764667956,27.469219587098465,37.03358730645676,-58.881744722914306,0
0.7000000000000001,16.69431297709354,8.153632333843683,409.54852663697346,0.0,316.07569885787973,28.6066226959,40.0989837646,-54.0639610291,0
0.8,16.41039708115062,7.96414485603274,410.1837451504776,0.0,318.8146341620526,28.6066226959,40.0989837646,-54.0639610291,0
0.9,16.21222207939084,7.677398599329163,410.72142521434193,0.0,321.19843883466575,28.6066226959,40.0989837646,-54.0639610291,0
1.0,16.014047077631062,7.390652342625587,411.2591052782063,0.0,323.58224350727886,28.6066226959,40.0989837646,-54.0639610291,0
1.1,15.815872075871287,7.10390608592201,411.7967853420707,0.0,325.966048179892,25.2235221863,47.3367881775,-41.6799468994,0
1.2000000000000002,15.647452306466505,6.5620283110493665,412.1880988741926,0.012319663432922274,328.23196637082873,25.2235221863,47.3367881775,-41.6799468994,0
1.3,15.501824263281431,5.8247264963725,412.4672994885123,0.034075865378873874,330.4075866140526,25.2235221863,47.3367881775,-41.6799468994,0
1.4000000000000001,15.356196220096354,5.087424681695631,412.7465001028321,0.05583206732482552,332.58320685727654,25.2235221863,47.3367881775,-41.6799468994,0
1.5,15.260107937521793,4.316390298309867,412.89590720600006,0.0863782405162433,334.6786153431713,18.7924442291,52.3362922668,-32.1081619263,0
1.6,15.175759201437474,3.5373622336120976,413.0145568541558,0.11900739260809108,336.75501587176836,18.7924442291,52.3362922668,-32.1081619263,0
1.7000000000000002,15.091410465353153,2.758334168914328,413.1332065023115,0.15163654469993887,338.83141640036536,14.505103802087756,52.26417054286427,-28.06255723864635,0
1.8,15.035703038277859,1.9489658981753664,413.1610345858587,0.17628184172753986,341.13073125650874,12.8959951401,52.2380218506,-26.5185585022,0
1.9000000000000001,15.0168640181602,1.1005423222772432,413.0719529847451,0.19064995423446532,343.7169916618965,12.8959951401,52.2380218506,-26.5185585022,0
2.0,14.998024998042544,0.25211874637912235,412.9828713836315,0.20501806674139073,346.3032520672842,12.8959951401,52.2380218506,-26.5185585022,0
2.1,14.979185977924885,-0.596304829519001,412.8937897825179,0.21938617924831616,348.88951247267187,5.22086858749,52.0970993042,-19.5587444305,0
2.2,15.02850219962636,-1.1078435305138874,412.6029612464079,0.21155806009770928,276.1882634333939,5.22086858749,52.0970993042,-19.5587444305,0
2.3000000000000003,15.080860018644689,-1.6043479053990684,412.30312925113924,0.20273937885896542,200.12712188097265,5.22086858749,52.0970993042,-19.5587444305,0
2.4000000000000004,15.133217837663018,-2.1008522802842493,412.00329725587056,0.19392069762022157,124.06598032855138,0.9069657306626082,51.79122485731591,-14.757932026996777,0
2.5,15.185575656681348,-2.597356655169428,411.7034652606019,0.18510201638147777,48.00483877613044,-3.760014534,51.4540901184,-9.56678295135,0
2.6,15.265721436631273,-3.1193397855058835,411.32725871051866,0.16783560218307383,5.520550513609869,-3.760014534,51.4540901184,-9.56678295135,0
2.7,15.384012749122666,-3.676298519038819,410.84621006449356,0.13897268137853092,9.128415358798026,-3.760014534,51.4540901184,-9.56678295135,0
2.8000000000000003,15.502304061614062,-4.233257252571755,410.3651614184685,0.11010976057398801,12.736280203986185,-3.760014534,51.4540901184,-9.56678295135,0
2.9000000000000004,15.620595374105456,-4.790215986104689,409.8841127724434,0.08124683976944509,16.344145049174344,-11.5263328552,47.2579269409,4.05006170273,0
3.0,15.737815905939712,-5.181387363010718,409.38786602575965,0.05729271604938264,19.947548934511165,-11.5263328552,47.2579269409,4.05006170273,0
3.1,15.852049243915642,-5.110056013328261,408.8492206116708,0.047032833446578604,23.53850792575949,-11.5263328552,47.2579269409,4.05006170273,0
3.2,15.966282581891575,-5.038724663645805,408.3105751975819,0.03677295084377456,27.129466917007814,-11.5263328552,47.2579269409,4.05006170273,0
3.3000000000000003,16.080515919867505,-4.967393313963348,407.771929783493,0.026513068240970522,30.72042590825614,-15.51674366,41.7355766296,19.836479187,0
3.4000000000000004,16.186516569504825,-5.095889792054948,407.22194677259006,0.019999999553,34.22379064428626,-15.51674366,41.7355766296,19.836479187,0
3.5,16.27820637642221,-5.571746026367107,406.65225567143096,0.019999999553,37.574890705882154,-15.51674366,41.7355766296,19.836479187,0
3.6,16.369896183339602,-6.047602260679268,406.0825645702718,0.019999999553,40.925990767478055,-15.51674366,41.7355766296,19.836479187,0
3.7,16.44979590821884,-6.2998404421603444,405.53461404409677,0.018614425700943217,44.24701649471943,-14.6303749084,43.8085517883,33.1911506653,0
3.8000000000000003,16.510548413148932,-6.188920502408536,405.0219704453626,0.0149786650210705,47.51920117973166,-14.6303749084,43.8085517883,33.1911506653,0
3.9000000000000004,16.57130091807902,-6.078000562656728,404.5093268466284,0.011342904341197783,50.79138586474389,-14.6303749084,43.8085517883,33.1911506653,0
4.0,16.59914440326442,-5.886914369811526,403.96525485331847,0.012288546482177679,54.517401432526334,-12.9024887085,42.1939697266,43.2826576233,0
4.1000000000000005,16.607713380754618,-5.648875545920758,403.40277554074476,0.015917473771435733,58.50922153991939,-12.9024887085,42.1939697266,43.2826576233,0
4.2,16.616282358244817,-5.41083672202999,402.840296228171,0.019546401060693754,62.501041647312405,-12.9024887085,42.1939697266,43.2826576233,0
4.3,16.592943555361916,-5.461092596226857,402.36592327091665,0.02928891913251569,65.78667593614388,-11.9036216736,38.7354354858,52.4466133118,0
4.4,16.565046698181153,-5.55253161987205,401.90413638348093,0.0399047689878716,68.97143096393789,-11.9036216736,38.7354354858,52.4466133118,0
4.5,16.537149841000385,-5.643970643517242,401.4423494960452,0.050520618843227415,72.15618599173187,-11.349968990932386,38.38723715193798,57.43953894221626,0
4.6000000000000005,16.504524254854598,-5.678017900803594,400.99396859096277,0.06027503882002775,75.3850561624643,-10.7132587433,37.9317016602,63.1900062561,0
4.7,16.432455994164304,-5.233356232547675,400.6574079663026,0.0628442091041284,78.9818939706475,-10.7132587433,37.9317016602,63.1900062561,0
4.800000000000001,16.36038773347401,-4.788694564291752,400.3208473416425,0.06541337938822905,82.57873177883076,-10.7132587433,37.9317016602,63.1900062561,0
4.9,16.288319472783716,-4.344032896035834,399.98428671698235,0.0679825496723297,86.17556958701397,-7.68279981613,38.5114440918,75.903427124,0
5.0,16.212263781650176,-3.9346075993769856,399.67601489401693,0.070000000298,89.67671378126613,-7.68279981613,38.5114440918,75.903427124,0
5.1000000000000005,16.12162741730765,-3.6540296962061745,399.4711855708909,0.070000000298,92.82793906589113,-7.68279981613,38.5114440918,75.903427124,0
5.2,16.030991052965124,-3.3734517930353656,399.2663562477648,0.070000000298,95.97916435051609,-7.68279981613,38.5114440918,75.903427124,0
5.300000000000001,15.940354688622598,-3.0928738898645545,399.06152692463877,0.070000000298,99.13038963514109,-4.30834341049,37.421672821,89.2200012207,0
5.4,15.813831878801272,-2.783811305017548,398.886054527363,0.07508943753439365,102.32325376032827,-4.30834341049,37.421672821,89.2200012207,0
5.5,15.634958187767236,-2.4331954772422772,398.7534077963646,0.08760330816470989,105.57686031812544,-4.30834341049,37.421672821,89.2200012207,0
5.6000000000000005,15.456084496733197,-2.082579649467003,398.62076106536625,0.10011717879502624,108.83046687592265,-4.30834341049,37.421672821,89.2200012207,0
5.7,15.277210805699161,-1.7319638216917321,398.4881143343679,0.1126310494253425,112.08407343371982,-3.25954461098,38.3780670166,101.387886047,0
5.800000000000001,15.096862840622276,-1.5998452264886749,398.36424853463035,0.119999997318,115.22756562371016,-3.25954461098,38.3780670166,101.387886047,0
5.9,14.914403308636581,-1.7806749112917022,398.2529594494927,0.119999997318,118.21334367881906,-3.25954461098,38.3780670166,101.387886047,0
6.0,14.731943776650887,-1.9615045960947295,398.1416703643551,0.119999997318,121.19912173392795,-3.25954461098,38.3780670166,101.387886047,0
6.1000000000000005,14.54948424466519,-2.1423342808977583,398.03038127921747,0.119999997318,124.18489978903688,-2.07103157043,41.3370132446,114.499191284,0
6.2,14.38086855418759,-1.9478161889000492,397.9616009266757,0.10952758113096125,127.26902355790062,-2.07103157043,41.3370132446,114.499191284,0
6.300000000000001,14.217451294312768,-1.612353159872669,397.9087828123814,0.09512272113777659,130.3900766261743,-2.07103157043,41.3370132446,114.499191284,0
6.4,14.054034034437949,-1.2768901308452918,397.85596469808706,0.08071786114459205,133.51112969444796,-1.621297043563845,41.22940664744819,117.63762491411642,0
6.5,13.89061677456313,-0.9414271018179148,397.80314658379274,0.06631300115140751,136.6321827627216,-0.520828425884,40.9616775513,125.966011047,0
6.6000000000000005,13.728303830374749,-0.6117595440017822,397.76545872880524,0.0599999986589,139.16313302957224,-0.520828425884,40.9616775513,125.966011047,0
6.7,13.56685243715664,-0.2866134232226739,397.73957500713414,0.0599999986589,141.23370439628684,-0.520828425884,40.9616775513,125.966011047,0
6.800000000000001,13.40540104393853,0.03853269755643718,397.7136912854631,0.0599999986589,143.3042757630014,-0.3148925932743516,39.94982725938484,128.17888363107187,0
6.9,13.243949650720422,0.3636788183355454,397.68780756379203,0.0599999986589,145.37484712971602,0.61297160387,35.2612838745,138.135177612,0
7.0,13.07850709057295,0.3484732365203151,397.6948542798642,0.06557403662376925,146.92900617520172,0.61297160387,35.2612838745,138.135177612,0
7.1000000000000005,12.911338324853984,0.1860633368495092,397.7161436237468,0.07355888214466134,148.25981354388,0.61297160387,35.2612838745,138.135177612,0
7.2,12.744169559135022,0.023653437178704717,397.7374329676294,0.08154372766555337,149.59062091255825,0.884446839523302,33.32335455919224,139.58384735042097,0
7.300000000000001,12.577000793416056,-0.13875646249210116,397.758722311512,0.08952857318644547,150.92142828123653,2.26174759865,23.6979141235,146.945617676,0
7.4,12.413750491171914,-0.18832915528500158,397.7638725403982,0.11333696628230598,151.0,2.26174759865,23.6979141235,146.945617676,0
7.5,12.250746053522148,-0.23082186014953604,397.7680101180278,0.1381382103084091,151.0,2.26174759865,23.6979141235,146.945617676,0
7.6000000000000005,12.087741615872382,-0.27331456501407086,397.77214769565734,0.1629394543345124,151.0,2.5075271963002437,19.26425857474745,148.8907635377556,0
7.7,11.924737178222616,-0.3158072698786053,397.7762852732869,0.1877406983606155,151.0,2.88340878487,12.3669509888,151.864624023,0
7.800000000000001,11.769155899882795,-0.36457995579374275,397.77335450595075,0.2124606575359697,150.9753933612704,2.88340878487,12.3669509888,151.864624023,0
7.9,11.67857761616723,-0.46834507248234664,397.7085277761779,0.23646882291899662,150.7353117289058,2.88340878487,12.3669509888,151.864624023,0
8.0,11.587999332451664,-0.5721101891709506,397.6437010464051,0.26047698830202354,150.49523009654123,2.88340878487,12.3669509888,151.864624023,0
8.1,11.497421048736099,-0.6758753058595545,397.5788743166323,0.28448515368505045,150.25514846417667,2.205469906711721,4.332239713195255,151.9312603452756,0
8.200000000000001,11.40684276502053,-0.7796404225481602,397.51404758685953,0.30849331906807775,150.0150668318121,1.90982031822,0.762933194637,151.960342407,0
8.3,11.451248311191666,-1.2435134556867924,397.38142340445035,0.3232991911787639,149.7783468622276,1.90982031822,0.762933194637,151.960342407,0
8.4,11.504692279090001,-1.731499060078674,397.2442595525898,0.3374888842439849,149.541851987204,1.90982031822,0.762933194637,151.960342407,0
8.5,11.558136246988338,-2.2194846644705555,397.1070957007293,0.3516785773092058,149.3053571121804,-1.3883280515190668,-7.879898111705884,151.05925364607896,0
8.6,11.611580214886676,-2.707470268862437,396.9699318488688,0.3658682703744268,149.06886223715676,-1.5658198595,-8.46114063263,150.99307251,0
8.700000000000001,11.716421282360532,-2.719429759986008,396.7882719487897,0.37899807455898316,148.1001928332019,-1.5658198595,-8.46114063263,150.99307251,0
8.8,11.842375894936206,-2.5358412747618724,396.58833340402686,0.3916924842977504,146.83075159451974,-1.5658198595,-8.46114063263,150.99307251,0
8.9,11.96833050751188,-2.3522527895377365,396.38839485926405,0.4043868940365177,145.56131035583758,-1.7307174735645248,-8.56285836439265,150.91442606527943,0
9.0,12.12436978222991,-2.3286296034953597,396.1484490515136,0.42010253391273533,144.5509983516743,-5.36232995987,-11.3038291931,149.162857056,0
9.1,12.304256106725726,-2.4318052637971563,395.8767908985347,0.4382129962781334,143.74608894519392,-5.36232995987,-11.3038291931,149.162857056,0
9.200000000000001,12.484142431221542,-2.5349809240989547,395.6051327455558,0.45632345864353185,142.9411795387135,-5.4131717105985375,-11.33593595458827,149.107805717737,0
9.3,12.664028755717355,-2.6381565844007513,395.3334745925769,0.47443392100893,142.13627013223308,-8.38107681274,-13.8445386887,145.85055542,0
9.4,12.843915080213169,-2.741332244702548,395.06181643959803,0.4925443833743281,141.3313607257527,-8.38107681274,-13.8445386887,145.85055542,0
9.5,13.058471957455074,-3.081795051143708,394.69081631498955,0.504494243692,140.8501917340662,-8.38107681274,-13.8445386887,145.85055542,0
9.600000000000001,13.297289190575361,-3.5882970509275602,394.25030268700425,0.5121332873002453,140.59555670428773,-8.38107681274,-13.8445386887,145.85055542,0
9.700000000000001,13.536106423695644,-4.094799050711403,393.80978905901895,0.5197723309084904,140.34092167450927,-8.38107681274,-13.8445386887,145.85055542,0
9.8,13.774923656815929,-4.6013010504952465,393.36927543103366,0.5274113745167356,140.08628664473085,-11.8554039001,-7.83195495605,141.570449829,0
9.9,14.038298641639384,-5.009753008075028,392.9343848986454,0.5250471233655987,140.0,-11.8554039001,-7.83195495605,141.570449829,0
10.0,14.314260655414742,-5.367949602913351,392.5023764732161,0.5175557025015082,140.0,-11.8554039001,-7.83195495605,141.570449829,0
10.100000000000001,14.590222669190105,-5.72614619775168,392.0703680477868,0.5100642816374176,140.0,-11.873586522196636,-7.707986175832423,141.53956922806063,0
10.200000000000001,14.866184682965462,-6.084342792590002,391.63835962235754,0.5025728607733271,140.0,-12.42185830084476,-3.6047987778592416,140.60358468910312,0
10.3,15.098052371763403,-5.663535032192897,391.2271461242992,0.4816191999700073,139.81619198874512,-12.5907907486,-2.32949662209,140.311309814,0
10.4,15.306854659922287,-4.835236113641584,390.82681029204747,0.4536235454893498,139.53623542725313,-12.5907907486,-2.32949662209,140.311309814,0
10.5,15.51565694808117,-4.006937195090272,390.42647445979577,0.4256278910086923,139.25627886576115,-12.5907907486,-2.32949662209,140.311309814,0
10.600000000000001,15.71118903749549,-3.225920485565122,390.04450696549077,0.39770513915587263,139.0,-9.03882408142,3.43368291855,140.423583984,0
10.700000000000001,15.763089266726208,-2.956669407191454,389.86135175716277,0.3705714591361318,139.0,-9.03882408142,3.43368291855,140.423583984,0
10.8,15.814989495956926,-2.687418328817787,389.6781965488347,0.34343777911639106,139.0,-9.03882408142,3.43368291855,140.423583984,0
10.9,15.842966575546406,-2.375196937859049,389.5237779612112,0.3189175499812356,139.08118323186918,-2.71698141098,3.4819829464,139.628295898,0
11.0,15.71923321483198,-1.7904761001284668,389.55159480016425,0.31097071483303285,139.67719599232754,-2.71698141098,3.4819829464,139.628295898,0
11.100000000000001,15.595499854117556,-1.205755262397874,389.57941163911727,0.3030238796848299,140.27320875278593,-2.71698141098,3.4819829464,139.628295898,0
11.200000000000001,15.47176649340313,-0.6210344246672916,389.6072284780703,0.2950770445366272,140.8692215132443,1.70770049095,2.49728822708,139.466033936,0
11.3,15.348033132688707,-0.036313586936709275,389.63504531702335,0.2871302093884244,141.46523427370266,1.70770049095,2.49728822708,139.466033936,0
11.4,15.216301121343113,0.5113887979738867,389.67725846265773,0.2805449001576841,142.0363265962689,1.70770049095,2.49728822708,139.466033936,0
11.5,15.01473055744117,0.7358722698407648,389.8451699625703,0.28584747098673574,142.38983130415974,1.70770049095,2.49728822708,139.466033936,0
11.600000000000001,14.813159993539225,0.9603557417076469,390.0130814624829,0.29115004181578746,142.7433360120506,1.70770049095,2.49728822708,139.466033936,0
11.700000000000001,14.611589429637283,1.1848392135745252,390.1809929623954,0.29645261264483913,143.09684071994147,6.35453176498,4.66128969193,142.239425659,0
11.8,14.41001886573534,1.4093226854414032,390.348904462308,0.3017551834738908,143.45034542783233,6.35453176498,4.66128969193,142.239425659,0
11.9,14.208448301833398,1.6338061573082814,390.51681596222056,0.30705775430294246,143.8038501357232,6.35453176498,4.66128969193,142.239425659,0
12.0,14.014624383982444,1.8260674325978985,390.69784761625897,0.31527173844899864,144.0,6.35453176498,4.66128969193,142.239425659,0
12.100000000000001,13.830457007592823,1.9781622958459975,390.8952341303828,0.32711492976699885,144.0,6.35453176498,4.66128969193,142.239425659,0
12.200000000000001,13.646289631203206,2.1302571590940937,391.0926206445066,0.3389581210849988,144.0,6.35453176498,4.66128969193,142.239425659,0
12.3,13.50133028042276,2.1489480509991346,391.2647899273188,0.340000003576,144.20103980364985,7.83248627091436,4.657157835331952,143.9343667607078,0
12.4,13.360152893110184,2.1547709410537945,391.4345267834505,0.340000003576,144.42147168790513,8.33048629761,4.65585041046,144.627822876,0
12.5,13.218975505797609,2.160593831108455,391.6042636395822,0.340000003576,144.6419035721604,8.214713253206455,4.308036244475814,144.78792600037846,0
12.600000000000001,13.077798118485031,2.166416721163115,391.7740004957139,0.340000003576,144.86233545641568,8.11706256866,4.14332914352,144.923156738,0
12.700000000000001,12.95836212796999,2.1291145538065823,391.93381238967027,0.340000003576,145.0,8.11706256866,4.14332914352,144.923156738,0
12.8,12.875087979103537,2.020083715485963,392.07711637873473,0.340000003576,145.0,8.11706256866,4.14332914352,144.923156738,0
12.9,12.791813830237084,1.911052877165344,392.2204203677992,0.340000003576,145.0,8.11706256866,4.14332914352,144.923156738,0
13.0,12.71585132435643,1.832223149568902,392.35029722325686,0.3409595575213517,145.0,6.52438402176,1.60217177868,145.525192261,0
13.100000000000001,12.652079316844834,1.8037468913283699,392.4577873934438,0.34351894899002783,145.0,6.52438402176,1.60217177868,145.525192261,0
13.200000000000001,12.588307309333238,1.7752706330878383,392.56527756363084,0.34607834045870384,145.0,6.52438402176,1.60217177868,145.525192261,0
13.3,12.524535301821643,1.7467943748473067,392.67276773381786,0.34863773192737985,145.0,5.08369779587,1.29985272884,145.910705566,0
13.4,12.48548148599842,1.6414433742109198,392.74722105216466,0.3534475496857854,145.0,5.08369779587,1.29985272884,145.910705566,0
13.5,12.474555504363886,1.4486134821301417,392.7840803950949,0.3608182189146145,145.0,5.08369779587,1.29985272884,145.910705566,0
13.600000000000001,12.463629522729352,1.2557835900493604,392.8209397380251,0.3681888881434438,145.0,4.925697155052985,1.2425837517161957,145.85761000549266,0
13.700000000000001,12.452703541094818,1.0629536979685823,392.8577990809554,0.3755595573722729,145.0,2.89851546288,0.471188932657,145.171066284,0
13.8,12.457921411680267,0.8820011317742275,392.86864951900117,0.3825226580449474,145.0,2.89851546288,0.471188932657,145.171066284,0
13.9,12.487603484429183,0.7190473243449712,392.8400863710903,0.3888681341620095,145.0,2.89851546288,0.471188932657,145.171066284,0
14.0,12.517285557178099,0.5560935169157151,392.81152322317945,0.3952136102790716,145.0,2.89851546288,0.471188932657,145.171066284,0
14.100000000000001,12.554617915761538,0.3858637556723778,392.7707431369162,0.4012022725855641,144.93988661139466,0.656386613846,-1.75527596474,145.062149048,0
14.200000000000001,12.615436743822485,0.19329672875422116,392.69245690304905,0.4060955122042821,144.69522439713666,0.656386613846,-1.75527596474,145.062149048,0
14.3,12.676255571883432,0.0007297018360645224,392.61417066918193,0.4109887518230001,144.45056218287863,0.656386613846,-1.75527596474,145.062149048,0
14.4,12.73707439994438,-0.19183732508209206,392.53588443531476,0.41588199144171806,144.2058999686206,-0.9597926313658965,-2.5940137106472307,145.29106437905517,0
14.5,12.801323912539477,-0.412848438563794,392.4515606053641,0.41969264671285533,143.96926595327446,-0.97567653656,-2.60309362411,145.293258667,0
14.600000000000001,12.88379677175221,-0.7849508119703941,392.33516585630923,0.417752755813859,143.77527667836728,-0.97567653656,-2.60309362411,145.293258667,0
14.700000000000001,12.966269630964945,-1.1570531853769876,392.2187711072543,0.41581286491486275,143.58128740346007,-0.97567653656,-2.60309362411,145.293258667,0
14.8,13.048742490177679,-1.529155558783581,392.1023763581995,0.4138729740158665,143.38729812855289,-2.0514881613837597,-0.48376587170723795,144.61941528731867,0
14.9,13.131215349390413,-1.9012579321901746,391.98598160914463,0.4119330831168702,143.19330885364568,-2.33065104485,0.081740796566,144.444778442,0
15.0,13.213658852647017,-2.269366358409758,391.86962182534427,0.40997866583274534,143.0010665289906,-2.33065104485,0.081740796566,144.444778442,0
15.100000000000001,13.287762278148932,-1.5027875020532515,391.76319573062926,0.40389727748579557,143.30513578322012,-2.33065104485,0.081740796566,144.444778442,0
15.200000000000001,13.361865703650846,-0.7362086456967583,391.65676963591426,0.39781588913884597,143.60920503744967,-2.33065104485,0.081740796566,144.444778442,0
15.3,13.43596912915276,0.030370210659734553,391.55034354119925,0.3917345007918963,143.9132742916792,-2.3452896976113617,1.006197244386592,143.77448329949237,0
15.4,13.481964739730264,-0.08413475710757715,391.48371615218844,0.38573216521588244,143.7866087725436,-2.3483812809,1.20610380173,143.632980347,0
15.5,13.516744603603732,-0.5502150082248544,391.4329694783285,0.37976137374450464,143.48806891427216,-2.3483812809,1.20610380173,143.632980347,0
15.600000000000001,13.551524467477199,-1.0162952593421397,391.38222280446854,0.3737905822731267,143.1895290560007,-2.3483812809,1.20610380173,143.632980347,0
15.700000000000001,13.567984469489685,-1.21956335768208,391.35070637638404,0.37070173271011886,142.92982713887127,-1.42572617531,1.30773043633,144.116821289,0
15.8,13.55259307648214,-0.9658993155015474,391.35262416080485,0.3726235033605635,142.7376498905666,-1.42572617531,1.30773043633,144.116821289,0
15.9,13.537201683474594,-0.712235273321015,391.35454194522566,0.3745452740110082,142.5454726422619,-1.42572617531,1.30773043633,144.116821289,0
16.0,13.521810290467048,-0.4585712311404825,391.3564597296465,0.3764670446614528,142.3532953939572,0.0460262969136,-0.42733296752,143.596633911,0
16.1,13.5064188974595,-0.20490718895994564,391.35837751406723,0.3783888153118975,142.16111814565252,0.0460262969136,-0.42733296752,143.596633911,0
16.2,13.48856483872868,0.02451196881495716,391.3666148109464,0.38132594103110296,142.0,0.0460262969136,-0.42733296752,143.596633911,0
16.3,13.457935776832457,0.12816152980723358,391.40763438554006,0.3895301901340614,142.0,0.0460262969136,-0.42733296752,143.596633911,0
16.400000000000002,13.427306714936234,0.23181109079951,391.4486539601338,0.3977344392370199,142.0,0.0460262969136,-0.42733296752,143.596633911,0
16.5,13.396677653040014,0.33546065179178275,391.4896735347275,0.4059386883399781,142.0,1.0679227259811939,-0.6695034948626276,142.84083767349497,0
16.6,13.372913216491142,0.4349138251958833,391.5169809041914,0.4127996351193039,142.27996371934387,2.00893616676,-0.895344316959,142.124481201,0
16.7,13.355878144007448,0.5302532970634032,391.5308462552223,0.41834374814180847,142.83437472418052,2.00893616676,-0.895344316959,142.124481201,0
16.8,13.338843071523753,0.6255927689309264,391.54471160625314,0.42388786116431315,143.3887857290172,2.00893616676,-0.895344316959,142.124481201,0
16.900000000000002,13.321807999040058,0.7209322407984498,391.55857695728406,0.4294319741868179,143.9431967338539,2.28973603249,-1.78830659389,142.156616211,0
17.0,13.315594265197193,0.42155498053521795,391.54633958463654,0.4327305994230679,144.2730594874236,2.28973603249,-1.78830659389,142.156616211,0
17.1,13.310615816361128,0.0771197401719389,391.531122515644,0.4357728961691581,144.57728945217676,2.28973603249,-1.78830659389,142.156616211,0
17.2,13.305637367525064,-0.2673155001913279,391.51590544665146,0.4388151929152482,144.88151941692988,1.994767770721738,-0.6733617750598888,142.9891265793957,0
17.3,13.30921958574402,-0.3323567547746,391.48698397707676,0.4420904663101744,145.0,1.62800979614,0.745012521744,144.023574829,0
17.400000000000002,13.318262241111986,-0.21918604417358625,391.4493211305086,0.44551434428696085,145.0,1.62800979614,0.745012521744,144.023574829,0
17.5,13.327304896479953,-0.10601533357257648,391.4116582839404,0.44893822226374713,145.0,1.6105745732552574,0.8951456535051554,144.09832991752688,0
17.6,13.336347551847918,0.007155377028437382,391.3739954373723,0.4523621002405336,145.0,1.35762250423,3.27597951889,145.178421021,0
17.7,13.345390207215885,0.12032608762944719,391.33633259080415,0.4557859782173199,145.0,1.35762250423,3.27597951889,145.178421021,0
17.8,13.354432862583852,0.233496798230461,391.29866974423595,0.45920985619410637,145.0,1.35762250423,3.27597951889,145.178421021,0
17.900000000000002,13.364116365469023,0.06358946905276844,391.26323763587067,0.46205736524203606,145.0,1.35762250423,3.27597951889,145.178421021,0
18.0,13.373992130980445,-0.1912449697742567,391.22847477810524,0.46473195608247153,145.0,1.35762250423,3.27597951889,145.178421021,0
18.1,13.383867896491868,-0.44607940860129086,391.19371192033987,0.4674065469229071,145.0,1.2934132095348387,4.943590897459209,145.1638837826703,0
18.2,13.393403283275752,-0.6919783563125124,391.1590017044872,0.4696917158325654,145.02312122798125,1.20216059685,7.07452726364,145.141662598,0
18.3,13.39205911351558,-0.6522713804491432,391.12597408692625,0.4595297557866466,145.78526839042812,1.20216059685,7.07452726364,145.141662598,0
18.400000000000002,13.39071494375541,-0.6125644045857741,391.09294646936536,0.44936779574072777,146.54741555287498,1.20216059685,7.07452726364,145.141662598,0
18.5,13.389370773995239,-0.5728574287224063,391.05991885180447,0.4392058356948093,147.30956271532182,1.6605682373,11.183380127,145.812866211,0
18.6,13.385711041580675,-0.5489015427850088,391.0271685177397,0.4297823024844681,148.10885211366627,1.6605682373,11.183380127,145.812866211,0
18.7,13.359756601082,-0.676600353489109,390.99708792555856,0.4274684929991383,149.26575451175276,1.6605682373,11.183380127,145.812866211,0
18.8,13.333802160583321,-0.8042991641932138,390.9670073333774,0.4251546835138084,150.4226569098393,1.6605682373,11.183380127,145.812866211,0
18.900000000000002,13.307847720084643,-0.9319979748973185,390.9369267411963,0.4228408740284786,151.57955930792585,1.4824924469,14.9470643997,148.770584106,0
19.0,13.281893279585967,-1.0596967856014188,390.90684614901517,0.42052706454314875,152.73646170601234,1.4824924469,14.9470643997,148.770584106,0
19.1,13.24991125191126,-1.0131182850964562,390.8873620255761,0.41789459146792934,154.0526987134941,1.4824924469,14.9470643997,148.770584106,0
19.200000000000003,13.21615111379542,-0.915128780874119,390.87100381158626,0.41516811410212995,155.41593869651578,1.4824924469,14.9470643997,148.770584106,0
19.3,13.18239097567958,-0.8171392766517852,390.8546455975964,0.4124416367363306,156.7791786795374,1.7371437597117927,18.348285694498248,151.2406922361775,0
19.400000000000002,13.147967758369086,-0.6869162818060659,390.84031637486174,0.409999996424,158.15986230935525,1.98745274544,21.5344753265,153.713439941,0
19.5,13.107860586417813,-0.28038587135300647,390.8433797869046,0.409999996424,159.69007392611462,1.98745274544,21.5344753265,153.713439941,0
19.6,13.067753414466537,0.1261445391000674,390.84644319894744,0.409999996424,161.22028554287405,1.98745274544,21.5344753265,153.713439941,0
19.700000000000003,13.027646242515262,0.5326749495531413,390.8495066109903,0.409999996424,162.75049715963345,2.7013819112487467,23.94300114125251,157.07119385811134,0
19.8,12.992785800729328,0.5282185260216924,390.850006104,0.409999996424,164.39091057512124,2.98407006264,24.9130687714,158.444381714,0
19.900000000000002,12.958947507071851,0.44369520178452393,390.850006104,0.409999996424,166.05279308827053,2.98407006264,24.9130687714,158.444381714,0
20.0,12.925109213414375,0.3591718775473584,390.850006104,0.409999996424,167.71467560141977,3.07477281917645,25.91685258131701,159.9155179659321,0
20.1,12.896869557716789,0.27892883815326813,390.84534072709215,0.4106664084685218,169.53313014406368,3.29433083534,28.4042892456,163.47467041,0
20.200000000000003,12.887740009304768,0.21329590627997294,390.8247507889115,0.4136075176373161,171.8860197230499,3.29433083534,28.4042892456,163.47467041,0
20.3,12.878610460892748,0.14766297440668008,390.80416085073085,0.4165486268061103,174.23890930203603,3.29433083534,28.4042892456,163.47467041,0
20.400000000000002,12.869480912480727,0.08203004253338489,390.7835709125502,0.4194897359749046,176.59179888102224,3.33628177643,31.523815155,169.938751221,0
20.5,12.893053904456604,-0.015504420658130041,390.74327891175415,0.419999986887,178.83580128502587,3.33628177643,31.523815155,169.938751221,0
20.6,12.923491344828344,-0.11973519590630873,390.69885133645806,0.419999986887,181.05694765445935,3.33628177643,31.523815155,169.938751221,0
20.700000000000003,12.953928785200082,-0.2239659711544874,390.654423761162,0.419999986887,183.27809402389283,3.1689366866946616,32.17246712910446,172.00837236671356,0
20.8,13.001516849474452,-0.24484197421473156,390.59214257252677,0.42354395213425605,185.77198167304846,2.7459230423,33.7956695557,177.516952515,0
20.900000000000002,13.05736318770168,-0.22558144650420578,390.5212646103374,0.4287943880065694,188.3971982009077,2.7459230423,33.7956695557,177.516952515,0
21.0,13.113209525928905,-0.20632091879368067,390.4503866481481,0.4340448238788825,191.02241472876685,2.7459230423,33.7956695557,177.516952515,0
21.1,13.169055864156133,-0.1870603910831549,390.37950868595874,0.43929525975119577,193.6476312566261,2.15348100662,35.9041099548,-175.238861084,0
21.200000000000003,13.243212545866793,-0.6197465644622755,390.3039878509599,0.439999997616,195.91635507774134,2.15348100662,35.9041099548,-175.238861084,0
21.3,13.320207953852055,-1.1224998546197225,390.2277472126954,0.439999997616,198.12981039915545,2.15348100662,35.9041099548,-175.238861084,0
21.400000000000002,13.397203361837322,-1.6252531447771874,390.1515065744309,0.439999997616,200.34326572056966,2.230411247964334,36.57142106064153,-172.25239641169762,0
21.5,13.474198769822586,-2.128006434934634,390.07526593616643,0.439999997616,202.55672104198376,2.39140343666,37.9105796814,-165.990020752,0
21.6,13.547679904320315,-1.9501598637614885,390.02922194500525,0.4323062718604886,205.11577502411632,2.39140343666,37.9105796814,-165.990020752,0
21.700000000000003,13.620281011538305,-1.601880784509032,389.9907396513903,0.42268592070951705,207.76137214250505,2.39140343666,37.9105796814,-165.990020752,0
21.8,13.692882118756295,-1.2536017052565875,389.95225735777535,0.41306556955854584,210.40696926089367,2.835381831499489,37.17967646643065,-163.01110078252228,0
21.900000000000002,13.765483225974284,-0.9053226260041307,389.9137750641604,0.4034452184075743,213.0525663792824,3.81397795677,35.5262527466,-156.451782227,0
22.0,13.820986352359618,-0.6332752225511674,389.89861030091674,0.401382249962589,215.5204698527679,3.81397795677,35.5262527466,-156.451782227,0
22.1,13.866950231252318,-0.4037587371841895,389.896454775156,0.40353567085237646,217.8892350903887,3.81397795677,35.5262527466,-156.451782227,0
22.200000000000003,13.912914110145019,-0.17424225181721154,389.89429924939515,0.40568909174216394,220.25800032800947,4.122916770566836,35.3016698828272,-154.22650222730522,0
22.3,13.958877989037717,0.055274233549758356,389.8921437236344,0.40784251263195137,222.62676556563017,5.29778385162,34.4227142334,-145.727294922,0
22.400000000000002,14.004841867930418,0.28479071891673624,389.88998819787355,0.40999593352173885,224.99553080325094,5.29778385162,34.4227142334,-145.727294922,0
22.5,14.039435641048748,0.28691267168207346,389.9173261147601,0.4127340253346177,227.18722521445088,5.29778385162,34.4227142334,-145.727294922,0
22.6,14.074007921410299,0.28860478364563086,389.9447197827013,0.41547322234301515,229.37858491106854,5.29778385162,34.4227142334,-145.727294922,0
22.700000000000003,14.108580201771852,0.2902968956091882,389.97211345064255,0.41821241935141257,231.5699446076862,6.52102947235,34.4571876526,-134.54927063,0
22.8,14.147183293684149,0.23439348702818824,390.0018716926553,0.42316850647792503,233.63370357823473,6.52102947235,34.4571876526,-134.54927063,0
22.900000000000002,14.193357975249834,0.07030103464138898,390.03607161703115,0.4322888622807812,235.45777376028352,6.52102947235,34.4571876526,-134.54927063,0
23.0,14.239532656815516,-0.09379141774540445,390.070271541407,0.4414092180836371,237.28184394233224,6.52102947235,34.4571876526,-134.54927063,0
23.1,14.2857073383812,-0.2578838701322037,390.1044714657829,0.4505295738864933,239.10591412438103,7.4199718855380725,33.21366377292519,-128.42640996511008,0
23.200000000000003,14.331882019946885,-0.42197632251900297,390.1386713901588,0.4596499296893494,240.92998430642982,7.64942264557,32.8902397156,-126.864257812,0
23.3,14.375141768315382,-0.09943907572669985,390.1944849527185,0.45091731853567124,242.58946986396143,7.64942264557,32.8902397156,-126.864257812,0
23.400000000000002,14.41828516279017,0.24252271923311913,390.2511612557905,0.441472079654657,244.24238578143218,7.64942264557,32.8902397156,-126.864257812,0
23.5,14.461428557264956,0.584484514192926,390.3078375588625,0.4320268407736431,245.89530169890287,8.19122409821,29.2636795044,-118.912910461,0
23.6,14.504571951739745,0.9264463091527448,390.36451386193454,0.4225816018926289,247.5482176163736,8.19122409821,29.2636795044,-118.912910461,0
23.700000000000003,14.525928619734906,0.8742464396080113,390.4322025206977,0.4226101130311696,249.30506042724932,8.19122409821,29.2636795044,-118.912910461,0
23.8,14.539090645799725,0.6737905341552154,390.50403325705946,0.4262019859817946,251.10099326292433,8.19122409821,29.2636795044,-118.912910461,0
23.900000000000002,14.552252671864542,0.4733346287024124,390.5758639934212,0.4297938589324198,252.89692609859944,8.19122409821,29.224980697219227,-118.912910461,0
24.0,14.54469719771597,0.7263801773214948,390.66328878718195,0.430000007153,253.86172166253226,8.23842048645,23.2489948273,-111.078208923,0
24.1,14.535880287347858,1.0070382831452103,390.75166306368004,0.430000007153,254.7759113788877,8.23842048645,23.2489948273,-111.078208923,0
24.200000000000003,14.527063376979749,1.2876963889689255,390.8400373401781,0.430000007153,255.69010109524316,8.21334827053,20.099424916697714,-107.26519467585892,0
24.3,14.50579083265543,1.2847078116502701,390.9246044113523,0.4312700111628215,256.5080020884102,8.20812225342,19.4241733551,-106.463150024,0
24.400000000000002,14.478130656338381,1.1362564956029046,391.0072190305986,0.4331913122702098,257.27652326430416,8.20812225342,19.4241733551,-106.463150024,0
24.5,14.450470480021334,0.9878051795555445,391.08983364984493,0.43511261337759805,258.0450444401981,8.20812225342,19.4241733551,-106.463150024,0
24.6,14.422810303704285,0.839353863508179,391.17244826909126,0.43703391448498635,258.8135656160921,8.60458850861,14.2270441055,-103.112236023,0
24.700000000000003,14.395150127387236,0.6909025474608136,391.2550628883376,0.4389552155923747,259.58208679198606,8.60458850861,14.2270441055,-103.112236023,0
24.8,14.359183603096573,0.5714927252029243,391.341681453544,0.4410690246639473,260.0,8.60458850861,14.2270441055,-103.112236023,0
24.900000000000002,14.313316184226922,0.486699411829477,391.4330725911224,0.4434122969201904,260.0,8.60458850861,14.2270441055,-103.112236023,0
25.0,14.267448765357273,0.40190609845603276,391.5244637287008,0.4457555691764334,260.0,8.60458850861,14.2270441055,-103.112236023,0
25.1,14.221581346487621,0.3171127850825855,391.6158548662792,0.4480988414326764,260.0,8.91091060638,4.86860322952,-99.8549194336,0
25.200000000000003,14.1793831542795,0.3272639627283078,391.7007750523553,0.45172360682049023,259.9569095545786,8.91091060638,4.86860322952,-99.8549194336,0
25.3,14.152962690856294,0.7456778526852713,391.7578700514911,0.4608588115827976,259.7285295580354,8.91091060638,4.86860322952,-99.8549194336,0
25.400000000000002,14.126542227433086,1.1640917426422497,391.81496505062694,0.46999401634510535,259.50014956149215,8.91091060638,4.86860322952,-99.8549194336,0
25.5,14.100121764009879,1.5825056325992133,391.87206004976275,0.4791292211074128,259.2717695649489,8.6811170578,-1.87314975262,-99.3416748047,0
25.6,14.073701300586672,2.0009195225561918,391.92915504889856,0.4882644258697205,259.04338956840564,8.6811170578,-1.87314975262,-99.3416748047,0
25.700000000000003,14.06947783407037,1.7010109001085278,391.97550703143423,0.490000009537,258.4673823823434,8.6811170578,-1.87314975262,-99.3416748047,0
25.8,14.070460680796263,1.2326194858587005,392.0193392357395,0.490000009537,257.80983911967894,8.6811170578,-1.87314975262,-99.3416748047,0
25.900000000000002,14.071443527522156,0.7642280716088563,392.06317144004475,0.490000009537,257.1522958570145,8.364015533821888,-3.3543506166542,-99.7458490994472,0
26.0,14.072426374248051,0.29583665735902875,392.10700364435,0.490000009537,256.4947525943501,7.94999694824,-5.31996870041,-100.340087891,0
26.1,14.07316967880894,-0.05866402538056668,392.1443940406837,0.4907350236984091,255.85299702752144,7.94999694824,-5.31996870041,-100.340087891,0
26.200000000000003,14.073184968006172,-0.06702855995771816,392.1622065260769,0.4937038892654711,255.2592233478271,7.94999694824,-5.31996870041,-100.340087891,0
26.3,14.073200257203405,-0.07539309453486934,392.1800190114701,0.4966727548325329,254.66544966813277,7.94999694824,-5.31996870041,-100.340087891,0
26.400000000000002,14.073215546400638,-0.08375762911202082,392.1978314968633,0.49964162039959487,254.07167598843841,7.10559034348,-6.223549366,-103.247154236,0
26.5,14.09671790673738,0.04039539866367124,392.19456507654763,0.5,253.4583167082491,7.10559034348,-6.223549366,-103.247154236,0
26.6,14.123444680948465,0.1827410509733725,392.18840484645807,0.5,252.84226862613983,7.10559034348,-6.223549366,-103.247154236,0
26.700000000000003,14.15017145515955,0.32508670328307376,392.18224461636856,0.5,252.22622054403058,6.81818337602449,-6.8901027572479325,-104.0281494724476,0
26.8,14.176898229370632,0.46743235559277,392.176084386279,0.5,251.61017246192134,6.2457575798,-8.24122238159,-105.58241272,0
26.900000000000002,14.203575634970028,0.6069023384622482,392.16973514012403,0.5000190584871831,250.99428244839223,6.2457575798,-8.24122238159,-105.58241272,0
27.0,14.225126200104588,0.4477392841562052,392.1437569196139,0.5020173061787492,250.3948075692032,6.2457575798,-8.24122238159,-105.58241272,0
27.1,14.246676765239147,0.2885762298501566,392.1177786991038,0.5040155538703154,249.7953326900142,6.2457575798,-8.24122238159,-105.58241272,0
27.200000000000003,14.268227330373708,0.12941317554410792,392.09180047859365,0.5060138015618815,249.19585781082515,6.018385223522564,-7.604561582540608,-106.77478855769151,0
27.3,14.28977789550827,-0.029749878761935022,392.06582225808353,0.5080120492534476,248.59638293163613,5.74481868744,-6.8245806694,-108.20955658,0
27.400000000000002,14.311353102886955,-0.18805249012484446,392.0397340236139,0.509999990463,248.0,5.74481868744,-6.8245806694,-108.20955658,0
27.5,14.337681370769543,-0.18039061594782735,391.9924260088748,0.509999990463,248.0,5.74481868744,-6.8245806694,-108.20955658,0
27.6,14.364009638652133,-0.17272874177080993,391.9451179941357,0.509999990463,248.0,5.74481868744,-6.8245806694,-108.20955658,0
27.700000000000003,14.390337906534723,-0.16506686759379255,391.89780997939664,0.509999990463,248.0,5.747070135034255,-3.3006994570723345,-110.3762086107439,0
27.8,14.417215168840706,-0.19917611763628876,391.85029316803224,0.5093942434105513,248.0,5.74789047241,-1.98337316513,-111.165710449,0
27.900000000000002,14.446282103334251,-0.3998900999847653,391.80194356831186,0.5063724654897921,248.0,5.74789047241,-1.98337316513,-111.165710449,0
28.0,14.475349037827797,-0.6006040823332348,391.7535939685914,0.5033506875690331,248.0,5.74789047241,-1.98337316513,-111.165710449,0
28.1,14.504415972321343,-0.8013180646817113,391.70524436887104,0.500328909648274,248.0,5.83402490616,2.94903635979,-111.417831421,0
28.200000000000003,14.504353422715377,-0.5879847831784986,391.711721311235,0.49217326839192654,248.0,5.83402490616,2.94903635979,-111.417831421,0
28.3,14.500732968525863,-0.3240793510380858,391.72489482277666,0.48339057188699985,248.0,5.83402490616,2.94903635979,-111.417831421,0
28.400000000000002,14.497112514336347,-0.06017391889766366,391.7380683343183,0.47460787538207283,248.0,6.481850601224048,5.229842892562866,-111.76023876167598,0
28.5,14.493492060146831,0.20373151324274918,391.75124184585997,0.4658251788771461,248.0,6.7927107811,6.37118053436,-111.932380676,0
28.6,14.480317190798662,0.481902448256753,391.78347553959344,0.46097893491652603,248.29367825153875,6.7927107811,6.37118053436,-111.932380676,0
28.700000000000003,14.448323856914154,0.7881708497783111,391.85325034460135,0.46388596432470314,249.16578790572288,6.7927107811,6.37118053436,-111.932380676,0
28.8,14.416330523029648,1.0944392512998582,391.92302514960926,0.4667929937328802,250.03789755990695,6.7927107811,6.37118053436,-111.932380676,0
28.900000000000002,14.38433718914514,1.4007076528214162,391.99279995461717,0.4697000231410573,250.91000721409108,9.14151382446,9.58113098145,-111.405723572,0
29.0,14.40939569225294,1.249624685327269,392.06648936335364,0.4652507353105413,252.66224133240118,9.14151382446,9.58113098145,-111.405723572,0
29.1,14.441018756183322,1.0459174547511196,392.1406291985028,0.45995500686584967,254.51574529373104,9.14151382446,9.58113098145,-111.405723572,0
29.200000000000003,14.472641820113703,0.8422102241749702,392.2147690336519,0.454659278421158,256.36924925506094,8.657368038950885,10.447236507337918,-110.22740185368279,0
29.3,14.505412442263262,0.6635613258378228,392.28848200866673,0.449999988079,258.1325474294493,8.04945850372,11.4173355103,-108.744132996,0
29.400000000000002,14.546584206497815,0.6683616033545144,392.35906998960337,0.449999988079,259.2354593852408,8.04945850372,11.4173355103,-108.744132996,0
29.5,14.587755970732367,0.673161880871206,392.42965797054006,0.449999988079,260.33837134103226,8.04945850372,11.4173355103,-108.744132996,0
29.6,14.62892773496692,0.6779621583878976,392.50024595147676,0.449999988079,261.4412832968237,5.27012872696,12.912153244,-101.418769836,0
29.700000000000003,14.670099499201472,0.6827624359045892,392.5708339324134,0.449999988079,262.5441952526152,5.27012872696,12.912153244,-101.418769836,0
29.8,14.704314216290388,0.6295462149875178,392.6302453691538,0.44775995349547243,263.4480073439701,5.27012872696,12.912153244,-101.418769836,0
29.900000000000002,14.733628578267256,0.5354647478342577,392.6817843516272,0.44394209937259527,264.21157889676374,5.27012872696,12.912153244,-101.418769836,0
30.0,14.762942940244123,0.44138328068100086,392.7333233341006,0.44012424524971827,264.97515044955736,5.27012872696,12.912153244,-101.418769836,0
30.1,14.79225730222099,0.34730181352774064,392.784862316574,0.4363063911268411,265.7387220023509,4.94336414337,13.256567955,-96.6643371582,0
30.200000000000003,14.821571664197858,0.25322034637448043,392.8364012990474,0.43248853700396395,266.50229355514455,4.94336414337,13.256567955,-96.6643371582,0
30.3,14.833682893786397,0.2909661465768191,392.9065956916809,0.42569400850247363,267.10764990851436,4.94336414337,13.256567955,-96.6643371582,0
30.400000000000002,14.813589409007669,0.5754960437198577,393.0117135007044,0.41332706760749016,267.4168232650329,4.94336414337,13.256567955,-96.6643371582,0
30.5,14.793495924228942,0.8600259408628863,393.11683130972784,0.4009601267125072,267.7259966215514,4.94336414337,13.256567955,-96.6643371582,0
30.6,14.767815090072425,1.1249838065234294,393.2288267428036,0.3894618445125189,268.0,5.4158654213,6.90119218826,-92.4824371338,0
30.700000000000003,14.698604157516609,1.2374592697600566,393.3944045870559,0.3847311359707755,268.0,5.4158654213,6.90119218826,-92.4824371338,0
30.8,14.629393224960799,1.3499347329966795,393.5599824313082,0.38000042742903234,268.0,5.4158654213,6.90119218826,-92.4824371338,0
30.900000000000002,14.560182292404983,1.4624101962333067,393.72556027556044,0.37526971888728894,268.0,6.96011161804,3.08444738388,-91.2028579712,0
31.0,14.490971359849171,1.5748856594699299,393.89113811981275,0.37053901034554576,268.0,6.96011161804,3.08444738388,-91.2028579712,0
31.1,14.403684689567799,1.6731228087315066,394.0868017714527,0.37252575570382807,267.49484933112274,6.96011161804,3.08444738388,-91.2028579712,0
31.200000000000003,14.314073683918307,1.7695290719038377,394.28633411754106,0.37537628963442715,266.92474200134853,6.96011161804,3.08444738388,-91.2028579712,0
31.3,14.22446267826882,1.8659353350761654,394.4858664636294,0.3782268235650261,266.3546346715744,7.552736055365821,2.131780617237801,-91.391551183014,0
31.400000000000002,14.139003017980205,1.965779800377282,394.6897771397797,0.38113985694990127,265.88601371950114,8.61085033417,0.412395775318,-91.7282791138,0
31.5,14.060375830131237,2.071283014648846,394.9008938700835,0.38415575477069097,265.5844236497957,8.61085033417,0.412395775318,-91.7282791138,0
31.6,13.981748642282266,2.1767862289204136,395.1120106003873,0.38717165259148084,265.2828335800903,8.61085033417,0.412395775318,-91.7282791138,0
31.700000000000003,13.905040305166017,2.2651632141918316,395.3209976204875,0.3902820506031058,265.0,8.76364135742,-2.67593669891,-93.3992767334,0
31.8,13.857266775869933,2.095289707982647,395.49787023251935,0.39481743952942455,265.0,8.76364135742,-2.67593669891,-93.3992767334,0
31.900000000000002,13.809493246573846,1.9254162017734566,395.67474284455125,0.3993528284557435,265.0,8.76364135742,-2.67593669891,-93.3992767334,0
32.0,13.786869238738484,1.8980672594115766,395.80558772832603,0.4019556405438953,264.60887271024194,7.6485717466115375,-4.764547096307345,-94.26461270227493,0
32.1,13.768431269872055,1.8944409703505365,395.9287714776957,0.40423678281548014,264.15264382086514,7.47310972214,-5.10392379761,-94.4006271362,0
32.2,13.749993301005624,1.8908146812894964,396.0519552270654,0.40651792508706497,263.6964149314883,7.2699812651632225,-5.132536747359865,-94.50838008527384,0
32.300000000000004,13.731555332139195,1.8871883922284562,396.17513897643505,0.4087990673586498,263.2401860421115,6.4252781868,-5.24361848831,-94.956817627,0
32.4,13.731220088561207,1.638302498092839,396.2723855854933,0.4084572993365856,262.84573014414684,6.4252781868,-5.24361848831,-94.956817627,0
32.5,13.751010583897973,1.1167487763557058,396.3407965299879,0.40519950585837106,262.51995048566187,6.4252781868,-5.24361848831,-94.956817627,0
32.6,13.770801079234738,0.5951950546185725,396.40920747448257,0.4019417123801566,262.19417082717695,6.275634863998682,-5.200228774698753,-95.0567761010297,0
32.7,13.794665769184586,0.2803847617536697,396.4657866976918,0.39868286564762523,261.73657247136094,4.16080856323,-4.54958438873,-96.4637451172,0
32.800000000000004,13.824541375956962,0.27059611674142314,396.50490983466347,0.39542246498242917,261.08449365975946,4.16080856323,-4.54958438873,-96.4637451172,0
32.9,13.854416982729335,0.2608074717291773,396.54403297163515,0.3921620643172334,260.432414848158,4.16080856323,-4.54958438873,-96.4637451172,0
33.0,13.890348757715145,0.30163649331472164,396.5770670684065,0.38763727248745056,259.92124281797356,2.8153924942,-2.91898798943,-97.9133758545,0
33.1,13.938202274516856,0.44210785164442634,396.5981147139075,0.3806234901793198,259.68744985140864,2.8153924942,-2.91898798943,-97.9133758545,0
33.2,13.986055791318567,0.582579209974131,396.6191623594084,0.373609707871189,259.4536568848437,2.749598520271095,-2.8456485306531953,-98.02668453023804,0
33.300000000000004,14.033909308120275,0.7230505683038357,396.64021000490936,0.36659592556305826,259.2198639182788,1.78706872463,-1.6963404417,-99.6809844971,0
33.4,14.08108902099796,0.8548422986456167,396.65983730853117,0.360000014305,259.0,1.78706872463,-1.6963404417,-99.6809844971,0
33.5,14.11763303444773,0.8496299078563267,396.65704513851455,0.360000014305,259.0,1.78706872463,-1.6963404417,-99.6809844971,0
33.6,14.1541770478975,0.8444175170670367,396.654252968498,0.360000014305,259.0,1.78706872463,-1.6963404417,-99.6809844971,0
33.7,14.19072106134727,0.8392051262777468,396.65146079848137,0.360000014305,259.0,1.0449550876848546,0.0059340342349631925,-100.49263267618984,0
33.800000000000004,14.237384269794196,0.5821797170433878,396.62496725764237,0.3611375813825715,259.22751363249404,0.729196667671,0.743761837482,-100.838508606,0
33.9,14.295248139131242,0.04642934716590319,396.5722393160147,0.3635342904254112,259.7068558982107,0.729196667671,0.743761837482,-100.838508606,0
34.0,14.353112008468296,-0.4893210227116196,396.5195113743871,0.36593099946825103,260.1861981639274,0.729196667671,0.743761837482,-100.838508606,0
34.1,14.410975877805347,-1.0250713925891421,396.4667834327595,0.36832770851109087,260.66554042964407,-0.417802512646,2.35799145699,-100.619148254,0
34.2,14.474931676296382,-1.3763513677014836,396.41442808741925,0.36864662620703603,261.0676688917506,-0.417802512646,2.35799145699,-100.619148254,0
34.300000000000004,14.552950603599363,-1.3017841508981884,396.3629328751258,0.36416899315245005,261.29155042438987,-0.417802512646,2.35799145699,-100.619148254,0
34.4,14.63096953090234,-1.2272169340948986,396.3114376628324,0.3596913600978644,261.5154319570291,-0.4800306641983088,3.057142680696974,-100.311809032209,0
34.5,14.708988458205319,-1.1526497172916037,396.259942450539,0.35521372704327847,261.73931348966835,-0.758609175682,6.26383447647,-98.9347229004,0
34.6,14.7870073855083,-1.0780825004883088,396.2084472382456,0.3507360939886925,261.96319502230756,-0.758609175682,6.26383447647,-98.9347229004,0
34.7,14.840232794462551,-0.7937483766753837,396.1633461877977,0.34999999404,262.0,-0.758609175682,6.26383447647,-98.9347229004,0
34.800000000000004,14.888580388075368,-0.46814523155032406,396.1195031089014,0.34999999404,262.0,-0.758609175682,6.26383447647,-98.9347229004,0
34.9,14.932468021324617,-0.3357103730347325,396.0711491220839,0.35067311319349426,262.0673117789421,-0.47099122152227,6.700297098763161,-98.54952635692445,0
35.0,14.967176232038861,-0.6008515417944794,396.01351085324364,0.35273163594313006,262.2731636367469,0.127070233226,7.62432765961,-97.7112808228,0
35.1,15.001884442753106,-0.8659927105542262,395.95587258440344,0.3547901586927658,262.4790154945517,0.127070233226,7.62432765961,-97.7112808228,0
35.2,15.036592653467348,-1.1311338793139731,395.89823431556323,0.3568486814424016,262.6848673523565,0.533508718014,5.98204040527,-97.5879745483,0
35.300000000000004,15.071300864181593,-1.39627504807372,395.840596046723,0.35890720419203737,262.89071921016125,0.533508718014,5.98204040527,-97.5879745483,0
35.4,15.100857854299267,-1.4619105655028677,395.78831853572945,0.3586451036237921,263.1354907935487,0.533508718014,5.98204040527,-97.5879745483,0
35.5,15.12458567148469,-1.301783485356014,395.74210731212355,0.3557569624158653,263.42430432906076,0.533508718014,5.98204040527,-97.5879745483,0
35.6,15.148313488670112,-1.1416564052091605,395.6958960885176,0.3528688212079385,263.7131178645728,0.533508718014,5.98204040527,-97.5879745483,0
35.7,15.171893779013658,-0.9804732686030808,395.649993896,0.34996608682968816,264.00169536213235,1.31481254101,3.97369980812,-96.5278015137,0
35.800000000000004,15.173561045865872,-0.662427897946436,395.649993896,0.34489574362822367,264.25521276397245,1.31481254101,3.97369980812,-96.5278015137,0
35.9,15.175228312718085,-0.34438252728981367,395.649993896,0.3398254004267595,264.50873016581255,1.31481254101,3.97369980812,-96.5278015137,0
36.0,15.1768955795703,-0.026337156633168712,395.649993896,0.334755057225295,264.76224756765265,2.24443936348,2.78946661949,-95.6985626221,0
36.1,15.176974035719587,0.27127375470914317,395.65229897933744,0.33017732038684006,265.0,2.24443936348,2.78946661949,-95.6985626221,0
36.2,15.153091544190888,0.260711383006137,395.6893671600908,0.3330286090881599,265.0,2.24443936348,2.78946661949,-95.6985626221,0
36.300000000000004,15.129209052662189,0.2501490113031308,395.72643534084415,0.33587989778947974,265.0,2.24443936348,2.78946661949,-95.6985626221,0
36.4,15.10532656113349,0.2395866396001253,395.76350352159744,0.33873118649079936,265.0,3.43343710899,1.4978732060642241,-94.8707580566,0
36.5,15.077583469060263,0.15640539750765348,395.80229520668087,0.3415927845762265,264.8407217480896,3.43343710899,1.49172723293,-94.8707580566,0
36.6,15.046744968589099,0.014998742384336156,395.84246878810796,0.3444626486694354,264.55373506509824,3.43343710899,1.49172723293,-94.8707580566,0
36.7,15.015906468117937,-0.12640791273898117,395.8826423695351,0.34733251276264426,264.2667483821068,3.43343710899,1.49172723293,-94.8707580566,0
36.800000000000004,14.985363916855675,-0.2499509507684094,395.92307933369307,0.34999999404,263.9793563354575,4.04720449448,1.07448756695,-94.5634841919,0
36.9,14.958722086958865,-0.13804482804310642,395.9669877808441,0.34999999404,263.6866214440439,4.04720449448,1.07448756695,-94.5634841919,0
37.0,14.93208025706205,-0.02613870531779547,396.0108962279951,0.34999999404,263.39388655263025,4.04720449448,1.07448756695,-94.5634841919,0
37.1,14.905438427165238,0.08576741740751548,396.0548046751461,0.34999999404,263.10115166121665,3.95801353455,0.829546689987,-95.1411437988,0
37.2,14.884375751955336,0.2182508234246332,396.08222681918767,0.35349963323734784,263.0,3.95801353455,0.829546689987,-95.1411437988,0
37.300000000000004,14.866258745654894,0.36159857485523944,396.10094456386656,0.3588470036693486,263.0,3.95801353455,0.829546689987,-95.1411437988,0
37.4,14.848141739354457,0.5049463262858356,396.1196623085454,0.36419437410134886,263.0,3.9534572690094825,0.7528489976149313,-95.30997947169652,0
37.5,14.830024733054017,0.6482940777164419,396.13838005322424,0.3695417445333496,263.0,3.92469978333,0.288080781698,-96.3670578003,0
37.6,14.833275016592351,0.5315265446314983,396.1295521781558,0.370000004768,263.0,3.92469978333,0.288080781698,-96.3670578003,0
37.7,14.838528073408463,0.39037819652977385,396.11814242997355,0.370000004768,263.0,3.92469978333,0.288080781698,-96.3670578003,0
37.800000000000004,14.843781130224576,0.24922984842804935,396.1067326817913,0.370000004768,263.0,3.518105335013127,1.7937781893606242,-96.69396908709382,0
37.9,14.850360747474332,0.08414381881672174,396.0925865812209,0.36835171289409285,263.0,3.24520850182,2.81626605988,-96.9137420654,0
38.0,14.858845743176483,-0.11532461915832737,396.07451017582133,0.3643359300713022,263.0,3.24520850182,2.81626605988,-96.9137420654,0
38.1,14.867330738878634,-0.31479305713337646,396.0564337704218,0.36032014724851164,263.0,3.24520850182,2.81626605988,-96.9137420654,0
38.2,14.875815734580785,-0.5142614951084256,396.03835736502225,0.35630436442572105,263.0,2.846544981,3.85941767693,-96.8669967651,0
38.300000000000004,14.884300730282936,-0.7137299330834747,396.0202809596227,0.3522885816029305,263.0,2.846544981,3.85941767693,-96.8669967651,0
38.400000000000006,14.886920212395266,-0.6300852950059622,396.0074032997574,0.3474226325092965,262.8711318005697,2.846544981,3.85941767693,-96.8669967651,0
38.5,14.881767706149454,-0.17130700538674792,396.00141413979077,0.3414301866036969,262.5715092195546,2.846544981,3.85941767693,-96.8669967651,0
38.6,14.876615199903641,0.2874712842324989,395.9954249798242,0.33543774069809684,262.2718866385395,2.819201189617283,3.813366805493441,-96.87513525312785,0
38.7,14.870880976924852,0.6922401530598845,395.9877049959747,0.33041556587983834,262.0,2.60739517212,3.4439997673,-96.9425201416,0
38.800000000000004,14.859444369494884,0.5675718166609657,395.96301829509986,0.3349046504911824,262.0,2.60739517212,3.4439997673,-96.9425201416,0
38.900000000000006,14.848007762064917,0.4429034802620468,395.938331594225,0.3393937351025265,262.0,2.60739517212,3.4439997673,-96.9425201416,0
39.0,14.836571154634951,0.31823514386313684,395.9136448933502,0.34388281971387025,262.0,2.677953346936887,2.11191511154,-97.57563871129244,0
39.1,14.825134547204984,0.19356680746421795,395.88895819247534,0.34837190432521437,262.0,2.68027257919,2.11191511154,-97.622177124,0
39.2,14.819238333427256,0.1618522350124775,395.86351558681724,0.34999999404,261.85011892981754,2.68027257919,2.11191511154,-97.622177124,0
39.300000000000004,14.8164949592201,0.1830343200189731,395.83764282282345,0.34999999404,261.6149459113346,2.68027257919,2.11191511154,-97.622177124,0
39.400000000000006,14.813751585012945,0.20421640502546867,395.8117700588297,0.34999999404,261.37977289285163,2.677189235551718,2.100352305036442,-97.62450003404425,0
39.5,14.811008210805788,0.22539849003196277,395.78589729483593,0.34999999404,261.1445998743687,2.46456313133,1.10712587833,-97.7833175659,0
39.6,14.81202540949554,0.16028367162479368,395.7549211084176,0.34999999404,261.0886436500139,2.46456313133,1.10712587833,-97.7833175659,0
39.7,14.819046356578543,-0.04260400996445285,395.7157973165621,0.34999999404,261.31880674026536,2.46456313133,1.10712587833,-97.7833175659,0
39.800000000000004,14.826067303661544,-0.24549169155369932,395.67667352470653,0.34999999404,261.54896983051674,2.46456313133,1.10712587833,-97.7833175659,0
39.900000000000006,14.833088250744545,-0.44837937314294585,395.637549732851,0.34999999404,261.7791329207682,2.43226742744,1.29337513447,-98.4070129395,0
40.0,14.840685795651767,-0.6457144751127034,395.59760337963365,0.3501848121483457,262.0,2.43226742744,1.29337513447,-98.4070129395,0
40.1,14.861982923859733,-0.7111239543421295,395.5381135119883,0.35476078638738173,262.0,2.43226742744,1.29337513447,-98.4070129395,0
40.2,14.8832800520677,-0.7765334335715555,395.478623644343,0.35933676062641773,262.0,2.43226742744,1.29337513447,-98.4070129395,0
40.300000000000004,14.904577180275668,-0.8419429128009815,395.41913377669766,0.3639127348654538,262.0,1.6575324113607262,1.3495593204497203,-97.93328575135692,0
40.400000000000006,14.925874308483634,-0.9073523920304076,395.35964390905235,0.3684887091044898,262.0,1.65110933781,1.34995317459,-97.9235610962,0
40.5,14.942717648930241,-0.8028586039770447,395.30815093237055,0.3683239539276387,261.6647895122375,1.65110933781,1.34995317459,-97.9235610962,0
40.6,14.957364677442643,-0.6145798235556983,395.26060149049573,0.3658213862750121,261.164275504372,1.65110933781,1.34995317459,-97.9235610962,0
40.7,14.972011705955044,-0.426301043134352,395.2130520486209,0.3633188186223855,260.6637614965064,1.6513725179102245,1.34995317459,-97.92255396995064,0
40.800000000000004,14.986658734467445,-0.23802226271300564,395.1655026067461,0.3608162509697589,260.16324748864093,1.74908173084,-0.0417477153242,-97.5811309814,0
