t_sec,airspeed,climb,altitude,throttle,heading,pitch,roll,yaw,is_boundary
0.0,20.8979206085,-5.90029573441,437.679992676,0.0399999991059,332.0,-21.0012950897,37.3013114929,-35.5745239258,0
0.1,20.874918701213378,-5.7166697241208215,437.1714902145004,0.0399999991059,333.2504146374938,-20.771643401873657,36.66447434793456,-30.827853091899843,0
0.2,20.851916793926755,-5.533043713831643,436.66298775300083,0.0399999991059,334.5008292749876,-20.6317996979,36.2776069641,-27.971660614,0
0.30000000000000004,20.82891488664013,-5.349417703542464,436.1544852915013,0.0399999991059,335.75124391248136,-20.6317996979,36.2776069641,-27.971660614,0
0.4,20.805912979353508,-5.1657916932532855,435.64598283000174,0.0399999991059,337.00165854997516,-20.6317996979,36.2776069641,-27.971660614,0
0.5,20.782733551797147,-5.049237959697258,435.145775857071,0.0399999991059,338.33173762704496,-20.6317996979,36.2776069641,-27.971660614,0
0.6000000000000001,20.758851051275034,-5.198325465824784,434.67842335061346,0.0399999991059,339.97732948403507,-19.6274833679,35.7420692444,-21.0286083221,0
0.7000000000000001,20.73496855075292,-5.34741297195231,434.21107084415587,0.0399999991059,341.6229213410252,-19.6274833679,35.7420692444,-21.0286083221,0
0.8,20.705379085934315,-5.490168376925685,433.7286236933494,0.040725026961984594,343.32626254253006,-19.6274833679,35.7420692444,-21.0286083221,0
0.9,20.646521269323987,-5.600449395424571,433.168763168633,0.04516838373134459,345.3257731334311,-21.2510375977,36.9259910583,-16.0560913086,0
1.0,20.58766345271366,-5.710730413923456,432.6089026439167,0.049611740500704576,347.32528372433217,-21.2510375977,36.9259910583,-16.0560913086,0
1.1,20.528805636103332,-5.821011432422342,432.0490421192003,0.05405509727006457,349.3247943152332,-21.2510375977,36.9259910583,-16.0560913086,0
1.2000000000000002,20.469947819493004,-5.9312924509212275,431.48918159448397,0.058498454039424566,351.3243049061343,-21.2510375977,36.9259910583,-16.0560913086,0
1.3,20.455769699372958,-5.886581746000258,430.8924892306197,0.0599999986589,305.12431098645993,-21.263865285736706,36.996617804565986,-15.853699055051678,0
1.4000000000000001,20.46439676002131,-5.762760963172566,430.276997348948,0.0599999986589,234.32257400100985,-21.8639202118,40.733959198,-7.37872266769,0
1.5,20.47302382066966,-5.638940180344874,429.6615054672763,0.0599999986589,163.52083701556,-21.8639202118,40.733959198,-7.37872266769,0
1.6,20.481650881318007,-5.515119397517182,429.0460135856046,0.0599999986589,92.71910003010998,-21.8639202118,40.733959198,-7.37872266769,0
1.7000000000000002,20.490277941966358,-5.3912986146894895,428.43052170393287,0.0599999986589,21.917363044659908,-21.8639202118,40.733959198,-7.37872266769,0
1.8,20.5637858627784,-5.61544424745782,427.8355305274419,0.05826411044803998,1.2151220011007682,-21.406066222693962,40.75044447920906,-4.851987436174062,0
1.9000000000000001,20.666383188899786,-5.995601006955614,427.2497308647599,0.055749934840711564,2.975045293385853,-20.4836578369,40.7832183838,0.154041290283,0
2.0,20.768980515021177,-6.375757766453406,426.66393120207783,0.05323575923338316,4.734968585670934,-20.4836578369,40.7832183838,0.154041290283,0
2.1,20.871577841142564,-6.7559145259512,426.0781315393958,0.05072158362605475,6.494891877956019,-20.4836578369,40.7832183838,0.154041290283,0
2.2,20.96508693183469,-6.699768936602376,425.5047965938154,0.0477488728962609,8.125563739917144,-20.489956170513917,39.24198898181507,4.055048294293173,0
2.3000000000000003,21.054937681729516,-6.467995999660243,424.9364791440355,0.04459158532989977,9.70420726432646,-20.4954776764,37.8731460571,7.54131507874,0
2.4000000000000004,21.144788431624338,-6.2362230627181106,424.36816169425555,0.041434297763538644,11.282850788735775,-20.4954776764,37.8731460571,7.54131507874,0
2.5,21.23115455910184,-6.123893774034737,423.82252380339975,0.038669160889744966,12.798502947539562,-20.531975308828383,37.60422935870325,7.943586739275845,0
2.6,21.314619919644485,-6.1109951105247,423.2957654658341,0.03623046907261653,14.261718070519478,-20.9953022003,34.023021698,12.8220396042,0
2.7,21.39808528018713,-6.098096447014663,422.7690071282685,0.033791777255488105,15.724933193499393,-20.9953022003,34.023021698,12.8220396042,0
2.8000000000000003,21.481550640729772,-6.085197783504626,422.24224879070294,0.03135308543835968,17.188148316479307,-20.9953022003,34.023021698,12.8220396042,0
2.9000000000000004,21.546786220415353,-6.03857624255326,421.7198392490017,0.028877346620743895,18.56132636687931,-20.980117290044166,33.734841476797556,13.07331788880992,0
3.0,21.589300416949147,-5.949922906193429,421.2028499950076,0.026355432860088616,19.822283275401947,-20.6214866638,26.2885684967,18.5105190277,0
3.1,21.631814613482938,-5.861269569833596,420.6858607410135,0.023833519099433324,21.083240183924588,-20.6214866638,26.2885684967,18.5105190277,0
3.2,21.674328810016732,-5.772616233473765,420.16887148701943,0.02131160533877803,22.34419709244723,-20.6214866638,26.2885684967,18.5105190277,0
3.3000000000000003,21.7019316466639,-5.604980825293713,419.64212319722276,0.019999999553,23.40716556930024,-20.6214866638,26.2885684967,18.5105190277,0
3.4000000000000004,21.713375103791904,-5.351752869991396,419.10479908037377,0.019999999553,24.25557479521438,-21.9498100281,16.6317100525,23.9962520599,0
3.5,21.72481856091991,-5.0985249146890785,418.5674749635248,0.019999999553,25.10398402112851,-21.9498100281,16.6317100525,23.9962520599,0
3.6,21.736262018047913,-4.845296959386761,418.0301508466758,0.019999999553,25.95239324704265,-21.9498100281,16.6317100525,23.9962520599,0
3.7,21.712039462709583,-5.7315136692172794,417.49235576638847,0.026345528123097695,26.3172764355976,-21.930332571940674,12.077601416688116,25.824815187762212,0
3.8000000000000003,21.6856966054219,-6.685469006878531,416.9545326878859,0.03306829080675283,26.653414577294726,-21.9241542816,10.5964899063,26.3882369995,0
3.9000000000000004,21.659353748134215,-7.639424344539783,416.41670960938325,0.03979105349040796,26.98955271899185,-21.9241542816,10.5964899063,26.3882369995,0
4.0,21.668931174345797,-7.08010690478886,415.7771237877852,0.04454651234937542,27.0,-21.8321590424,9.19405937195,27.6494655609,0
4.1000000000000005,21.679660825998447,-6.4722477715001805,415.1342736929095,0.049238865428090306,27.0,-21.8321590424,9.19405937195,27.6494655609,0
4.2,21.6903904776511,-5.864388638211507,414.4914235980339,0.053931218506805156,27.0,-21.8321590424,9.19405937195,27.6494655609,0
4.3,21.70112012930375,-5.256529504922833,413.84857350315826,0.05862357158552,27.0,-21.8321590424,9.19405937195,27.6494655609,0
4.4,21.732259141094612,-5.1792200767590995,413.2346378730417,0.06686067978163848,27.0,-21.77810429334039,9.413475726383085,27.562317205612178,0
4.5,21.771869993270155,-5.322139621356776,412.6327045168127,0.07656920106244176,27.0,-21.5119056702,10.5237531662,27.1343193054,0
4.6000000000000005,21.8114808454457,-5.465059165954454,412.03077116058364,0.08627772234324514,27.0,-21.5119056702,10.5237531662,27.1343193054,0
4.7,21.839377362886786,-5.757951854999335,411.4264534662231,0.09373534606483888,27.498045769035844,-21.172628695860386,10.490294014515783,27.466738409545435,0
4.800000000000001,21.8599898342502,-6.144098776514904,410.820653175607,0.09979334770724023,28.305779489857358,-20.6418571472,10.4383888245,27.9915466309,0
4.9,21.880602305613618,-6.530245698030471,410.2148528849909,0.10585134934964152,29.11351321067886,-20.6418571472,10.4383888245,27.9915466309,0
5.0,21.90121477697703,-6.916392619546037,409.60905259437476,0.11190935099204283,29.921246931500367,-20.6418571472,10.4383888245,27.9915466309,0
5.1000000000000005,21.92182724834045,-7.3025395410616065,409.0032523037586,0.11796735263444419,30.72898065232188,-20.6418571472,10.4383888245,27.9915466309,0
5.2,21.916965781967335,-7.102146797915848,408.3884168527447,0.1247672363998862,31.31781584724026,-20.537012578096142,11.680406287519155,29.30285319942499,0
5.300000000000001,21.899240993250697,-6.605574922519813,407.76901900616303,0.13194174104209552,31.796116018938548,-20.3555030823,13.8571214676,31.5396995544,0
5.4,21.88151620453406,-6.109003047123782,407.1496211595814,0.13911624568430478,32.27441619063683,-20.3555030823,13.8571214676,31.5396995544,0
5.5,21.86379141581742,-5.612431171727751,406.53022331299974,0.146290750326514,32.75271636233511,-20.3555030823,13.8571214676,31.5396995544,0
5.6000000000000005,21.875282990713906,-5.572300940001051,405.88419759552465,0.15831110954228678,33.16622208155257,-20.385811271795728,14.384728730204811,31.633356655954934,0
5.7,21.918048208875025,-6.0207528372572865,405.2096689970531,0.1755185457417899,33.5103708260539,-21.0023269653,23.1179866791,33.4320220947,0
5.800000000000001,21.960813427036147,-6.469204734513526,404.53514039858146,0.1927259819412932,33.85451957055523,-21.0023269653,23.1179866791,33.4320220947,0
5.9,22.03532898247197,-6.660638818638739,403.89149467658297,0.2044442593652786,34.74070936811558,-21.0023269653,23.1179866791,33.4320220947,0
6.0,22.13309461027301,-6.663864421614797,403.27046380451924,0.21214294677197562,36.023823884916,-20.7335586548,27.2795219421,34.9058303833,0
6.1000000000000005,22.230860238074047,-6.667090024590855,402.64943293245545,0.2198416341786727,37.30693840171643,-20.7335586548,27.2795219421,34.9058303833,0
6.2,22.328625865875086,-6.670315627566913,402.0284020603917,0.22754032158536971,38.59005291851685,-20.7335586548,27.2795219421,34.9058303833,0
6.300000000000001,22.3901226208842,-6.400679143046269,401.4560415844638,0.25132144198005607,39.98406628366764,-20.7335586548,27.2795219421,34.91391463498209,0
6.4,22.43459134902429,-6.002935480117141,400.9065315791827,0.2826531720286385,41.4301460193474,-18.9139442444,29.7399215698,39.6887054443,0
6.5,22.479060077164387,-5.605191817188013,400.35702157390165,0.3139849020772209,42.87622575502715,-18.9139442444,29.7399215698,39.6887054443,0
6.6000000000000005,22.523528805304483,-5.2074481542588815,399.80751156862055,0.3453166321258036,44.322305490706924,-18.9139442444,29.7399215698,39.6887054443,0
6.7,22.605231995966754,-5.262340578445544,399.280262274473,0.37830724407130734,45.976385742729654,-18.9139442444,29.7399215698,39.6887054443,0
6.800000000000001,22.719774952336678,-5.71644550752218,398.7726463116156,0.41276094395044577,47.813916695019785,-17.6291904449,33.1024246216,45.4665527344,0
6.9,22.8343179087066,-6.170550436598813,398.26503034875816,0.44721464382958387,49.65144764730991,-17.6291904449,33.1024246216,45.4665527344,0
7.0,22.948860865076522,-6.624655365675444,397.75741438590074,0.481668343708722,51.488978599600024,-17.6291904449,33.1024246216,45.4665527344,0
7.1000000000000005,23.068913712358786,-6.901722971475741,397.27100719329894,0.5145992678729624,53.36794210507223,-17.6291904449,33.1024246216,45.4665527344,0
7.2,23.21446524117799,-6.359496983592537,396.88274997991476,0.540483088269793,55.43864724312116,-14.554149547902123,35.214815634755695,50.63030466717828,0
7.300000000000001,23.360016769997195,-5.817270995709328,396.4944927665306,0.5663669086666239,57.50935238117011,-12.7291650772,36.4810523987,53.6924209595,0
7.4,23.5055682988164,-5.275045007826124,396.1062355531464,0.5922507290634544,59.58005751921905,-12.7291650772,36.4810523987,53.6924209595,0
7.5,23.649155623401377,-4.9385050295397575,395.7684185206526,0.6168635366334115,61.784402631962,-12.7291650772,36.4810523987,53.6924209595,0
7.6000000000000005,23.788457119655614,-5.050765085285774,395.54066028576256,0.6387030364753686,64.28034572605688,-8.40787124634,37.3962135315,61.8688850403,0
7.7,23.927758615909855,-5.16302514103179,395.31290205087254,0.6605425363173255,66.77628882015173,-8.40787124634,37.3962135315,61.8688850403,0
7.800000000000001,24.065286481377537,-5.231655159964417,395.0982696305401,0.6809763575256712,69.21967871600987,-8.40787124634,37.3962135315,61.8688850403,0
7.9,24.188326542871508,-4.943895661130097,394.9908546929811,0.6899279713613586,71.2337907486195,-6.12998199463,38.3811950684,69.130645752,0
8.0,24.31136660436548,-4.656136162295776,394.88343975542216,0.6988795851970462,73.24790278122913,-6.12998199463,38.3811950684,69.130645752,0
8.1,24.434406665859456,-4.368376663461455,394.77602481786323,0.7078311990327336,75.26201481383876,-6.12998199463,38.3811950684,69.130645752,0
8.200000000000001,24.55744672735343,-4.08061716462713,394.66860988030425,0.7167828128684213,77.27612684644843,-6.12998199463,38.3811950684,69.130645752,0
8.3,24.640279058301914,-3.3308435224762434,394.6474643605196,0.72000002861,79.42869296908896,-3.770887750556369,38.615066824846124,75.11887905633121,0
8.4,24.700553320989147,-2.3218623488082892,394.67471926992135,0.72000002861,81.65893710965277,-2.53013467789,38.7407646179,78.7983398438,0
8.5,24.760827583676384,-1.3128811751403346,394.7019741793231,0.72000002861,83.88918125021658,-2.53013467789,38.7407646179,78.7983398438,0
8.6,24.821101846363618,-0.3039000014723805,394.7292290887248,0.72000002861,86.11942539078038,-2.53013467789,38.7407646179,78.7983398438,0
8.700000000000001,24.800515336811824,0.2486152691169497,394.86081999940353,0.7160384919938751,88.38653500576117,-2.4189017281464675,38.640026241147595,79.09516557828668,0
8.8,24.727172251474656,0.5033152042550688,395.06048359855777,0.7094923015223886,90.67769702762708,1.39866578579,34.3454246521,87.5901031494,0
8.9,24.653829166137484,0.758015139393188,395.26014719771194,0.702946111050902,92.96885904949298,1.39866578579,34.3454246521,87.5901031494,0
9.0,24.47847522681936,1.489142220184318,395.5912939516151,0.689032165488231,94.73118814366539,1.7810226683565862,33.91821626388426,88.1390422289533,0
9.1,24.21964048600756,2.610154479075039,396.0300402276574,0.6690888017193759,96.06074567542798,6.0781211853,28.8905467987,94.0238189697,0
9.200000000000001,23.960805745195753,3.73116673796578,396.46878650369973,0.6491454379505204,97.3903032071906,6.0781211853,28.8905467987,94.0238189697,0
9.3,23.671289148725013,4.583532903629425,396.9615859153378,0.6289960756513406,98.41264671272049,6.0781211853,28.8905467987,94.0238189697,0
9.4,23.35578609684638,5.208365252572481,397.5001664366139,0.60867223982351,99.1747907152569,9.59685611725,20.6580123901,98.8026580811,0
9.5,23.040283044967747,5.833197601515536,398.0387469578899,0.5883484039956794,99.93693471779332,9.59685611725,20.6580123901,98.8026580811,0
9.600000000000001,22.724779993089108,6.458029950458602,398.5773274791659,0.5680245681678485,100.69907872032974,9.59685611725,20.6580123901,98.8026580811,0
9.700000000000001,22.400676102620064,7.262312019123738,399.1341793187946,0.547880353918367,101.12119649188085,9.59685611725,20.6580123901,98.8026580811,0
9.8,22.070960660016777,8.183674701162964,399.70295214199024,0.5278533324101217,101.32146671890142,10.8461179733,7.88446903229,101.836837769,0
9.9,21.741245217413486,9.105037383202191,400.27172496518585,0.5078263109018764,101.52173694592197,10.8461179733,7.88446903229,101.836837769,0
10.0,21.411529774810198,10.026400065241416,400.84049778838147,0.487799289393631,101.72200717294254,10.8461179733,7.88446903229,101.836837769,0
10.100000000000001,21.081814332206903,10.94776274728066,401.4092706115771,0.46777226788538534,101.92227739996311,10.8461179733,7.88446903229,101.836837769,0
10.200000000000001,20.758051135413428,10.303176870054422,401.96121631475063,0.4483374908461796,102.0,11.364164350569158,2.12679247480228,102.36480391241626,0
10.3,20.438062993525417,8.665429423356342,402.50248986089065,0.4292783292401258,102.0,11.9472169876,-4.42347669601,102.951072693,0
10.4,20.118074851637406,7.027681976658261,403.0437634070307,0.4102191676340721,102.0,11.9472169876,-4.42347669601,102.951072693,0
10.5,19.857834361280403,6.886637440421918,403.51842670800534,0.3929657903671091,101.71609657699892,11.4809370041,-8.54778194427,102.300437927,0
10.600000000000001,19.598288933118745,6.763004494165701,403.99231511219233,0.37573342032628604,101.42889042106353,11.4809370041,-8.54778194427,102.300437927,0
10.700000000000001,19.338743504957094,6.639371547909486,404.4662035163794,0.35850105028546325,101.14168426512813,11.4809370041,-8.54778194427,102.300437927,0
10.8,19.10814371151179,6.447299767451874,404.88763639055804,0.343392498971687,100.73570010274855,11.4809370041,-8.54778194427,102.300437927,0
10.9,18.90572621394446,6.1885939852213285,405.25799706398465,0.330351758170389,100.21407028415138,9.07413196564,-11.7555789948,101.035842896,0
11.0,18.703308716377137,5.929888202990783,405.62835773741125,0.31731101736909095,99.6924404655542,9.07413196564,-11.7555789948,101.035842896,0
11.100000000000001,18.50089121880981,5.671182420760234,405.9987184108378,0.3042702765677927,99.17081064695701,9.07413196564,-11.7555789948,101.035842896,0
11.200000000000001,18.343992275767118,5.0936387774370475,406.2151043858011,0.2985589674688926,98.42358338732294,7.866823758096831,-12.101048012834504,100.62876306719544,0
11.3,18.20925590072364,4.360855894841373,406.35652148795003,0.2964162916492419,97.56651479639787,3.75060415268,-13.3115596771,99.2504730225,0
11.4,18.07451952568016,3.6280730122456983,406.49793859009895,0.2942736158295912,96.7094462054728,3.75060415268,-13.3115596771,99.2504730225,0
11.5,17.93978315063668,2.8952901296500237,406.6393556922479,0.29213094000994055,95.85237761454773,3.75060415268,-13.3115596771,99.2504730225,0
11.600000000000001,17.8053034229677,2.1638960199355313,406.7799685047634,0.289999991655,94.99546329483516,3.75060415268,-13.3115596771,99.2504730225,0
11.700000000000001,17.717458011752097,1.6848499973564806,406.7744372261587,0.289999991655,94.16658094918036,-1.52158379555,-12.5301122665,95.5866928101,0
11.8,17.629612600536493,1.2058039747774296,406.76890594755395,0.289999991655,93.33769860352554,-1.52158379555,-12.5301122665,95.5866928101,0
11.9,17.541767189320886,0.7267579521983787,406.7633746689492,0.289999991655,92.50881625787073,-1.52158379555,-12.5301122665,95.5866928101,0
12.0,17.474672664896662,0.35360434908647953,406.7213848550043,0.2909896337492077,91.70310797341907,-1.52158379555,-12.5301122665,95.5866928101,0
12.100000000000001,17.440566291881375,0.1487903066671286,406.62143608749557,0.29355253213711513,90.93424001523465,-5.52752494812,-13.1601428986,92.3707580566,0
12.200000000000001,17.40645991886609,-0.056023735752218695,406.52148731998676,0.29611543052502254,90.16537205705023,-5.52752494812,-13.1601428986,92.3707580566,0
12.3,17.372353545850803,-0.260837778171566,406.421538552478,0.2986783289129299,89.39650409886583,-5.52752494812,-13.1601428986,92.3707580566,0
12.4,17.35150434406957,-0.6651936503832758,406.27698001772904,0.30429305698830744,88.42759401376928,-5.52752494812,-13.1601428986,92.3707580566,0
12.5,17.344771772036694,-1.2820275905596017,406.0849196776422,0.3131574639727412,87.24567312947309,-8.87943553925,-10.3722047806,89.1732254028,0
12.600000000000001,17.338039200003816,-1.8988615307359387,405.8928593375553,0.3220218709571751,86.0637522451769,-8.87943553925,-10.3722047806,89.1732254028,0
12.700000000000001,17.337489577401843,-2.446842441554358,405.69543856550933,0.330818746119057,85.0,-8.87943553925,-10.3722047806,89.1732254028,0
12.8,17.39259876908391,-2.375009456633739,405.4497632686237,0.3390077008682487,85.0,-11.389377594,-8.51842021942,85.9498748779,0
12.9,17.447707960765975,-2.3031764717131202,405.2040879717381,0.3471966556174405,85.0,-11.389377594,-8.51842021942,85.9498748779,0
13.0,17.502817152448042,-2.2313434867925017,404.9584126748524,0.35538561036663224,85.0,-11.389377594,-8.51842021942,85.9498748779,0
13.100000000000001,17.584832632339523,-2.273783875870856,404.7056972608429,0.3637469738683562,85.0,-11.44693431046438,-8.162790323652564,85.91541342445745,0
13.200000000000001,17.701581562348537,-2.4637402844263163,404.4438937275417,0.37233090061474955,85.0,-11.9859972,-4.75814008713,85.5951309204,0
13.3,17.818330492357553,-2.6536966929817765,404.18209019424046,0.38091482736114296,85.0,-11.9859972,-4.75814008713,85.5951309204,0
13.4,17.935079422366567,-2.8436531015372366,403.92028666093927,0.3894987541075363,85.0,-11.9859972,-4.75814008713,85.5951309204,0
13.5,18.051828352375583,-3.033609510092697,403.6584831276381,0.39808268085392967,85.0,-11.9859972,-4.75814008713,85.5951309204,0
13.600000000000001,18.173418105521367,-3.286792520960304,403.4944295047963,0.4022950376046263,84.5409932333659,-11.480090910479591,-3.297036127715292,85.471678682259,0
13.700000000000001,18.296400087007,-3.558159601992134,403.35848890978366,0.4052501239561143,83.94997539947367,-10.2056407928,0.360610067844,85.1436462402,0
13.8,18.419382068492634,-3.829526683023965,403.222548314771,0.4082052103076024,83.35895756558146,-10.2056407928,0.360610067844,85.1436462402,0
13.9,18.525786645940453,-3.7768685735115954,403.12624219444365,0.409999996424,82.72517804400543,-10.2056407928,0.360610067844,85.1436462402,0
14.0,18.606548813162725,-3.2229988846475157,403.0912438311472,0.409999996424,82.02525350147052,-8.4588727951,2.17903065681,83.0363616943,0
14.100000000000001,18.687310980385003,-2.669129195783426,403.0562454678508,0.409999996424,81.32532895893559,-8.4588727951,2.17903065681,83.0363616943,0
14.200000000000001,18.71964302923759,-2.1486394106254343,403.0265697779331,0.40878090350308677,81.24381881668826,-8.457732685321963,2.237050575378426,82.98653904113853,0
14.3,18.70991446477769,-1.6571394208561876,403.00151672604125,0.40650305215529725,81.6993895206784,-8.41205883026,3.56544876099,81.1179656982,0
14.4,18.700185900317788,-1.1656394310869411,402.9764636741494,0.40422520080750773,82.15496022466851,-8.41205883026,3.56544876099,81.1179656982,0
14.5,18.690457335857886,-0.6741394413176942,402.9514106222575,0.4019473494597182,82.61053092865865,-8.41205883026,3.56544876099,81.1179656982,0
14.600000000000001,18.68152773809087,-0.21143726100517637,402.91636465363183,0.4005451263348988,83.0,-8.41205883026,3.56544876099,81.1179656982,0
14.700000000000001,18.677305630947636,0.0815889876193252,402.82244068389815,0.4043020815416109,83.0,-7.37869787216,6.8788895607,83.0439529419,0
14.8,18.6730835238044,0.3746152362438267,402.7285167141644,0.40805903674832295,83.0,-7.37869787216,6.8788895607,83.0439529419,0
14.9,18.66599216691532,0.36608230816021453,402.67422740374616,0.40903907953802554,83.09609178023057,-7.37869787216,6.8788895607,83.0439529419,0
15.0,18.65583411852785,0.03523900440776878,402.6623001334188,0.4070511221690327,83.29488770670164,-6.2190182001974765,8.712025422498481,83.57417303862228,0
15.100000000000001,18.645676070140382,-0.2956042993446829,402.6503728630914,0.40506316480003984,83.49368363317272,-6.02230453491,8.9935464859,83.6673049927,0
15.200000000000001,18.63551802175291,-0.6264476030971285,402.63844559276396,0.403075207431047,83.6924795596438,-6.02230453491,8.9935464859,83.6673049927,0
15.3,18.62535997336544,-0.9572909068495744,402.62651832243654,0.4010872500620542,83.89127548611489,-6.02230453491,8.9935464859,83.6673049927,0
15.4,18.597808202711104,-1.0460554066135288,402.63338088539604,0.3989703680561457,84.10296358172972,-5.805572856495827,8.930528237129229,83.79161231819457,0
15.5,18.549260602816126,-0.8426084318386764,402.6629245125405,0.3966978621061463,84.33021371620727,-4.48744678497,8.53741359711,84.5283737183,0
15.600000000000001,18.500713002921145,-0.6391614570638203,402.692468139685,0.39442535615614693,84.55746385068481,-4.48744678497,8.53741359711,84.5283737183,0
15.700000000000001,18.452165403026168,-0.4357144822889679,402.7220117668295,0.3921528502061476,84.78471398516236,-4.48744678497,8.53741359711,84.5283737183,0
15.8,18.40359170108661,-0.22957695984320836,402.7505461252179,0.389999985695,84.97267873084955,-4.48744678497,8.53741359711,84.5283737183,0
15.9,18.354548311002315,0.024975097330966367,402.76091939403676,0.389999985695,84.45373021851303,-3.66474270821,9.92170333862,85.4043197632,0
16.0,18.30550492091802,0.2795271545051411,402.77129266285567,0.389999985695,83.93478170617651,-3.66474270821,9.92170333862,85.4043197632,0
16.1,18.25646153083372,0.5340792116793204,402.7816659316746,0.389999985695,83.41583319383997,-3.66474270821,9.92170333862,85.4043197632,0
16.2,18.206478000766875,0.7043286997389624,402.792728269188,0.3894501391467934,82.94501529274042,-3.66474270821,9.92170333862,85.4043197632,0
16.3,18.152703167746196,0.5346111773200847,402.80656941435257,0.3866829261626745,82.66829373041918,-2.13373708725,9.18677997589,83.4178771973,0
16.400000000000002,18.09892833472552,0.36489365490120695,402.82041055951714,0.3839157131785556,82.39157216809794,-2.13373708725,9.18677997589,83.4178771973,0
16.5,18.045153501704846,0.19517613248233523,402.8342517046817,0.3811485001944368,82.11485060577671,-2.13373708725,9.18677997589,83.4178771973,0
16.6,17.99711497426171,0.19355253071104628,402.83249826448366,0.379999995232,82.0,-2.13373708725,9.18677997589,83.4178771973,0
16.7,17.953146467683126,0.31119484931160657,402.8196801613346,0.379999995232,82.0,-3.20212125778,7.5408449173,82.5464401245,0
16.8,17.9123410451958,0.39803043548810807,402.79301277236937,0.38056611969205884,82.05661249999723,-3.20212125778,7.5408449173,82.5464401245,0
16.900000000000002,17.881303403748234,0.3897331044904236,402.72357801222273,0.38288046822949473,82.28804757446045,-3.88115692139,6.52899980545,83.0131149292,0
17.0,17.850265762300673,0.3814357734927394,402.6541432520761,0.38519481676693057,82.51948264892366,-3.88115692139,6.52899980545,83.0131149292,0
17.1,17.81922812085311,0.37313844249505485,402.5847084919295,0.38750916530436647,82.75091772338688,-3.88115692139,6.52899980545,83.0131149292,0
17.2,17.788190479405547,0.36484111149737064,402.5152737317829,0.38982351384180225,82.98235279785008,-3.88115692139,6.52899980545,83.0131149292,0
17.3,17.79759575397683,0.005355258191068024,402.3795116355871,0.39407720186591794,83.0,-5.117835062176477,6.749685712164618,83.49730947290814,0
17.400000000000002,17.81033940460655,-0.383119586767791,402.23827452392555,0.398490973413895,83.0,-5.8939948082,6.88971757889,83.7967605591,0
17.5,17.823083055236275,-0.7715944317266362,402.09703741226394,0.4029047449618719,83.0,-5.8939948082,6.88971757889,83.7967605591,0
17.6,17.835826705866,-1.1600692766854954,401.9558003006024,0.40731851650984896,83.0,-5.8939948082,6.88971757889,83.7967605591,0
17.7,17.860777170279032,-1.4393495194348447,401.807965905773,0.4127568683788787,83.06892181325078,-5.8939948082,6.88971757889,83.7967605591,0
17.8,17.904623024669466,-1.5496032964084525,401.64991932613776,0.4197812069822958,83.24453031497254,-6.62958145142,7.25622558594,83.4927978516,0
17.900000000000002,17.9484688790599,-1.6598570733820601,401.49187274650245,0.426805545585713,83.42013881669429,-6.62958145142,7.25622558594,83.4927978516,0
18.0,17.99231473345033,-1.770110850355664,401.3338261668672,0.4338298841891299,83.59574731841603,-6.62958145142,7.25622558594,83.4927978516,0
18.1,18.03616058784076,-1.8803646273292718,401.17577958723194,0.440854222792547,83.77135582013779,-6.62958145142,7.25622558594,83.4927978516,0
18.2,18.08000644223119,-1.9906184043028756,401.01773300759663,0.44787856139596394,83.94696432185953,-6.62958145142,7.25622558594,83.4927978516,0
18.3,18.12819169514133,-2.0415754189105764,400.8694869740603,0.45251269598192034,84.0,-6.5661065834843715,6.783031447452294,83.80661132815764,0
18.400000000000002,18.17825454976194,-2.0668754900643735,400.7254815102792,0.4561126201511115,84.0,-6.50721073151,6.36490011215,84.0930938721,0
18.5,18.22831740438255,-2.0921755612181703,400.5814760464982,0.4597125443203024,84.0,-6.50721073151,6.36490011215,84.0930938721,0
18.6,18.241632034874367,-1.938640693527152,400.49980258570514,0.460000008345,84.0,-4.982018592323489,6.395726888304203,84.26058500770544,0
18.7,18.25175755758896,-1.7695860583417795,400.42353846047075,0.460000008345,84.0,-4.26144218445,6.41055965424,84.3383255005,0
18.8,18.260926878468265,-1.5982671726065354,400.3491186207535,0.460000008345,84.0,-4.26144218445,6.41055965424,84.3383255005,0
18.900000000000002,18.24435764667568,-1.3660003469181976,400.3243423167129,0.460000008345,84.0,-2.3168399334,6.0290722847,84.4866714478,0
19.0,18.227788414883097,-1.133733521229868,400.29956601267236,0.460000008345,84.0,-2.3168399334,6.0290722847,84.4866714478,0
19.1,18.202981949055076,-0.8727255844664885,400.289978027,0.460000008345,84.0,-2.3168399334,6.0290722847,84.4866714478,0
19.200000000000003,18.17297553416116,-0.5935741406661038,400.289978027,0.460000008345,84.0,-1.98455822468,4.74478435516,84.4338684082,0
19.3,18.14296911926725,-0.3144226968657291,400.289978027,0.460000008345,84.0,-1.98455822468,4.74478435516,84.4338684082,0
19.400000000000002,18.11310999015498,-0.04505359873332064,400.29075199685536,0.45980655681510896,84.0,-1.98455822468,4.74478435516,84.4338684082,0
19.5,18.084828879609848,0.11950753408431948,400.29981827292335,0.45754046729806497,84.0,-2.19554424286,5.00836229324,84.4548034668,0
19.6,18.056547769064714,0.28406866690196547,400.3088845489913,0.455274377781021,84.0,-2.19554424286,5.00836229324,84.4548034668,0
19.700000000000003,18.02826665851958,0.4486297997196115,400.31795082505926,0.45300828826397693,84.0,-2.19554424286,5.00836229324,84.4548034668,0
19.8,17.999985547974447,0.6131909325372515,400.3270171011272,0.450742198746933,84.0,-2.19554424286,5.00836229324,84.4548034668,0
19.900000000000002,17.97231185966524,0.595588133141308,400.33272900033387,0.449999988079,84.0,-2.086736802729703,4.760851443863641,84.5514275068001,0
20.0,17.944934018538184,0.4892617361441425,400.33680713823975,0.449999988079,84.0,-1.99562144279,4.55318403244,84.634147644,0
20.1,17.917556177411125,0.3829353391469732,400.3408852761457,0.449999988079,84.0,-1.99562144279,4.55318403244,84.634147644,0
20.200000000000003,17.890178336284066,0.2766089421498039,400.3449634140516,0.449999988079,84.0,-1.99562144279,4.55318403244,84.634147644,0
20.3,17.862800495157007,0.17028254515263835,400.3490415519575,0.449999988079,84.0,-1.99562144279,4.55318403244,84.634147644,0
20.400000000000002,17.84673861296636,0.06668154122541144,400.3389624676978,0.449999988079,84.0,-2.0660939487751033,4.793833268369151,84.51469235712113,0
20.5,17.834182280898123,-0.03607516819140885,400.32449764360155,0.449999988079,84.0,-2.30413603783,5.603038311,84.1222686768,0
20.6,17.821625948829887,-0.1388318776082328,400.3100328195053,0.449999988079,84.0,-2.30413603783,5.603038311,84.1222686768,0
20.700000000000003,17.816267328259016,-0.18808557815862303,400.28616745357215,0.4507678175120232,84.0,-2.30413603783,5.603038311,84.1222686768,0
20.8,17.82726719499005,-0.11574114415261659,400.2409371518082,0.4532807193940783,84.0,-3.28544569016,6.77105236053,84.5003433228,0
20.900000000000002,17.83826706172108,-0.043396710146607564,400.1957068500443,0.45579362127613354,84.0,-3.28544569016,6.77105236053,84.5003433228,0
21.0,17.849266928452113,0.028947723859398894,400.1504765482804,0.45830652315818865,84.0,-3.28544569016,6.77105236053,84.5003433228,0
21.1,17.86410568498308,-0.00015439114104458251,400.0987600450466,0.46068501540887796,84.0,-3.28544569016,6.77105236053,84.5003433228,0
21.200000000000003,17.88687825961628,-0.23891568076256736,400.03363853533494,0.462785723815274,84.0,-3.6154092772918522,7.630874432697033,84.45283726604616,0
21.3,17.90965083424948,-0.4776769703840817,399.96851702562327,0.46488643222167,84.0,-3.71285915375,7.88744354248,84.438949585,0
21.400000000000002,17.932423408882677,-0.7164382600056045,399.9033955159116,0.46698714062806607,84.0,-3.71285915375,7.88744354248,84.438949585,0
21.5,17.955195983515875,-0.9551995496271186,399.8382740062,0.46908784903446205,84.0,-3.71285915375,7.88744354248,84.438949585,0
21.6,17.977910091008432,-1.0166001475278221,399.7813523312619,0.47168487751176424,84.16848803106346,-3.71285915375,7.88744354248,84.438949585,0
21.700000000000003,18.00057932836365,-0.9418867075382437,399.7307235536409,0.47466280283989387,84.46628084788144,-2.84592628479,7.69836759567,84.7309188843,0
21.8,18.023248565718866,-0.8671732675486677,399.6800947760199,0.4776407281680234,84.7640736646994,-2.84592628479,7.69836759567,84.7309188843,0
21.900000000000002,18.04049597860067,-0.7777965748236825,399.63738707207045,0.479999989271,84.94804613739298,-2.84592628479,7.69836759567,84.7309188843,0
22.0,18.03706739460529,-0.6325019214097567,399.62488619154345,0.479999989271,84.6979674726482,-1.95678901672,7.74432039261,85.0790328979,0
22.1,18.033638810609908,-0.48720726799582575,399.6123853110165,0.479999989271,84.44788880790341,-1.95678901672,7.74432039261,85.0790328979,0
22.200000000000003,18.03021022661453,-0.3419126145818948,399.5998844304895,0.479999989271,84.19781014315862,-1.95678901672,7.74432039261,85.0790328979,0
22.3,18.02011020207527,-0.21246126263496576,399.5971677367959,0.4793479577148572,84.0,-1.95678901672,7.74432039261,85.0790328979,0
22.400000000000002,17.984762120598276,-0.14296886181554952,399.63147928379993,0.4762283136923479,84.0,0.361587226391,7.36158132553,84.9628143311,0
22.5,17.949414039121283,-0.0734764609961358,399.6657908308039,0.47310866966983867,84.0,0.361587226391,7.36158132553,84.9628143311,0
22.6,17.91406378831865,-0.004236951728882921,399.700093199983,0.4699920345787286,84.00079642368668,0.361587226391,7.36158132553,84.9628143311,0
22.700000000000003,17.87809897261462,-0.006641030212906905,399.73179551272904,0.467727822745325,84.22721782296514,0.5924578806886213,6.653709345913008,84.74147203927282,0
22.8,17.84213415691059,-0.009045108696930804,399.7634978254751,0.4654636109119214,84.45363922224358,0.846327543259,5.8874707222,84.5005493164,0
22.900000000000002,17.80616934120656,-0.011449187180954789,399.7952001382211,0.46319939907851776,84.68006062152203,0.846327543259,5.8874707222,84.5005493164,0
23.0,17.77020452550253,-0.013853265664978687,399.82690245096717,0.4609351872451142,84.90648202080048,0.846327543259,5.8874707222,84.5005493164,0
23.1,17.744751213705072,-0.01261668802833367,399.8306017137634,0.4613419558356565,85.0,0.846327543259,5.8874707222,84.5005493164,0
23.200000000000003,17.72669436020122,-0.008818349353762744,399.81459652771116,0.4636281696021059,85.0,-1.06530416012,4.61702156067,85.018081665,0
23.3,17.708637506697364,-0.0050200106791919545,399.7985913416589,0.4659143833685552,85.0,-1.06530416012,4.61702156067,85.018081665,0
23.400000000000002,17.690580653193507,-0.001221672004621031,399.7825861556066,0.4682005971350045,85.0,-1.06530416012,4.61702156067,85.018081665,0
23.5,17.67575296042458,0.014599369606618602,399.76436540135995,0.469999998808,85.0,-1.06530416012,4.61702156067,85.018081665,0
23.6,17.67286120208895,0.07485988194810593,399.73795525089804,0.469999998808,85.0,-1.65386235714,4.46971654892,85.857421875,0
23.700000000000003,17.669969443753313,0.13512039428959327,399.7115451004361,0.469999998808,85.0,-1.65386235714,4.46971654892,85.857421875,0
23.8,17.66707768541768,0.19538090663107843,399.6851349499742,0.469999998808,85.0,-1.65386235714,4.46971654892,85.857421875,0
23.900000000000002,17.66579461481814,0.16084287864352337,399.66135735575585,0.469999998808,84.89216247141903,-1.65386235714,4.46971654892,85.857421875,0
24.0,17.666676641186697,-0.0012823918161728731,399.64112286030877,0.469999998808,84.63918881670257,-1.74673163891,5.20356321335,85.4341812134,0
24.1,17.66755866755525,-0.16340766227587492,399.6208883648617,0.469999998808,84.38621516198612,-1.74673163891,5.20356321335,85.4341812134,0
24.200000000000003,17.66844069392381,-0.32553293273557693,399.6006538694146,0.469999998808,84.13324150726964,-1.74673163891,5.20356321335,85.4341812134,0
24.3,17.6763978908301,-0.38125312332636657,399.57941055811807,0.4709622027048075,84.19244096289245,-1.74673163891,5.20356321335,85.4341812134,0
24.400000000000002,17.692228548680173,-0.3185625652151076,399.55704460643466,0.4729951758164437,84.59903597298934,-1.386406453616894,8.149382433862653,84.69254143032548,0
24.5,17.708059206530244,-0.25587200710385094,399.5346786547512,0.4750281489280798,85.00563098308623,-1.3806425333,8.2046661377,84.6821746826,0
24.6,17.723889864380315,-0.193181448992592,399.5123127030678,0.477061122039716,85.41222599318313,-1.3806425333,8.2046661377,84.6821746826,0
24.700000000000003,17.739720522230385,-0.13049089088133303,399.48994675138437,0.47909409515135215,85.81882100328002,-1.3806425333,8.2046661377,84.6821746826,0
24.8,17.76650982673715,0.03873284932397249,399.46653689351535,0.4816807217021038,86.33614580498767,-1.378681149603333,10.811886242091902,85.20377050637192,0
24.900000000000002,17.802107186079613,0.29358304862610884,399.4422879919931,0.48471234935604596,86.94247010699927,-1.37560200691,14.9319343567,86.0175323486,0
25.0,17.837704545422078,0.5484332479282362,399.4180390904708,0.48774397700998795,87.54879440901084,-1.37560200691,14.9319343567,86.0175323486,0
25.1,17.88037150592098,0.6682425264809231,399.38991713477,0.4913436310960811,88.20154342607412,-1.37560200691,14.9319343567,86.0175323486,0
25.200000000000003,17.943602352922195,0.3952480094575829,399.3505293318476,0.4965955468618054,88.9893315422463,-1.88416147232,19.8268566132,88.0305099487,0
25.3,18.006833199923406,0.12225349243425254,399.3111415289252,0.5018474626275296,89.77711965841844,-1.88416147232,19.8268566132,88.0305099487,0
25.400000000000002,18.070064046924617,-0.15074102458908767,399.2717537260028,0.5070993783932538,90.56490777459061,-1.88416147232,19.8268566132,88.0305099487,0
25.5,18.14898931569204,-0.4726243806046036,399.2247278097297,0.5129159059037336,91.48598540468501,-1.88416147232,19.8268566132,88.0305099487,0
25.6,18.247275515708225,-0.8548179197322476,399.16827937444583,0.5194289489874083,92.57149146378879,-1.99402785301,27.1070289612,91.4813461304,0
25.700000000000003,18.345561715724408,-1.2370114588598915,399.111830939162,0.5259419920710832,93.65699752289258,-1.99402785301,27.1070289612,91.4813461304,0
25.8,18.443847915740584,-1.6192049979875218,399.0553825038782,0.5324550351547577,94.74250358199633,-1.99402785301,27.1070289612,91.4813461304,0
25.900000000000002,18.542134115756767,-2.0013985371151657,398.9989340685944,0.5389680782384324,95.82800964110011,-1.99402785301,27.1070289612,91.4813461304,0
26.0,18.660580563759186,-1.8364962876767028,398.934875019509,0.5471117112770552,97.60013173529305,-1.6981173374857466,29.298511489431235,93.4688285823279,0
26.1,18.78282264251639,-1.5685906623716739,398.86938309718573,0.5555623404094592,99.50152510339527,-1.15727949142,33.1434898376,97.1842422485,0
26.200000000000003,18.905064721273593,-1.300685037066645,398.8038911748625,0.5640129695418631,101.40291847149747,-1.15727949142,33.1434898376,97.1842422485,0
26.3,19.02730680003079,-1.0327794117616254,398.7383992525393,0.5724635986742668,103.3043118395996,-1.15727949142,33.1434898376,97.1842422485,0
26.400000000000002,19.15389200920102,-0.8060395397740092,398.6699997097776,0.580587812376007,105.20573975581055,-1.15727949142,33.1434898376,97.1842422485,0
26.5,19.31627891198281,-0.9186410062686216,398.5776318017642,0.5860212882625397,107.10745246218112,-1.98261332512,38.4834861755,105.14995575,0
26.6,19.478665814764607,-1.0312424727632379,398.48526389375075,0.5914547641490726,109.00916516855175,-1.98261332512,38.4834861755,105.14995575,0
26.700000000000003,19.641052717546405,-1.1438439392578543,398.3928959857373,0.5968882400356055,110.91087787492236,-1.98261332512,38.4834861755,105.14995575,0
26.8,19.806021145288195,-1.3790210950076556,398.30816447278227,0.6018725048838222,113.1234896965654,-1.98261332512,38.4834861755,105.14995575,0
26.900000000000002,19.97444961307365,-1.7784874983045602,398.2336680856155,0.6062546883248429,115.75280226875321,-3.2021780014,39.8258934021,113.189125061,0
27.0,20.142878080859095,-2.1779539016014504,398.1591716984487,0.6106368717658633,118.38211484094094,-3.2021780014,39.8258934021,113.189125061,0
27.1,20.311306548644552,-2.577420304898355,398.08467531128196,0.615019055206884,121.01142741312876,-3.2021780014,39.8258934021,113.189125061,0
27.200000000000003,20.479735016430006,-2.9768867081952597,398.01017892411517,0.6194012386479048,123.64073998531657,-3.2021780014,39.8258934021,113.189125061,0
27.3,20.617852550556407,-2.4798201793053476,397.96766105464906,0.6249750355152569,125.74126242209482,-2.7667400108506413,40.48128906710724,117.19325780707985,0
27.400000000000002,20.751173056334103,-1.8408677573699617,397.93020412648167,0.630737417909242,127.75809818334503,-1.94324350357,41.7346382141,124.693206787,0
27.5,20.884493562111796,-1.2019153354345984,397.8927471983143,0.6364998003032268,129.77493394459515,-1.94324350357,41.7346382141,124.693206787,0
27.6,21.014730337504492,-0.6172850689174187,397.86060630801074,0.64093880840216,132.03270596276766,-1.94324350357,41.7346382141,124.693206787,0
27.700000000000003,21.140195809586647,-0.11670478330752909,397.83669065983025,0.6433302249912204,134.6632667194999,-1.6969240225367748,43.297828046519456,132.16424095225761,0
27.8,21.265661281668798,0.3838755023023429,397.81277501164976,0.6457216415802807,137.293827476232,-1.68989348412,43.3468208313,132.357269287,0
27.900000000000002,21.391126753750957,0.8844557879122324,397.78885936346927,0.6481130581693411,139.92438823296422,-1.68989348412,43.3468208313,132.357269287,0
28.0,21.51200550400281,1.1691470906871415,397.7671717789254,0.6509390974088999,142.46955827446558,-1.68989348412,43.3468208313,132.357269287,0
28.1,21.615729067057572,0.6463737048771687,397.75381756409257,0.6553907056725392,144.69535126218494,-1.64140057564,44.5746803284,142.140213013,0
28.200000000000003,21.719452630112333,0.12360031906719593,397.74046334925976,0.6598423139361786,146.9211442499043,-1.64140057564,44.5746803284,142.140213013,0
28.3,21.778175447219084,-0.06950824698987706,397.76871515022435,0.6577904892162022,149.87238373128628,-1.4086939996994727,44.680831237320376,143.88279745028308,0
28.400000000000002,21.835245413225017,-0.2505084168692674,397.79849511583524,0.6554997972032591,152.85026843843912,-0.880044341087,44.9243927002,147.80166626,0
28.5,21.89231537923095,-0.4315085867486512,397.82827508144607,0.6532091051903162,155.8281531455918,-0.880044341087,44.9243927002,147.80166626,0
28.6,21.949385345236884,-0.6125087566280416,397.8580550470569,0.6509184131773731,158.80603785274465,-0.880044341087,44.9243927002,147.80166626,0
28.700000000000003,21.96367492325289,-0.3700851256099368,397.9337615943728,0.646135187589651,161.5459169016805,-0.880044341087,44.9243927002,147.80166626,0
28.8,21.949332000591397,0.1557319675927692,398.04020635944624,0.6396837333433825,164.12650106129107,2.15022420883,44.5724639893,160.098403931,0
28.900000000000002,21.934989077929906,0.6815490607954937,398.1466511245197,0.6332322790971138,166.7070852209017,2.15022420883,44.5724639893,160.098403931,0
29.0,21.892618866482255,1.058972916399155,398.28587454212686,0.6233072151422815,169.11546330394674,2.15022420883,44.5724639893,160.098403931,0
29.1,21.822107195403664,1.287399045634794,398.45801013807824,0.609894391521039,171.3509338186272,2.86092329025,42.3660316467,168.781677246,0
29.200000000000003,21.751595524325072,1.5158251748704326,398.63014573402967,0.5964815678997966,173.58640433330766,2.86092329025,42.3660316467,168.781677246,0
29.3,21.68108385324648,1.7442513041060632,398.80228132998104,0.5830687442785546,175.82187484798806,2.86092329025,42.3660316467,168.781677246,0
29.400000000000002,21.608933213034632,1.9738656109409014,398.9741653154242,0.569644511353163,178.0457047681637,2.86092329025,42.3660316467,168.781677246,0
29.5,21.474530287260443,2.2486099752632662,399.13649248317563,0.5557869235551602,179.82739480997017,2.6545252361047775,38.59517270478595,177.26996729089785,0
29.6,21.34012736148625,2.523354339585641,399.298819650927,0.541929335757157,181.60908485177674,2.63823699951,38.2756996155,178.273254395,0
29.700000000000003,21.205724435712057,2.798098703908016,399.4611468186784,0.5280717479591537,183.39077489358328,2.63823699951,38.2756996155,178.273254395,0
29.8,21.07132150993787,3.0728430682303802,399.62347398642976,0.5142141601611508,185.17246493538977,2.63823699951,38.2756996155,178.273254395,0
29.900000000000002,20.936918584163674,3.3475874325527553,399.7858011541812,0.5003565723631476,186.9541549771963,2.63823699951,38.2756996155,178.273254395,0
30.0,20.74327298703862,3.2670853882150492,400.04004430837927,0.4871762348022275,188.28237646882417,3.44119238853,26.8581829071,-172.782211304,0
30.1,20.5480627446893,3.17720100874508,400.2967150355741,0.47401378394906185,189.59862150184193,3.44119238853,26.8581829071,-172.782211304,0
30.200000000000003,20.35285250233998,3.0873166292751106,400.553385762769,0.4608513330958962,190.91486653485967,3.44119238853,26.8581829071,-172.782211304,0
30.3,20.15764225999067,2.9974322498051444,400.8100564899638,0.44768888224273107,192.2311115678774,3.44119238853,26.8581829071,-172.782211304,0
30.400000000000002,19.97482083710377,3.047333818764558,401.09127765756176,0.4314906017784738,193.24312562019838,3.44119238853,26.8581829071,-172.782211304,0
30.5,19.809402364974627,3.293596952643188,401.4069855740151,0.41102779930782096,193.82777717909457,2.85980319977,15.3579721451,-166.296157837,0
30.6,19.64398389284548,3.5398600865218266,401.7226934904685,0.39056499683716744,194.41242873799078,2.85980319977,15.3579721451,-166.296157837,0
30.700000000000003,19.478565420716333,3.7861232204004653,402.0384014069219,0.37010219436651387,194.99708029688702,2.85980319977,15.3579721451,-166.296157837,0
30.8,19.318976404019846,3.7373248374898487,402.31432363755505,0.35884784113433776,195.22304321949528,1.94974792004,6.20581054688,-164.473953247,0
30.900000000000002,19.159416645269268,3.6870455454274804,402.59004618445147,0.34763970496529806,195.44720588943122,1.94974792004,6.20581054688,-164.473953247,0
31.0,18.999856886518693,3.6367662533651135,402.86576873134794,0.33643156879625874,195.67136855936712,1.94974792004,6.20581054688,-164.473953247,0
31.1,18.840297127768114,3.5864869613027452,403.14149127824436,0.32522343262721903,195.89553122930306,1.94974792004,6.20581054688,-164.473953247,0
31.200000000000003,18.70301998510032,3.411756147218063,403.3611381675812,0.3157605764431496,195.89401456779254,1.9273453941227454,6.026356054956843,-164.4381288435856,0
31.3,18.585191097731084,3.128404111837275,403.53184225324543,0.30782099968861726,195.69552510751936,1.24796867371,-0.108519271016,-163.465988159,0
31.400000000000002,18.46736221036185,2.8450520764564775,403.7025463389096,0.29988142293408465,195.49703564724618,1.24796867371,-0.108519271016,-163.465988159,0
31.5,18.349533322992613,2.5617000410756896,403.87325042457377,0.2919418461795523,195.298546186973,1.24796867371,-0.108519271016,-163.465988159,0
31.6,18.231704435623378,2.2783480056948915,404.043954510238,0.2840022694250197,195.10005672669982,1.24796867371,-0.108519271016,-163.465988159,0
31.700000000000003,18.153959891566696,2.0386226000201404,404.14280443151813,0.280000001192,195.0,0.852358328147282,-0.4990267428616256,-163.5400538668738,0
31.8,18.116961022634214,1.843243598299317,404.1686147019928,0.280000001192,195.0,-3.39878797531,-4.93423509598,-164.302215576,0
31.900000000000002,18.07996215370173,1.6478645965784868,404.1944249724675,0.280000001192,195.0,-3.39878797531,-4.93423509598,-164.302215576,0
32.0,18.042963284769247,1.4524855948576634,404.22023524294224,0.280000001192,195.0,-3.39878797531,-4.93423509598,-164.302215576,0
32.1,18.017717949953983,1.1647589525934676,404.22258205541704,0.280580296870257,194.8839407536629,-3.39878797531,-4.93423509598,-164.302215576,0
32.2,18.03081782522636,0.5757535934414343,404.1483807235281,0.2830537728867676,194.38924507856953,-7.45390176773,-7.1730670929,-164.718734741,0
32.300000000000004,18.043917700498742,-0.01325176571059905,404.0741793916391,0.28552724890327813,193.89454940347613,-7.45390176773,-7.1730670929,-164.718734741,0
32.4,18.05701757577112,-0.6022571248625903,403.99997805975016,0.28800072491978856,193.3998537283828,-7.45390176773,-7.1730670929,-164.718734741,0
32.5,18.077127156754894,-1.1316103338348826,403.9189665602929,0.2905393540468047,192.78425548050598,-7.45390176773,-7.1730670929,-164.718734741,0
32.6,18.126789663008317,-1.4094700266712823,403.80924338854766,0.2933526687433914,191.6589318824521,-9.381099698946459,-6.540031058109845,-166.5620773352387,0
32.7,18.17645216926174,-1.687329719507682,403.6995202168024,0.296165983439978,190.53360828439824,-9.4138250351,-6.53080320358,-166.588653564,0
32.800000000000004,18.226114675515166,-1.9651894123440818,403.5897970450571,0.2989792981365647,189.40828468634436,-9.4138250351,-6.53080320358,-166.588653564,0
32.9,18.283843130845824,-2.092694913295462,403.44454327267715,0.3039542419268272,188.7363846767525,-9.4138250351,-6.53080320358,-166.588653564,0
33.0,18.346164368290946,-2.134588164936719,403.2790582410184,0.3101600255531045,188.32266578477245,-10.2953557968,-8.40889835358,-170.446731567,0
33.1,18.408485605736068,-2.1764814165779756,403.11357320935963,0.3163658091793818,187.9089468927924,-10.2953557968,-8.40889835358,-170.446731567,0
33.2,18.47080684318119,-2.2183746682192322,402.9480881777008,0.3225715928056591,187.49522800081235,-10.2953557968,-8.40889835358,-170.446731567,0
33.300000000000004,18.533128080626312,-2.260267919860489,402.78260314604205,0.32877737643193644,187.08150910883228,-10.2953557968,-8.40889835358,-170.446731567,0
33.4,18.613380319060763,-2.156891950664852,402.60162543703905,0.3339045529781765,186.2190912822511,-10.986188020261299,-8.439094610483439,-172.65431802022857,0
33.5,18.698032006232893,-2.017873549091145,402.41684653256317,0.33876708860673854,185.2465832291064,-11.0174789429,-8.44062137604,-172.767578125,0
33.6,18.782683693405023,-1.8788551475174369,402.23206762808724,0.3436296242353005,184.27407517596168,-11.0174789429,-8.44062137604,-172.767578125,0
33.7,18.867335380577153,-1.7398367459437294,402.04728872361136,0.34849215986386256,183.30156712281698,-11.0174789429,-8.44062137604,-172.767578125,0
33.800000000000004,18.95024568036437,-1.797746261152936,401.87933613774055,0.3539519454024122,182.60480507574133,-10.780563376438668,-6.611274613406906,-174.65044122849352,0
33.9,19.03237328057307,-1.9441687625016948,401.71894645980996,0.35968017623743437,182.03198229950127,-10.5702018738,-4.9550151825,-176.35887146,0
34.0,19.11450088078177,-2.090591263850464,401.5585567818793,0.3654084070724569,181.45915952326115,-10.5702018738,-4.9550151825,-176.35887146,0
34.1,19.1919850438848,-2.2199912717439276,401.4115890148826,0.3706345944683701,180.87308193889692,-10.5702018738,-4.9550151825,-176.35887146,0
34.2,19.250711355951065,-2.2806263993897784,401.31884104244705,0.37383270313068856,180.23345959648935,-8.86185932159,-3.47186112404,-178.600875854,0
34.300000000000004,19.30943766801733,-2.3412615270356287,401.22609307001153,0.377030811793007,179.5938372540818,-8.86185932159,-3.47186112404,-178.600875854,0
34.4,19.365118011251248,-2.384390256027194,401.1393458900061,0.3797872397777539,178.95744886857403,-8.86185932159,-3.47186112404,-178.600875854,0
34.5,19.381291828811314,-2.200459213248463,401.13042959838185,0.3768150244346976,178.36300523310132,-6.91750320700381,-2.0449219840716824,161.23152423372878,0
34.6,19.397465646371376,-2.0165281704697318,401.1215133067576,0.37384280909164136,177.7685615976286,-6.81201171875,-1.98398602009,178.88432312,0
34.7,19.413639463931442,-1.8325971276910007,401.11259701513336,0.3708705937485851,177.17411796215592,-6.81201171875,-1.98398602009,178.88432312,0
34.800000000000004,19.389728722140248,-1.2158162510742923,401.15500608320815,0.365261038771533,176.76305182727566,-6.5254054307860025,-1.6315989742306944,178.57331875796356,0
34.9,19.349213137411233,-0.41972933684953495,401.21867644366887,0.35855897807395104,176.4279489721457,-5.19037103653,0.10620445013,177.059814453,0
35.0,19.30869755268222,0.3763575773752792,401.28234680412965,0.3518569173763686,176.09284611701577,-5.19037103653,0.10620445013,177.059814453,0
35.1,19.254356259142046,0.7433397707752833,401.3422552101249,0.34807876030199664,175.80787644299065,-4.790417116445997,0.33032213539325966,176.8976855539062,0
35.2,19.194716192952246,0.9458654151774869,401.4007218280931,0.3454212040416895,175.54212056353512,-4.15119791031,0.694154500961,176.642089844,0
35.300000000000004,19.135076126762446,1.1483910595796905,401.4591884460612,0.34276364778138235,175.2763646840796,-4.15119791031,0.694154500961,176.642089844,0
35.4,19.075436060572653,1.3509167039818797,401.5176550640293,0.3401060915210754,175.0106088046241,-4.15119791031,0.694154500961,176.642089844,0
35.5,19.017556101735302,0.9638573091803768,401.53512042623646,0.340000003576,175.0,-4.71526670456,2.2254254818,175.771209717,0
35.6,18.95974932670785,0.552283455436574,401.5508809900955,0.340000003576,175.0,-4.71526670456,2.2254254818,175.771209717,0
35.7,18.901942551680396,0.14070960169277114,401.56664155395447,0.340000003576,175.0,-4.71526670456,2.2254254818,175.771209717,0
35.800000000000004,18.87150525082118,0.030683420718269572,401.52693928291774,0.3419565133500158,175.19565116397453,-6.10025501251,5.07679796219,175.717224121,0
35.9,18.84841457681457,0.0015999066174673948,401.47234944956756,0.34443819752653604,175.4438198182802,-6.10025501251,5.07679796219,175.717224121,0
36.0,18.825323902807963,-0.027483607483336857,401.4177596162174,0.3469198817030565,175.69198847258585,-6.10025501251,5.07679796219,175.717224121,0
36.1,18.802233228801352,-0.0565671215841411,401.3631697828672,0.3494015658795769,175.94015712689153,-6.10025501251,5.07679796219,175.717224121,0
36.2,18.78471028934677,-0.18540308862109384,401.2765638995354,0.3540799388412666,176.0,-6.118791223560202,6.568729323982178,176.32130366388168,0
36.300000000000004,18.768956567203702,-0.34593664557573256,401.17978451577096,0.3594563371470914,176.0,-6.13885068893,8.24928951263,176.949417114,0
36.4,18.753202845060635,-0.5064702025303598,401.0830051320065,0.36483273545291584,176.0,-6.13885068893,8.24928951263,176.949417114,0
36.5,18.738391667975648,-0.6698461626294092,400.98572140407623,0.37018560933984107,176.0,-6.13885068893,8.24928951263,176.949417114,0
36.6,18.746869390910916,-0.9034537175790623,400.87597607470474,0.3749572294871275,176.0,-5.69866371155,10.2813367844,176.183303833,0
36.7,18.755347113846184,-1.1370612725287155,400.7662307453332,0.3797288496344139,176.0,-5.69866371155,10.2813367844,176.183303833,0
36.800000000000004,18.763824836781453,-1.3706688274783687,400.6564854159617,0.3845004697817003,176.0,-5.69866371155,10.2813367844,176.183303833,0
36.9,18.77230255971672,-1.604276382428005,400.5467400865902,0.3892720899289864,176.0,-5.69866371155,10.2813367844,176.183303833,0
37.0,18.796089688978054,-1.4947468433123972,400.40289884735597,0.3963549178894531,176.42366212946337,-6.170626358266995,10.792499704836564,176.58707838474035,0
37.1,18.82263260745601,-1.323450473824017,400.25292013036926,0.4038537777608439,176.92358610102576,-6.64664506912,11.3180055618,176.986083984,0
37.2,18.84917552593397,-1.152154104335637,400.10294141338255,0.4113526376322348,177.4235100725882,-6.64664506912,11.3180055618,176.986083984,0
37.300000000000004,18.875718444411923,-0.9808577348472567,399.95296269639584,0.4188514975036256,177.92343404415058,-6.64664506912,11.3180055618,176.986083984,0
37.4,18.953466138251887,-1.234066767718165,399.8018326517537,0.427119875851265,178.0,-6.977939705665266,14.26748407581667,177.88411873617895,0
37.5,19.040474416335297,-1.5640492658089236,399.6504943849943,0.4355274246302917,178.0,-7.36032009125,17.5910205841,178.9140625,0
37.6,19.127482694418706,-1.8940317638996822,399.49915611823485,0.44393497340931837,178.0,-7.36032009125,17.5910205841,178.9140625,0
37.7,19.209898190832195,-2.100331574252065,399.35784007329625,0.45097409204487027,178.19482039835103,-7.204167340628655,17.942348375785883,178.89517170097835,0
37.800000000000004,19.28042259541843,-1.98640667046843,399.2424723900586,0.45447023179208934,178.89404693074235,-5.06228303909,22.7241649628,178.645980835,0
37.9,19.35094700000466,-1.8724817666848028,399.127104706821,0.4579663715393082,179.59327346313364,-5.06228303909,22.7241649628,178.645980835,0
38.0,19.42521922532392,-1.7643187543647332,399.0086476858935,0.46360346115281525,180.6306043729275,-5.06228303909,22.7241649628,178.645980835,0
38.1,19.504702863193135,-1.664167756392117,398.88589488500344,0.47221758029809024,182.1380755378468,-4.55304813385,24.716217041,-179.676605225,0
38.2,19.584186501062348,-1.5640167584195004,398.7631420841134,0.48083169944336523,183.6455467027661,-4.55304813385,24.716217041,-179.676605225,0
38.300000000000004,19.66367013893156,-1.4638657604468839,398.6403892832233,0.4894458185886402,185.1530178676854,-4.55304813385,24.716217041,-179.676605225,0
38.400000000000006,19.743153776800774,-1.3637147624742676,398.51763648233333,0.49805993773391527,186.6604890326047,-4.55304813385,24.716217041,-179.676605225,0
38.5,19.843421870851152,-1.3713009550543735,398.39595914638664,0.5070524324655489,188.41048783824502,-4.842193414179889,26.599661135158705,-176.8040972118839,0
38.6,19.949731738276874,-1.410204959548408,398.27459443422975,0.5161549161006029,190.23098630140453,-5.32039260864,29.7926254272,-172.171340942,0
38.7,20.056041605702593,-1.4491089640424428,398.15322972207287,0.5252573997356569,192.051484764564,-5.32039260864,29.7926254272,-172.171340942,0
38.800000000000004,20.168019975207187,-1.5443567569534757,398.03822786644685,0.5339820160518827,193.79640810958077,-5.320423251186483,30.006000660129384,-171.95057360158165,0
38.900000000000006,20.286164358475535,-1.7008935059321924,397.9301473209659,0.5422956004841377,195.45912327822532,-5.32117033005,35.5425033569,-166.804779053,0
39.0,20.40430874174388,-1.8574302549108976,397.8220667754849,0.5506091849163922,197.12183844686973,-5.32117033005,35.5425033569,-166.804779053,0
39.1,20.52245312501223,-2.013967003889614,397.71398623000397,0.5589227693486473,198.78455361551428,-5.32117033005,35.5425033569,-166.804779053,0
39.2,20.612810641543934,-1.9363876619815934,397.6305305961784,0.5669453876505712,200.389078378032,-4.476030452688684,37.283270447835335,-162.87012633852152,0
39.300000000000004,20.699031690793184,-1.8239568357580378,397.55074072799533,0.5749246915374578,201.98494067732997,-3.98123025894,38.3183860779,-160.607849121,0
39.400000000000006,20.78525274004243,-1.7115260095344822,397.47095085981226,0.5829039954243445,203.58080297662798,-3.98123025894,38.3183860779,-160.607849121,0
39.5,20.870159479633656,-1.556665124808901,397.3912121798082,0.5910132117111794,205.30397106711115,-3.98123025894,38.3183860779,-160.607849121,0
39.6,20.944508035990122,-1.060952805572424,397.31188470744434,0.6001660472963765,208.04981890584335,-2.50048732758,41.9960441589,-153.572097778,0
39.7,21.018856592346587,-0.565240486335947,397.2325572350805,0.6093188828815735,210.79566674457556,-2.50048732758,41.9960441589,-153.572097778,0
39.800000000000004,21.093205148703053,-0.0695281670994703,397.1532297627167,0.6184717184667705,213.54151458330773,-2.50048732758,41.9960441589,-153.572097778,0
39.900000000000006,21.164938826360977,-0.12374102384924901,397.0821346172614,0.6220660658694069,216.06606307160465,-1.7455230038731477,44.67000020521051,-146.1387958013655,0
40.0,21.236148370310072,-0.28818244387005343,397.0126895827796,0.6245462541226209,218.54625368992836,-1.72034800053,44.7749710083,-145.936477661,0
40.1,21.30735791425917,-0.45262386389086956,396.9432445482978,0.6270264423758349,221.02644430825225,-1.72034800053,44.7749710083,-145.936477661,0
40.2,21.37856745820827,-0.6170652839116857,396.87379951381604,0.6295066306290491,223.50663492657614,-1.72034800053,44.7749710083,-145.936477661,0
40.300000000000004,21.420827100116952,-0.26662522847052345,396.84394513307836,0.6360160932688581,226.606973122621,-1.4218039127011828,44.63042150134102,-139.6987974751131,0
40.400000000000006,21.455897952560722,0.2116693019636452,396.8239218348137,0.6435260983361036,229.86130528960172,-1.2341285944,44.5379676819,-135.829483032,0
40.5,21.490968805004496,0.6899638323977798,396.803898536549,0.6510361034033487,233.1156374565822,-1.2341285944,44.5379676819,-135.829483032,0
40.6,21.52603965744827,1.1682583628319483,396.7838752382844,0.6585461084705942,236.36996962356292,-1.2341285944,44.5379676819,-135.829483032,0
40.7,21.525036612267467,0.8159823116120335,396.786984255718,0.6582526884901677,239.09679478476656,-0.946635155655037,46.20880097236588,-129.2505982182068,0
