t_sec,airspeed,climb,altitude,throttle,heading,pitch,roll,yaw,is_boundary
0.0,20.2655258179,-0.406542122364,419.929992676,0.40000000596,295.0,-2.90093278885,-3.14478302002,-63.0539550781,0
0.1,20.217343742234743,-0.2196612045589839,420.04241310888114,0.38804041363360653,294.76080821049544,-1.70798170567,-2.90670084953,-64.6685638428,0
0.2,20.169161666569487,-0.032780286753967824,420.15483354176223,0.37608082130721304,294.5216164209909,-1.70798170567,-2.90670084953,-64.6685638428,0
0.30000000000000004,20.12097959090423,0.15410063105104832,420.2672539746434,0.36412122898081956,294.2824246314864,-1.70798170567,-2.90670084953,-64.6685638428,0
0.4,20.072797515238975,0.34098154885606435,420.3796744075245,0.35216163665442607,294.0432328419818,-1.70798170567,-2.90670084953,-64.6685638428,0
0.5,19.98087380056073,0.5747705082149039,420.45825172622057,0.324106572057208,294.0,-2.3676970005,15.9484539032,-65.7979049683,0
0.6000000000000001,19.87929972088828,0.8189084104202422,420.52936251161344,0.29250049323938915,294.0,-2.3676970005,15.9484539032,-65.7979049683,0
0.7000000000000001,19.777725641215834,1.06304631262558,420.6004732970064,0.2608944144215703,294.0,-2.3676970005,15.9484539032,-65.7979049683,0
0.8,19.67615156154339,1.3071842148309178,420.67158408239925,0.22928833560375145,294.0,-2.3676970005,15.9484539032,-65.7979049683,0
0.9,19.57457748187094,1.5513221170362559,420.7426948677922,0.19768225678593263,294.0,-2.3676970005,15.9484539032,-65.7979049683,0
1.0,19.459107531434526,1.5518610869339322,420.7017634251914,0.17180623542287288,294.9096881638765,-4.97563123703,26.1303272247,-65.2007522583,0
1.1,19.339175430631997,1.4741771744052365,420.6248537213392,0.14777021231569162,296.1114893908665,-4.97563123703,26.1303272247,-65.2007522583,0
1.2000000000000002,19.219243329829467,1.3964932618765409,420.54794401748705,0.1237341892085104,297.3132906178565,-4.97563123703,26.1303272247,-65.2007522583,0
1.3,19.099311229026938,1.3188093493478452,420.47103431363485,0.09969816610132921,298.51509184484655,-4.97563123703,26.1303272247,-65.2007522583,0
1.4000000000000001,18.988439433179632,0.6879505758987164,420.26890147405544,0.08335529748368924,299.4983529216724,-13.2932100296,28.4016342163,-60.2638778687,0
1.5,18.883696048853604,-0.3170769708641177,419.9820674117784,0.07221609660589354,300.33379292837463,-13.2932100296,28.4016342163,-60.2638778687,0
1.6,18.778952664527576,-1.3221045176269541,419.6952333495014,0.061076895728097824,301.1692329350769,-13.2932100296,28.4016342163,-60.2638778687,0
1.7000000000000002,18.674636154380334,-2.3225569096785534,419.40729006768544,0.04997904656463349,302.00419083579663,-15.03676145384642,29.260635223627872,-58.60520650542702,0
1.8,18.646210384021515,-2.5096270618676253,418.92214701230125,0.04623280672323175,302.7534387510415,-16.1962985992,29.8320198059,-57.4981575012,0
1.9000000000000001,18.617784613662696,-2.6966972140566976,418.437003956917,0.042486566881829994,303.5026866662863,-16.1962985992,29.8320198059,-57.4981575012,0
2.0,18.589358843303877,-2.8837673662457695,417.95186090153277,0.038740327040428256,304.25193458153115,-16.1962985992,29.8320198059,-57.4981575012,0
2.1,18.56093307294506,-3.0708375184348418,417.4667178461485,0.034994087199026504,305.001182496776,-16.1962985992,29.8320198059,-57.4981575012,0
2.2,18.53250730258624,-3.257907670623914,416.98157479076434,0.03124784735762475,305.7504304120208,-16.1962985992,29.8320198059,-57.4981575012,0
2.3000000000000003,18.57339692611829,-3.8068210280513206,416.46996566582845,0.026697999901424227,306.9905998505366,-18.8107414246,28.1820049286,-53.6583099365,0
2.4000000000000004,18.64890685105228,-4.536460774270809,415.94513778451875,0.02174678218283964,308.47596519931585,-18.8107414246,28.1820049286,-53.6583099365,0
2.5,18.724416775986274,-5.266100520490294,415.42030990320904,0.016795564464255074,309.9613305480951,-18.8107414246,28.1820049286,-53.6583099365,0
2.6,18.799926700920267,-5.995740266709783,414.89548202189934,0.011844346745670486,311.4466958968743,-18.8107414246,28.1820049286,-53.6583099365,0
2.7,18.852821701480586,-6.130942786020528,414.38586459823165,0.008225315970873528,312.53240515358226,-19.9987983704,18.3438739777,-47.3298339844,0
2.8000000000000003,18.89229169321645,-5.913266609609236,413.88527663337146,0.0053971178860586074,313.3808645979915,-19.9987983704,18.3438739777,-47.3298339844,0
2.9000000000000004,18.931761684952313,-5.695590433197944,413.38468866851133,0.002568919801243687,314.2293240424007,-19.9987983704,18.3438739777,-47.3298339844,0
3.0,18.975849330882188,-5.518933921990302,412.87603113469106,0.0,315.02021021345547,-20.48642417451171,17.628424465067937,-46.70527874676312,0
3.1,19.065688526579002,-5.748698761350931,412.2874206051802,0.0,315.24066248659324,-22.4388408661,14.8183345795,-44.1604423523,0
3.2,19.155527722275814,-5.978463600711559,411.69881007566937,0.0,315.46111475973095,-22.4388408661,14.8183345795,-44.1604423523,0
3.3000000000000003,19.245366917972625,-6.208228440072188,411.11019954615847,0.0,315.68156703286866,-22.4388408661,14.8183345795,-44.1604423523,0
3.4000000000000004,19.335206113669436,-6.437993279432817,410.5215890166476,0.0,315.9020193060064,-22.4388408661,14.8183345795,-44.1604423523,0
3.5,19.424437887374545,-6.52240494792689,409.9224380760545,0.0,316.2304041062699,-22.1183681488,8.99642372131,-43.162689209,0
3.6,19.513183706471164,-6.490530008089477,409.31485451133716,0.0,316.6451379516437,-22.1183681488,8.99642372131,-43.162689209,0
3.7,19.60192952556778,-6.458655068252065,408.7072709466199,0.0,317.05987179701754,-22.1183681488,8.99642372131,-43.162689209,0
3.8000000000000003,19.6906753446644,-6.426780128414652,408.0996873819025,0.0,317.47460564239134,-22.1183681488,8.99642372131,-43.162689209,0
3.9000000000000004,19.779421163761018,-6.39490518857724,407.49210381718524,0.0,317.8893394877652,-22.1183681488,8.99642372131,-43.162689209,0
4.0,19.85847271083399,-6.490767275951617,406.8641943670499,0.0,318.16117465834975,-24.8592262268,1.51795339584,-41.5942306519,0
4.1000000000000005,19.933996250051734,-6.63311632328624,406.2288877773207,0.0,318.38100513524216,-24.8592262268,1.51795339584,-41.5942306519,0
4.2,20.009519789269476,-6.775465370620861,405.59358118759155,0.0,318.6008356121345,-24.8592262268,1.51795339584,-41.5942306519,0
4.3,20.085043328487217,-6.917814417955482,404.9582745978624,0.0,318.82066608902693,-24.8592262268,1.51795339584,-41.5942306519,0
4.4,20.174909286672683,-7.053592062597329,404.3169949277989,0.0026079173358317894,318.9130694201959,-25.072173727554922,1.3995698234408545,-40.85448387013423,0
4.5,20.328288829971047,-7.160269083057295,403.64926422830604,0.01676466615187214,318.44117778244697,-25.1252708435,1.38286936283,-40.6661109924,0
4.6000000000000005,20.48166837326941,-7.266946103517261,402.98153352881326,0.030921414967912616,317.96928614469806,-25.1252708435,1.38286936283,-40.6661109924,0
4.7,20.63504791656778,-7.373623123977228,402.3138028293204,0.04507816378395297,317.49739450694915,-25.1252708435,1.38286936283,-40.6661109924,0
4.800000000000001,20.788427459866142,-7.480300144437194,401.64607212982764,0.059234912599993444,317.02550286920024,-25.1252708435,1.38286936283,-40.6661109924,0
4.9,20.843879364445833,-7.258394388188018,400.9883636094506,0.09345079135553047,317.0,-22.7725563049,4.94209575653,-42.5056419373,0
5.0,20.893736514100457,-7.017716198207784,400.33122767140776,0.12881267870976287,317.0,-22.7725563049,4.94209575653,-42.5056419373,0
5.1000000000000005,20.94359366375508,-6.777038008227547,399.6740917333649,0.16417456606399558,317.0,-22.7725563049,4.94209575653,-42.5056419373,0
5.2,21.03992485700707,-6.755452770305976,399.01247000549773,0.20355974021880507,317.11779867235043,-23.2110424042,3.60483217239,-42.4023017883,0
5.300000000000001,21.17390221318619,-6.911343136634484,398.347214576719,0.24620396606512068,317.33101981429104,-23.2110424042,3.60483217239,-42.4023017883,0
5.4,21.30787956936531,-7.067233502962989,397.6819591479403,0.28884819191143596,317.54424095623165,-23.2110424042,3.60483217239,-42.4023017883,0
5.5,21.441856925544425,-7.223123869291495,397.01670371916157,0.3314924177577512,317.7574620981723,-23.2110424042,3.60483217239,-42.4023017883,0
5.6000000000000005,21.575834281723544,-7.3790142356200015,396.35144829038285,0.3741366436040668,317.9706832401129,-23.2110424042,3.60483217239,-42.4023017883,0
5.7,21.747848496466577,-7.501502122049496,395.8164629767468,0.4033430008130721,317.7877908859507,-18.9952487946,2.92332339287,-41.2643356323,0
5.800000000000001,21.925926283142623,-7.618665217019985,395.3022444205063,0.43040718629220764,317.54175286813654,-18.9952487946,2.92332339287,-41.2643356323,0
5.9,22.104004069818668,-7.735828311990473,394.7880258642659,0.45747137177134295,317.2957148503223,-18.9952487946,2.92332339287,-41.2643356323,0
6.0,22.28208185649471,-7.85299140696096,394.2738073080254,0.48453555725047825,317.0496768325081,-18.9952487946,2.92332339287,-41.2643356323,0
6.1000000000000005,22.44134588692582,-7.2317537865364,393.96019528801855,0.501384026730101,317.0,-13.872590065,1.90662896633,-42.0464859009,0
6.2,22.59585028109596,-6.423710364316593,393.69733411922994,0.5156480525893234,317.0,-13.872590065,1.90662896633,-42.0464859009,0
6.300000000000001,22.750354675266102,-5.615666942096778,393.4344729504413,0.529912078448546,317.0,-13.872590065,1.90662896633,-42.0464859009,0
6.4,22.904859069436245,-4.807623519876971,393.17161178165276,0.5441761043077685,317.0,-13.872590065,1.90662896633,-42.0464859009,0
6.5,23.059363463606385,-3.999580097657165,392.90875061286414,0.558440130166991,317.0,-13.275697429528204,1.787561556461968,-42.06014708869248,0
6.6000000000000005,23.049018536759807,-3.32923318441767,392.8903678244727,0.5620730948266973,317.0,-6.69214344025,0.473486542702,-42.2618865967,0
6.7,23.018432680600757,-2.675793258041425,392.90200317376923,0.564400730735707,317.0,-6.69214344025,0.473486542702,-42.2618865967,0
6.800000000000001,22.987846824441707,-2.0223533316651743,392.91363852306574,0.5667283666447167,317.0,-6.69214344025,0.473486542702,-42.2618865967,0
6.9,22.957260968282657,-1.3689134052889296,392.92527387236225,0.5690560025537263,317.0,-6.69214344025,0.473486542702,-42.2618865967,0
7.0,22.838149812712444,-0.5030284844924643,393.0610442930625,0.5661829545722813,316.61829580849684,-1.14952909946,2.22951841354,-42.2293930054,0
7.1000000000000005,22.658642394975903,0.5077967377124555,393.2815056932499,0.5597617472535465,315.97617446423226,-1.14952909946,2.22951841354,-42.2293930054,0
7.2,22.479134977239365,1.518621959917366,393.5019670934374,0.5533405399348119,315.3340531199677,-1.14952909946,2.22951841354,-42.2293930054,0
7.300000000000001,22.299627559502824,2.529447182122286,393.7224284936249,0.5469193326160772,314.69193177570304,-1.14952909946,2.22951841354,-42.2293930054,0
7.4,22.120120141766286,3.540272404327197,393.9428898938123,0.5404981252973425,314.04981043143846,-0.9429458122084378,2.0607769817339627,-42.32052295723005,0
7.5,21.873134647886424,3.9755074963251413,394.3435068639365,0.5281630876194447,313.76326137967214,5.24290466309,-0.86863130331,-45.0897064209,0
7.6000000000000005,21.62047458004118,4.362338292375661,394.75927403046984,0.515330725925958,313.5066142069922,5.24290466309,-0.86863130331,-45.0897064209,0
7.7,21.367814512195935,4.749169088426176,395.1750411970031,0.5024983642324714,313.2499670343123,5.24290466309,-0.86863130331,-45.0897064209,0
7.800000000000001,21.115480338693793,5.1249691467025436,395.59054820820694,0.48967996171819606,312.99466586989854,5.2975369186044015,-0.7897243068944874,-45.13713733628002,0
7.9,20.875340948886585,5.088005178855905,395.9963203527674,0.4773839038675906,312.78973158053117,7.09500646591,1.82052183151,-46.7136421204,0
8.0,20.635201559079373,5.0510412110092675,396.4020924973278,0.4650878460169852,312.5847972911638,7.09500646591,1.82052183151,-46.7136421204,0
8.1,20.395062169272165,5.01407724316263,396.8078646418883,0.4527917881663798,312.3798630017964,7.09500646591,1.82052183151,-46.7136421204,0
8.200000000000001,20.15492277946495,4.9771132753159915,397.21363678644866,0.44049573031577416,312.17492871242905,7.09500646591,1.82052183151,-46.7136421204,0
8.3,19.916810204788298,4.946470780035465,397.61891965167234,0.4279798210382167,312.0,6.009467151892798,1.331233910202588,-47.176406559730545,0
8.4,19.690513705564864,4.952681669008122,398.021350080345,0.4141822057924155,312.0,5.74373579025,1.21495652199,-47.2901420593,0
8.5,19.464217206341427,4.958892557980779,398.42378050901755,0.40038459054661424,312.0,5.74373579025,1.21495652199,-47.2901420593,0
8.6,19.23792070711799,4.965103446953437,398.8262109376901,0.38658697530081304,312.0,5.74373579025,1.21495652199,-47.2901420593,0
8.700000000000001,19.011624207894553,4.971314335926094,399.22864136636275,0.37278936005501156,312.0,5.74373579025,1.21495652199,-47.2901420593,0
8.8,18.799952909923384,4.841641464506452,399.55736805785153,0.3615669660290042,312.28110128013077,4.58940124512,4.64192914963,-47.0955505371,0
8.9,18.591987454891004,4.6775373490129795,399.86741914486186,0.3509971008269478,312.63343010620014,4.58940124512,4.64192914963,-47.0955505371,0
9.0,18.38402199985863,4.513433233519507,400.17747023187223,0.34042723562489147,312.98575893226945,4.58940124512,4.64192914963,-47.0955505371,0
9.1,18.233613038368553,4.3604912460138845,400.3899588583204,0.33545540472601326,312.7727701793981,3.7242729209919965,8.039790103249986,-46.881830174959454,0
9.200000000000001,18.08562849451162,4.20801943412619,400.5983379197976,0.3307193764662519,312.5359688934421,3.693816185,8.15818119049,-46.8740234375,0
9.3,17.937643950654692,4.0555476222385,400.8067169812747,0.3259833482064906,312.2991676074861,3.693816185,8.15818119049,-46.8740234375,0
9.4,17.789659406797764,3.9030758103508085,401.01509604275185,0.3212473199467294,312.0623663215301,3.693816185,8.15818119049,-46.8740234375,0
9.5,17.671750917943534,3.7168972109419034,401.15299781155613,0.31802336733833453,312.1976627393775,0.773871004581,10.7262039185,-47.0443878174,0
9.600000000000001,17.5645956225378,3.5186673100338295,401.265701596058,0.3153400322406619,312.46599650505465,0.773871004581,10.7262039185,-47.0443878174,0
9.700000000000001,17.457440327132073,3.320437409125759,401.3784053805599,0.3126566971429894,312.73433027073185,0.773871004581,10.7262039185,-47.0443878174,0
9.8,17.3509954872649,3.117941707530377,401.4903588245391,0.3100216824472684,313.00433601678895,0.615608429299002,10.992522336167045,-47.03292424684138,0
9.9,17.315400478859395,2.4900411166183956,401.52748492649806,0.3122053962273245,313.4410791893221,-2.0501704216,15.4919395447,-46.8388404846,0
10.0,17.27980547045389,1.8621405257064145,401.564611028457,0.3143891100073807,313.87782236185535,-2.0501704216,15.4919395447,-46.8388404846,0
10.100000000000001,17.244210462048386,1.234239934794422,401.60173713041604,0.31657282378743684,314.3145655343885,-2.0501704216,15.4919395447,-46.8388404846,0
10.200000000000001,17.20861545364288,0.6063393438824409,401.638863232375,0.318756537567493,314.75130870692175,-2.0501704216,15.4919395447,-46.8388404846,0
10.3,17.193785892306003,0.18285042750221267,401.61042994188233,0.32374141631254466,315.28060660938445,-8.31764984131,20.5221576691,-44.8074531555,0
10.4,17.20641782668942,0.02968799659476662,401.49529690592846,0.3324307267244829,315.93230454067645,-8.31764984131,20.5221576691,-44.8074531555,0
10.5,17.219049761072842,-0.12347443431267946,401.3801638699746,0.3411200371364211,316.58400247196846,-8.31764984131,20.5221576691,-44.8074531555,0
10.600000000000001,17.231681695456263,-0.2766368652201282,401.26503083402076,0.3498093475483594,317.23570040326047,-8.31764984131,20.5221576691,-44.8074531555,0
10.700000000000001,17.24431362983968,-0.4297992961275743,401.1498977980669,0.3584986579602976,317.8873983345525,-8.31764984131,20.5221576691,-44.8074531555,0
10.8,17.31704097149808,-0.8514426251786853,400.9555073097623,0.36802265317049243,319.4039620943628,-11.8368787766,26.8852958679,-41.3025436401,0
10.9,17.402320510924554,-1.3291638723813233,400.7445622249984,0.3777209899674541,321.10117138791134,-11.8368787766,26.8852958679,-41.3025436401,0
11.0,17.487600050351023,-1.8068851195839613,400.5336171402344,0.3874193267644158,322.79838068145995,-11.8368787766,26.8852958679,-41.3025436401,0
11.100000000000001,17.572879589777497,-2.284606366786608,400.3226720554705,0.3971176635613777,324.49558997500856,-11.8368787766,26.8852958679,-41.3025436401,0
11.200000000000001,17.660911495474796,-2.301002031483557,400.0813921518036,0.41096603181645364,326.56657528240976,-12.698343277,29.7913837433,-34.8077163696,0
11.3,17.750107319675443,-2.1223126934185808,399.8272842835627,0.42656936213990415,328.79562269921905,-12.698343277,29.7913837433,-34.8077163696,0
11.4,17.83930314387609,-1.9436233553536049,399.57317641532177,0.44217269246335467,331.0246701160284,-12.698343277,29.7913837433,-34.8077163696,0
11.5,17.928498968076738,-1.7649340172886288,399.3190685470808,0.4577760227868052,333.2537175328377,-12.698343277,29.7913837433,-34.8077163696,0
11.600000000000001,18.02807238697261,-1.7421053863203904,399.070243521919,0.47328030905885043,335.43737489997915,-12.481429446478225,34.38089503243662,-29.394222066837425,0
11.700000000000001,18.165184180766715,-2.28306420579056,398.8405278713141,0.4884263280404205,337.4568450203524,-12.3058252335,38.1023750305,-24.9943695068,0
11.8,18.30229597456082,-2.8240230252607303,398.6108122207092,0.5035723470219906,339.47631514072555,-12.3058252335,38.1023750305,-24.9943695068,0
11.9,18.439407768354926,-3.3649818447309006,398.3810965701043,0.5187183660035607,341.4957852610988,-12.3058252335,38.1023750305,-24.9943695068,0
12.0,18.57446670233546,-3.7674878613657716,398.16365190982066,0.5316259027469376,343.6503712247652,-10.486399020237275,39.82785345490829,-18.510116899911658,0
12.100000000000001,18.703532604317665,-3.7658006290682717,397.9820306589875,0.5379985092469085,346.1994086590018,-10.0051994324,40.2843132019,-16.7867088318,0
12.200000000000001,18.832598506299863,-3.7641133967707723,397.8004094081544,0.5443711157468795,348.74844609323833,-10.0051994324,40.2843132019,-16.7867088318,0
12.3,18.957468034499286,-3.7247201928176183,397.62735170866716,0.550773440208958,342.0282233036022,-8.986277750400388,40.76696139614796,-12.179785445056655,0
12.4,19.050576604822986,-3.3999430265652393,397.5191086819528,0.5574006900450654,265.1520518905143,-8.05611228943,41.1828079224,-7.94483613968,0
12.5,19.143685175146686,-3.07516586031286,397.4108656552384,0.5640279398811728,188.27588047742643,-8.05611228943,41.1828079224,-7.94483613968,0
12.600000000000001,19.23679374547039,-2.7503886940604754,397.30262262852403,0.5706551897172804,111.39970906433717,-8.05611228943,41.1828079224,-7.94483613968,0
12.700000000000001,19.32990231579409,-2.4256115278080963,397.1943796018097,0.5772824395533878,34.523537651249285,-8.05611228943,41.1828079224,-7.94483613968,0
12.8,19.4034052297258,-2.001917005674197,397.12691841927847,0.5828843577305238,4.730621144524044,-6.04408454895,43.2814483643,3.73537015915,0
12.9,19.46328071794513,-1.5094673808296593,397.0878037272145,0.5877735922446486,7.664155908044053,-6.04408454895,43.2814483643,3.73537015915,0
13.0,19.523156206164455,-1.017017755985122,397.0486890351506,0.5926628267587735,10.597690671564063,-6.04408454895,43.2814483643,3.73537015915,0
13.100000000000001,19.583031694383784,-0.5245681311405757,397.00957434308657,0.5975520612728984,13.531225435084124,-6.04408454895,43.2814483643,3.73537015915,0
13.200000000000001,19.644901695680755,-0.4042291008705551,396.96963607474527,0.6029080877550955,16.599436677585313,-6.36263847351,45.6171836853,15.5432500839,0
13.3,19.70877167627851,-0.6570204827783188,396.9288719730085,0.6087321855096177,19.802693497518547,-6.36263847351,45.6171836853,15.5432500839,0
13.4,19.772641656876267,-0.9098118646860824,396.88810787127164,0.6145562832641399,23.005950317451784,-6.36263847351,45.6171836853,15.5432500839,0
13.5,19.83668142552779,-1.1391428188549755,396.84970974575765,0.6198519703585588,26.17764146074615,-6.345667604844976,45.646490371774036,15.668658803267979,0
13.600000000000001,19.903151101087975,-1.0327219095741056,396.8451720824028,0.6175853544220539,28.89758317856038,-5.1240568161,47.7816925049,26.9291992188,0
13.700000000000001,19.969620776648156,-0.9263010002932376,396.840634419048,0.6153187384855491,31.617524896374565,-5.1240568161,47.7816925049,26.9291992188,0
13.8,20.03609045220834,-0.8198800910123696,396.8360967556932,0.6130521225490443,34.33746661418875,-5.1240568161,47.7816925049,26.9291992188,0
13.9,20.102560127768527,-0.7134591817315015,396.83155909233835,0.6107855066125395,37.057408332002936,-5.1240568161,47.7816925049,26.9291992188,0
14.0,20.135997875049245,-0.14306177064124692,396.851563488815,0.6080387612209505,40.15738044994817,-1.89373910427,45.5896072388,38.9677772522,0
14.100000000000001,20.151917621091375,0.6733988089266975,396.884583408663,0.6050373861777805,43.458896146090666,-1.89373910427,45.5896072388,38.9677772522,0
14.200000000000001,20.167837367133505,1.4898593884946272,396.917603328511,0.6020360111346106,46.760411842233104,-1.89373910427,45.5896072388,38.9677772522,0
14.3,20.174095773308178,2.0489293487817,396.9590447958456,0.5984766323671258,49.91403303259089,-0.558228313923,45.1559295654,49.2860374451,0
14.4,20.15997856855518,2.065166618484724,397.0182471718482,0.5937404326887932,52.755747080714876,-0.558228313923,45.1559295654,49.2860374451,0
14.5,20.145861363802183,2.0814038881877477,397.0774495478508,0.5890042330104605,55.59746112883886,-0.558228313923,45.1559295654,49.2860374451,0
14.600000000000001,20.131744159049187,2.097641157890772,397.1366519238534,0.5842680333321277,58.43917517696289,-0.558228313923,45.1559295654,49.2860374451,0
14.700000000000001,20.116232875076843,2.035753861441851,397.1920267824532,0.5797974999244271,61.24298029559354,-0.8600945334400347,44.60906569208445,55.73564552946954,0
14.8,20.088011980513052,1.2616166443025498,397.21250674050066,0.5777490059533319,63.70117540504263,-1.14151334763,44.099861145,61.7539749146,0
14.9,20.05979108594926,0.48747942716324855,397.23298669854813,0.5757005119822367,66.15937051449173,-1.14151334763,44.099861145,61.7539749146,0
15.0,20.031570191385473,-0.28665778997605296,397.2534666565956,0.5736520180111414,68.61756562394082,-1.14151334763,44.099861145,61.7539749146,0
15.100000000000001,20.003349296821682,-1.0607950071153676,397.273946614643,0.5716035240400462,71.07576073338994,-1.14151334763,44.099861145,61.7539749146,0
15.200000000000001,19.97721854377167,-1.6003154503316592,397.2935752759598,0.5694861543980817,73.56522283286311,-1.1216740104922724,43.09240517656575,68.95242017414598,0
15.3,19.9586201221448,-1.2943374969246855,397.3101360832232,0.567120574586347,76.16736310743242,-1.10946798325,42.472240448,73.4015426636,0
15.4,19.94002170051793,-0.988359543517712,397.32669689048663,0.5647549947746124,78.76950338200173,-1.10946798325,42.472240448,73.4015426636,0
15.5,19.921423278891062,-0.6823815901107386,397.34325769775,0.5623894149628778,81.37164365657105,-1.10946798325,42.472240448,73.4015426636,0
15.600000000000001,19.902824857264193,-0.37640363670375954,397.3598185050134,0.5600238351511431,83.9737839311404,-1.0794063416408617,42.36959087787379,74.14340032054491,0
15.700000000000001,19.89818125371873,0.24932386556434633,397.35733109600324,0.5573402293576285,86.12782045039962,-0.75891071558,41.2735328674,84.1625366211,0
15.8,19.893679673168712,0.8783055692457493,397.354649826728,0.5546533869040371,88.27729646322801,-0.75891071558,41.2735328674,84.1625366211,0
15.9,19.889178092618696,1.5072872729271527,397.3519685574527,0.5519665444504457,90.4267724760564,-0.75891071558,41.2735328674,84.1625366211,0
16.0,19.88894434166133,1.8514894427086548,397.3419171470555,0.5487556012264866,92.49776326906321,-0.7172839130539275,40.11804376172792,91.06891325534187,0
16.1,19.900362277627515,1.4182093116615369,397.31174436698495,0.5441138000078138,94.35447999380305,-0.709263801575,39.8930282593,92.4034957886,0
16.2,19.911780213593698,0.9849291806144344,397.2815715869145,0.5394719987891412,96.21119671854282,-0.709263801575,39.8930282593,92.4034957886,0
16.3,19.923198149559884,0.5516490495673165,397.251398806844,0.5348301975704683,98.06791344328266,-0.709263801575,39.8930282593,92.4034957886,0
16.400000000000002,19.93461608552607,0.1183689185201986,397.22122602677354,0.5301883963517956,99.92463016802249,-0.709263801575,39.8930282593,92.4034957886,0
16.5,19.95172375160591,-0.02975309557576658,397.16662126142666,0.5235943823500023,101.70815870634672,-1.91998493671,33.1184005737,100.53288269,0
16.6,19.969072153504477,-0.16580990246871802,397.1109827644509,0.5169177690801798,103.4885906095713,-1.91998493671,33.1184005737,100.53288269,0
16.7,19.986420555403043,-0.3018667093616646,397.05534426747516,0.5102411558103574,105.26902251279581,-1.91998493671,33.1184005737,100.53288269,0
16.8,20.003768957301613,-0.437923516254616,396.99970577049936,0.5035645425405348,107.0494544160204,-1.91998493671,33.1184005737,100.53288269,0
16.900000000000002,19.999555152692157,-0.39051682675851723,396.982761591734,0.4987236525360901,108.51053947246545,-1.65625941753,20.1762294769,108.438865662,0
17.0,19.97064415799563,-0.13297242048125696,397.0101375956816,0.49598538623184213,109.60584703875946,-1.65625941753,20.1762294769,108.438865662,0
17.1,19.9417331632991,0.12457198579601247,397.0375135996292,0.4932471199275941,110.7011546050535,-1.65625941753,20.1762294769,108.438865662,0
17.2,19.912822168602574,0.38211639207327275,397.06488960357683,0.4905088536233462,111.79646217134751,-1.65625941753,20.1762294769,108.438865662,0
17.3,19.871746716913993,0.5454467484709608,397.14326678910646,0.4850029928260032,112.16656721708162,1.01566243172,11.3484306335,112.106483459,0
17.400000000000002,19.827894845418385,0.6872736580352081,397.23328450169123,0.4788654553189247,112.37115179252208,1.01566243172,11.3484306335,112.106483459,0
17.5,19.784042973922777,0.8291005675994505,397.323302214276,0.4727279178118464,112.57573636796252,1.01566243172,11.3484306335,112.106483459,0
17.6,19.74019110242717,0.9709274771636978,397.4133199268607,0.46659038030476796,112.78032094340298,1.01566243172,11.3484306335,112.106483459,0
17.7,19.69633923093156,1.1127543867279401,397.5033376394455,0.4604528427976897,112.98490551884343,1.01566243172,11.3484306335,112.106483459,0
17.8,19.647351639936723,1.0965685177095363,397.59611784343,0.4579968891783899,113.0,0.940605759621,-2.30333662033,113.262886047,0
17.900000000000002,19.597954945650763,1.0677956007094065,397.68911810310954,0.4558342047076987,113.0,0.940605759621,-2.30333662033,113.262886047,0
18.0,19.548558251364806,1.0390226837092778,397.782118362789,0.4536715202370076,113.0,0.940605759621,-2.30333662033,113.262886047,0
18.1,19.499161557078846,1.0102497667091481,397.8751186224685,0.4515088357663164,113.0,0.940605759621,-2.30333662033,113.262886047,0
18.2,19.43897343760456,0.9461204691785761,397.9692623644327,0.449999988079,112.63424537658962,1.5370003010175577,-6.665605904516605,113.0874135215711,0
18.3,19.353882135329478,0.8003998718745391,398.0660449004274,0.449999988079,111.42444521813046,2.28410673141,-12.1319417953,112.867332458,0
18.400000000000002,19.268790833054393,0.654679274570502,398.16282743642205,0.449999988079,110.2146450596713,2.28410673141,-12.1319417953,112.867332458,0
18.5,19.183699530779315,0.5089586772664701,398.2596099724167,0.449999988079,109.00484490121218,2.28410673141,-12.1319417953,112.867332458,0
18.6,19.101336318103712,0.4527738131098188,398.36388295747815,0.44872034211879774,107.87203540906424,2.5856301461080378,-14.15340263838363,111.37700151932015,0
18.7,19.032348253550243,0.8355604890733773,398.50487976047754,0.4411669087196307,107.11669209915983,3.19579601288,-18.1951961517,108.336875916,0
18.8,18.96336018899677,1.2183471650369495,398.6458765634769,0.4336134753204634,106.36134878925542,3.19579601288,-18.1951961517,108.336875916,0
18.900000000000002,18.894372124443294,1.6011338410005216,398.7868733664763,0.4260600419212961,105.60600547935098,3.19579601288,-18.1951961517,108.336875916,0
19.0,18.826529177874438,1.8477074896030117,398.91639797867674,0.4195683064595634,104.82732766434773,2.4875644459353774,-19.727399454062265,107.13498591194735,0
19.1,18.763333063060177,1.5415354565928725,398.9993690119311,0.41738488835530513,103.95395958971332,1.55967271328,-21.731918335,105.554420471,0
19.200000000000003,18.700136948245916,1.2353634235827335,399.0823400451854,0.4152014702510469,103.0805915150789,1.55967271328,-21.731918335,105.554420471,0
19.3,18.63694083343166,0.9291913905726055,399.16531107843974,0.41301805214678877,102.20722344044451,1.55967271328,-21.731918335,105.554420471,0
19.400000000000002,18.573744718617398,0.6230193575624665,399.2482821116941,0.41083463404253057,101.3338553658101,1.55967271328,-21.731918335,105.554420471,0
19.5,18.5258017524787,0.6736511606713238,399.3086276500487,0.4082107346414644,100.64214730224455,-0.38216599822,-20.3158359528,101.198066711,0
19.6,18.48729757331859,0.9450764192106298,399.35497232660185,0.40531426141206556,100.06285210394887,-0.38216599822,-20.3158359528,101.198066711,0
19.700000000000003,18.44879339415848,1.2165016777499358,399.40131700315504,0.40241778818266666,99.48355690565319,-0.38216599822,-20.3158359528,101.198066711,0
19.8,18.40878098085153,1.4082814935276764,399.446048190185,0.39913622913261765,98.91362236359473,-0.4330125126633254,-18.473776733741786,100.5962425299481,0
19.900000000000002,18.361150747998032,1.1977864954544437,399.48262993168373,0.3939096708277777,98.39096681346317,-0.52151042223,-15.5051164627,99.5394363403,0
20.0,18.313520515144532,0.9872914973812186,399.5192116731825,0.38868311252293797,97.86831126333163,-0.52151042223,-15.5051164627,99.5394363403,0
20.1,18.265890282291032,0.7767964993079859,399.55579341468126,0.383456554218098,97.34565571320007,-0.52151042223,-15.5051164627,99.5394363403,0
20.200000000000003,18.219160706084306,0.5376626026406938,399.57431865531,0.379999995232,96.6456957369041,-1.4015354768981674,-14.184353628640912,98.27675584895624,0
20.3,18.174189985258383,0.24260097694038457,399.5575820968641,0.379999995232,95.59948522760281,-2.00375151634,-13.2806949615,97.4100570679,0
20.400000000000002,18.12921926443246,-0.05246064875993506,399.54084553841824,0.379999995232,94.55327471830148,-2.00375151634,-13.2806949615,97.4100570679,0
20.5,18.08424854360654,-0.3475222744602443,399.52410897997237,0.379999995232,93.50706420900018,-2.00375151634,-13.2806949615,97.4100570679,0
20.6,18.03927782278062,-0.6425839001605639,399.5073724215265,0.379999995232,92.46085369969884,-2.00375151634,-13.2806949615,97.4100570679,0
20.700000000000003,17.992743515130424,-0.758840279578483,399.48670870931556,0.379999995232,91.73419041132836,-2.51254534721,-5.97071933746,92.9662246704,0
20.8,17.94497818947387,-0.7343225910723155,399.46295313362543,0.379999995232,91.2591078965624,-2.51254534721,-5.97071933746,92.9662246704,0
20.900000000000002,17.89721286381731,-0.7098049025661471,399.4391975579353,0.379999995232,90.78402538179643,-2.51254534721,-5.97071933746,92.9662246704,0
21.0,17.849447538160753,-0.6852872140599796,399.41544198224517,0.379999995232,90.30894286703048,-2.51254534721,-5.97071933746,92.9662246704,0
21.1,17.805633808687507,-0.6214960714839869,399.39600369249683,0.379999995232,89.92017644021657,-2.936196378487897,-3.054633087235122,90.93152039334035,0
21.200000000000003,17.769168219594107,-0.48467447733367564,399.3845935568637,0.379999995232,89.69191799597175,-3.03810334206,-2.35294079781,90.4369735718,0
21.3,17.732702630500707,-0.3478528831833692,399.3731834212305,0.379999995232,89.46365955172693,-3.03810334206,-2.35294079781,90.4369735718,0
21.400000000000002,17.696237041407308,-0.21103128903305796,399.3617732855974,0.379999995232,89.23540110748212,-3.03810334206,-2.35294079781,90.4369735718,0
21.5,17.659771452313908,-0.07420969488275153,399.3503631499642,0.379999995232,89.0071426632373,-3.03810334206,-2.35294079781,90.4369735718,0
21.6,17.63190718554659,-0.22163352837778966,399.29439094210073,0.3825279406954972,88.74720521255989,-4.29197883606,0.0343503020704,89.7118606567,0
21.700000000000003,17.604320765744742,-0.3782392907119395,399.2369792536464,0.385137545925863,88.48624444064502,-4.29197883606,0.0343503020704,89.7118606567,0
21.8,17.576734345942896,-0.5348450530460839,399.17956756519203,0.38774715115622876,88.22528366873016,-4.29197883606,0.0343503020704,89.7118606567,0
21.900000000000002,17.549341570226282,-0.6588328502531082,399.1243482373707,0.389999985695,88.0,-4.0720848234069225,0.2356067028654139,89.47220218014122,0
22.0,17.52317156334614,-0.5768539574991478,399.08297260767847,0.389999985695,88.0,-3.39420580864,0.855171859264,88.7296524048,0
22.1,17.497001556465996,-0.49487506474518445,399.04159697798616,0.389999985695,88.0,-3.39420580864,0.855171859264,88.7296524048,0
22.200000000000003,17.47083154958585,-0.4128961719912211,399.0002213482939,0.389999985695,88.0,-3.39420580864,0.855171859264,88.7296524048,0
22.3,17.450450719909696,-0.37149323567356707,398.94761260697544,0.390658482769609,88.06584957401674,-3.7502648713438886,0.822554494012784,88.76104683944462,0
22.400000000000002,17.445752704488164,-0.4400100972082617,398.86457349586067,0.3931008408221105,88.31008488432403,-4.34952783585,0.768058478832,88.821723938,0
22.5,17.44105468906663,-0.5085269587429538,398.78153438474595,0.3955431988746119,88.55432019463132,-4.34952783585,0.768058478832,88.821723938,0
22.6,17.436356673645093,-0.5770438202776484,398.6984952736312,0.39798555692711335,88.7985555049386,-4.34952783585,0.768058478832,88.821723938,0
22.700000000000003,17.43337222589072,-0.6731659909099703,398.6113953545816,0.4008655179105695,89.0,-4.398086333143052,0.7133833001152563,89.03962520944279,0
22.8,17.43845466752562,-0.8992444972706284,398.5051785432909,0.40580556353969016,89.0,-4.58407592773,0.503896176815,89.87915802,0
22.900000000000002,17.44353710916052,-1.1253230036312944,398.39896173200026,0.410745609168811,89.0,-4.58407592773,0.503896176815,89.87915802,0
23.0,17.448619550795417,-1.3514015099919523,398.2927449207096,0.4156856547979317,89.0,-4.58407592773,0.503896176815,89.87915802,0
23.1,17.454854910161767,-1.5269215832845335,398.18738632598377,0.420614389680945,88.93855975356513,-4.60740082115515,0.544575710278459,89.82198381989014,0
23.200000000000003,17.469039705885926,-1.353838252309468,398.08794518553736,0.4254651362965494,88.45348535222284,-4.83753633499,0.945778429508,89.2461853027,0
23.3,17.483224501610085,-1.1807549213344086,397.988504045091,0.43031588291215367,87.96841095088058,-4.83753633499,0.945778429508,89.2461853027,0
23.400000000000002,17.497409297334244,-1.007671590359343,397.8890629046446,0.4351666295277581,87.4833365495383,-4.83753633499,0.945778429508,89.2461853027,0
23.5,17.51156608370366,-0.835529312837106,397.7896440467262,0.44000814400217586,86.9991853606055,-4.83753633499,0.945778429508,89.2461853027,0
23.6,17.517932824429185,-0.9251156405851958,397.69642247225096,0.4422819877144818,86.77180077251822,-4.02392292023,2.34074544907,87.5799636841,0
23.700000000000003,17.524299565154706,-1.0147019683332856,397.60320089777565,0.44455583142678773,86.54441618443094,-4.02392292023,2.34074544907,87.5799636841,0
23.8,17.53066630588023,-1.1042882960813722,397.5099793233004,0.44682967513909355,86.31703159634368,-4.02392292023,2.34074544907,87.5799636841,0
23.900000000000002,17.537033046605753,-1.193874623829462,397.4167577488251,0.44910351885139943,86.0896470082564,-4.02392292023,2.34074544907,87.5799636841,0
24.0,17.533945485824,-1.272429159982402,397.3517511518853,0.449999988079,86.0,-2.02560257912,0.737025439739,86.3592147827,0
24.1,17.524704558282625,-1.3438036141749419,397.30510837640355,0.449999988079,86.0,-2.02560257912,0.737025439739,86.3592147827,0
24.200000000000003,17.515463630741248,-1.415178068367482,397.25846560092174,0.449999988079,86.0,-2.02560257912,0.737025439739,86.3592147827,0
24.3,17.506766514664125,-1.4217141317053739,397.2107968885465,0.45054137773364666,86.0,-1.9282159284148404,1.0254263130732446,86.37543473262697,0
24.400000000000002,17.500627036037177,-1.1233042577817594,397.1583030211445,0.4536290146576004,86.0,-1.76468884945,1.50654315948,86.4027709961,0
24.5,17.49448755741023,-0.8248943838581555,397.1058091537425,0.4567166515815541,86.0,-1.76468884945,1.50654315948,86.4027709961,0
24.6,17.488348078783286,-0.5264845099345411,397.0533152863405,0.4598042885055079,86.0,-1.76468884945,1.50654315948,86.4027709961,0
24.700000000000003,17.48545860184004,-0.5100040458692963,397.02091069455895,0.460000008345,86.22366158693472,-1.70823824406,1.9682854414,86.7576293945,0
24.8,17.48278907926938,-0.5126040662142212,396.98986570946226,0.460000008345,86.46246019495852,-1.70823824406,1.9682854414,86.7576293945,0
24.900000000000002,17.48011955669872,-0.5152040865591463,396.9588207243656,0.460000008345,86.70125880298234,-1.70823824406,1.9682854414,86.7576293945,0
25.0,17.477450034128065,-0.5178041069040712,396.92777573926884,0.460000008345,86.94005741100615,-1.70823824406,1.9682854414,86.7576293945,0
25.1,17.48068774236263,-0.5451664478763407,396.89520100022514,0.4619062356780404,87.0,-1.98617935181,5.15118551254,87.012298584,0
25.200000000000003,17.485905225782677,-0.5808277413577246,396.86211357274857,0.46445132438221615,87.0,-1.98617935181,5.15118551254,87.012298584,0
25.3,17.491122709202724,-0.6164890348391072,396.829026145272,0.46699641308639184,87.0,-1.98617935181,5.15118551254,87.012298584,0
25.400000000000002,17.496340192622775,-0.652150328320491,396.7959387177954,0.4695415017905676,87.0,-1.98617935181,5.15118551254,87.012298584,0
25.5,17.4991062320801,-0.5951914584458421,396.76187521110916,0.469999998808,87.23419966239838,-1.72316050529,6.72032022476,87.3171386719,0
25.6,17.501333603741298,-0.5178807061580463,396.7275972257545,0.469999998808,87.5198611643965,-1.72316050529,6.72032022476,87.3171386719,0
25.700000000000003,17.503560975402497,-0.44056995387025044,396.69331924039983,0.469999998808,87.80552266639464,-1.72316050529,6.72032022476,87.3171386719,0
25.8,17.503578943442058,-0.39032284944791257,396.661658450126,0.47052026514633777,88.0,-1.7626549991944571,6.300950838605876,88.1614261763589,0
25.900000000000002,17.498884701755216,-0.3977970158040539,396.63557960603674,0.47215015404337196,88.0,-1.77327954769,6.18965244293,88.4479598999,0
26.0,17.494190460068378,-0.40527118216019503,396.6095007619475,0.4737800429404061,88.0,-1.77327954769,6.18965244293,88.4479598999,0
26.1,17.489496218381536,-0.41274534851633643,396.58342191785823,0.4754099318374403,88.0,-1.77327954769,6.18965244293,88.4479598999,0
26.200000000000003,17.484801976694694,-0.42021951487247783,396.557343073769,0.47703982073447454,88.0,-1.77327954769,6.18965244293,88.4479598999,0
26.3,17.480107735007852,-0.42769368122861895,396.5312642296797,0.4786697096315087,88.0,-1.77327954769,6.18965244293,88.4479598999,0
26.400000000000002,17.472243691672706,-0.43541952772718173,396.5142993453237,0.479999989271,88.04319833641068,-0.542972301327586,5.617857160981832,88.67210127992458,0
26.5,17.45030557523133,-0.4442628462687423,396.5378008843608,0.479999989271,88.27819938231808,0.19312402606,5.3232421875,88.8069839478,0
26.6,17.42836745878995,-0.4531061648103032,396.561302423398,0.479999989271,88.51320042822549,0.19312402606,5.3232421875,88.8069839478,0
26.700000000000003,17.406429342348574,-0.46194948335186403,396.5848039624351,0.479999989271,88.7482014741329,0.19312402606,5.3232421875,88.8069839478,0
26.8,17.384491225907194,-0.47079280189342465,396.6083055014722,0.479999989271,88.98320252004031,0.1715581515803982,5.187430485119679,88.92473585307602,0
26.900000000000002,17.373383166416954,-0.026494953266276544,396.63089359010314,0.47767675936410564,89.23232321225609,-0.0119025651366,4.04282236099,89.9878845215,0
27.0,17.363108813121244,0.4526860543109463,396.65341136061244,0.47517468541479924,89.48253084580975,-0.0119025651366,4.04282236099,89.9878845215,0
27.1,17.352834459825534,0.9318670618881861,396.6759291311217,0.4726726114654927,89.73273847936342,-0.0119025651366,4.04282236099,89.9878845215,0
27.200000000000003,17.342560106529824,1.411048069465426,396.698446901631,0.4701705375161862,89.98294611291709,-0.06035135439973346,3.952149341418753,90.0269168693287,0
27.3,17.356097108440697,1.15767574136092,396.6676359571224,0.4717970553287442,90.17970582345987,-1.19913077354,1.83039021492,90.9735946655,0
27.400000000000002,17.37137577725219,0.8507212510221098,396.6329243166226,0.4737255564410951,90.37255611861629,-1.19913077354,1.83039021492,90.9735946655,0
27.5,17.386654446063687,0.5437667606833106,396.5982126761229,0.4756540575534459,90.56540641377269,-1.19913077354,1.83039021492,90.9735946655,0
27.6,17.401933114875185,0.23681227034450059,396.5635010356231,0.4775825586657968,90.7582567089291,-1.19913077354,1.83039021492,90.9735946655,0
27.700000000000003,17.417211783686678,-0.07014221999430936,396.5287893951234,0.4795110597781477,90.95110700408551,-1.19913077354,1.83039021492,90.9735946655,0
27.8,17.44255438382478,-0.42930334844409057,396.47929973673536,0.48312981779385633,90.68701731561393,-2.59674048424,3.65813231468,91.1410980225,0
27.900000000000002,17.471315051374724,-0.8061956996752984,396.4247909402276,0.4873226469008227,90.26773462984148,-2.59674048424,3.65813231468,91.1410980225,0
28.0,17.500075718924666,-1.1830880509064925,396.3702821437198,0.49151547600778894,89.84845194406907,-2.59674048424,3.65813231468,91.1410980225,0
28.1,17.52883638647461,-1.5599804021377002,396.31577334721203,0.4957083051147553,89.42916925829662,-2.59674048424,3.65813231468,91.1410980225,0
28.200000000000003,17.55759705402455,-1.9368727533689079,396.26126455070425,0.49990113422172167,89.00988657252418,-2.59674048424,3.65813231468,91.1410980225,0
28.3,17.58918916670011,-1.4169240860343195,396.234189479244,0.5,89.28656464617467,-1.88053119183,1.89055812359,89.6806259155,0
28.400000000000002,17.62084965639899,-0.8753174608301004,396.2077769092182,0.5,89.58004958803754,-1.88053119183,1.89055812359,89.6806259155,0
28.5,17.652510146097868,-0.3337108356259004,396.1813643391924,0.5,89.8735345299004,-1.88053119183,1.89055812359,89.6806259155,0
28.6,17.672008096591206,-0.13984716437638461,396.16059030432575,0.5,90.0,-0.85333865881,1.89539110661,90.4096832275,0
28.700000000000003,17.682296694294752,-0.20929097267656016,396.1440857117706,0.5,90.0,-0.85333865881,1.89539110661,90.4096832275,0
28.8,17.689968786319493,-0.2737800075250358,396.1246917142385,0.5004086895485583,90.0,-0.6723018323056389,2.56703756801341,90.4954125831102,0
28.900000000000002,17.682440317681575,-0.3094843410703875,396.0885117506043,0.5031916564875253,90.0,-0.546611368656,3.03530287743,90.5552520752,0
29.0,17.674911849043653,-0.345188674615738,396.05233178697017,0.5059746234264921,90.0,-0.546611368656,3.03530287743,90.5552520752,0
29.1,17.667383380405735,-0.38089300816108973,396.016151823336,0.5087575903654591,90.0,-0.546611368656,3.03530287743,90.5552520752,0
29.200000000000003,17.65089341565229,-0.246389198852615,395.99572450912916,0.509999990463,90.0,1.55827462673,4.42346048355,90.4159393311,0
29.3,17.62717639437092,0.025380068595995786,395.98800102098085,0.509999990463,90.0,1.55827462673,4.42346048355,90.4159393311,0
29.400000000000002,17.603459373089546,0.2971493360446162,395.98027753283253,0.509999990463,90.0,1.55827462673,4.42346048355,90.4159393311,0
29.5,17.579742351808175,0.568918603493227,395.9725540446843,0.509999990463,90.0,1.55827462673,4.42346048355,90.4159393311,0
29.6,17.554080780400017,0.5191288839572915,395.9796882824261,0.509999990463,90.58136562016607,1.860300725795267,6.542797866651625,90.82085856198145,0
29.700000000000003,17.52745915953335,0.3105813483688941,395.9941579709228,0.509999990463,91.4497589395144,1.92903876305,7.02538394928,90.9144973755,0
29.8,17.500837538666683,0.10203381278050416,396.00862765941946,0.509999990463,92.31815225886268,1.92903876305,7.02538394928,90.9144973755,0
29.900000000000002,17.47473136053233,0.0072322606898771805,396.0269303204892,0.5105784556575473,93.05784657461722,2.1767922912254205,12.087706436466085,92.75685393354625,0
30.0,17.450509190939403,0.3281867005406573,396.05924298230957,0.5132712844838204,93.32712971403294,2.25769519806,13.738111496,93.3616638184,0
30.1,17.426287021346475,0.6491411403914488,396.09155564412987,0.5159641133100937,93.59641285344867,2.25769519806,13.738111496,93.3616638184,0
30.200000000000003,17.402064851753547,0.9700955802422403,396.12386830595017,0.5186569421363669,93.8656959928644,2.25769519806,13.738111496,93.3616638184,0
30.3,17.388431652181826,1.1047009772433494,396.1545254185623,0.5211184984287056,94.44740742737471,2.7790301717089902,20.897253464731154,94.65667029657047,0
30.400000000000002,17.385334459778495,1.0538893934280646,396.1835352625269,0.5233499389429745,95.33998448433304,2.90026688576,22.529302597,94.9608840942,0
30.5,17.382237267375167,1.0030778096127817,396.21254510649146,0.5255813794572435,96.23256154129136,2.90026688576,22.529302597,94.9608840942,0
30.6,17.379140074971836,0.952266225797497,396.241554950456,0.5278128199715125,97.1251385982497,2.90026688576,22.529302597,94.9608840942,0
30.700000000000003,17.377079811865467,0.8962147505821062,396.26940141227425,0.5301468779498473,98.02938128161469,2.90026688576,22.529302597,94.9608840942,0
30.8,17.42622676675936,0.5813989970219544,396.23979596935663,0.5375485474504375,99.50971365235199,1.87697350979,27.7713470459,98.8515701294,0
30.900000000000002,17.475373721653252,0.2665832434617915,396.21019052643896,0.5449502169510279,100.99004602308935,1.87697350979,27.7713470459,98.8515701294,0
31.0,17.524520676547144,-0.04823251009836027,396.18058508352135,0.552351886451618,102.47037839382666,1.87697350979,27.7713470459,98.8515701294,0
31.1,17.57366763144104,-0.36304826365852316,396.15097964060374,0.5597535559522084,103.95071076456402,1.699134947793621,28.229558007490336,98.89279507281617,0
31.200000000000003,17.67775956684976,-0.74427716852849,396.03649597196903,0.5657711135930398,105.53896445673635,-0.87736839056,34.8070030212,104.629737854,0
31.3,17.783743965185558,-1.1277935330634972,395.91908885347635,0.571740998446348,107.13093526916137,-0.87736839056,34.8070030212,104.629737854,0
31.400000000000002,17.889728363521364,-1.511309897598518,395.8016817349836,0.5777108832996563,108.72290608158643,-0.87736839056,34.8070030212,104.629737854,0
31.5,17.995712761857167,-1.894826262133525,395.68427461649094,0.5836807681529644,110.31487689401145,-0.87736839056,34.8070030212,104.629737854,0
31.6,18.101697160192973,-2.278342626668546,395.5668674979982,0.5896506530062728,111.90684770643651,-0.87736839056,34.8070030212,104.629737854,0
31.700000000000003,18.2561485867023,-2.34244969913296,395.4216183511683,0.5982612578786055,114.27185191003156,-1.95983803272,35.9184265137,112.92755127,0
31.8,18.41361226237972,-2.3867053301003294,395.274638808854,0.6070359847732745,116.6849005115856,-1.95983803272,35.9184265137,112.92755127,0
31.900000000000002,18.57107593805714,-2.4309609610677003,395.12765926653964,0.6158107116679438,119.09794911313972,-1.95983803272,35.9184265137,112.92755127,0
32.0,18.72853961373456,-2.47521659203507,394.98067972422524,0.6245854385626127,121.51099771469376,-1.95983803272,35.9184265137,112.92755127,0
32.1,18.888436069579612,-2.4340705345595515,394.8596675756397,0.632393379215014,123.87757322045499,-0.3004637109254391,38.716025960551896,122.01183606439263,0
32.2,19.05225269172536,-2.2553087461141574,394.7804991181396,0.6386434467404656,126.16926227883354,0.0132418153808,39.2447547913,123.756706238,0
32.300000000000004,19.216069313871106,-2.0765469576687634,394.7013306606394,0.6448935142659171,128.4609513372121,0.0132418153808,39.2447547913,123.756706238,0
32.4,19.379885936016844,-1.8977851692233823,394.62216220313934,0.6511435817913682,130.75264039559045,0.0132418153808,39.2447547913,123.756706238,0
32.5,19.543702558162593,-1.7190233807779884,394.5429937456392,0.6573936493168198,133.044329453969,0.0132418153808,39.2447547913,123.756706238,0
32.6,19.700407597495712,-1.4387709871323355,394.49180338902596,0.6615147413322555,135.36324489575662,1.2562961724061577,40.38042509392355,133.22861244800478,0
32.7,19.852025633791914,-1.0859211098497816,394.46062611359724,0.6641129508656451,137.70163570593067,1.38413393497,40.4968109131,134.471206665,0
32.800000000000004,20.003643670088117,-0.7330712325672278,394.4294488381685,0.6667111603990349,140.0400265161047,1.38413393497,40.4968109131,134.471206665,0
32.9,20.15526170638431,-0.3802213552846989,394.3982715627398,0.6693093699324244,142.37841732627857,1.38413393497,40.4968109131,134.471206665,0
33.0,20.292918999825115,-0.2763107685901278,394.41512220344043,0.6716759547864257,144.50834572604165,2.86464238167,41.4441719055,143.226104736,0
33.1,20.42552170639221,-0.26253043381626573,394.4493616949317,0.6739586782674192,146.5627988180622,2.86464238167,41.4441719055,143.226104736,0
33.2,20.558124412959305,-0.24875009904240358,394.48360118642296,0.6762414017484126,148.61725191008273,2.86464238167,41.4441719055,143.226104736,0
33.300000000000004,20.6907271195264,-0.23496976426854144,394.51784067791425,0.678524125229406,150.6717050021033,2.86464238167,41.4441719055,143.226104736,0
33.4,20.82449216571789,-0.23209769322011825,394.5540689290495,0.6791711968185383,152.66304889985278,3.96961116791,43.9833564758,152.975723267,0
33.5,20.960383374134178,-0.2491791175048617,394.5939350374343,0.6768263190734404,154.53895288479316,3.96961116791,43.9833564758,152.975723267,0
33.6,21.096274582550468,-0.26626054178960523,394.6338011458191,0.6744814413283424,156.41485686973357,3.96961116791,43.9833564758,152.975723267,0
33.7,21.232165790966754,-0.2833419660743487,394.67366725420396,0.6721365635832445,158.29076085467398,3.96961116791,43.9833564758,152.975723267,0
33.800000000000004,21.367297724227047,-0.2690713198982044,394.71134445407176,0.6697745078843206,160.18040721579786,3.224003709070591,43.61273817079185,158.5155300636336,0
33.9,21.49464287521397,0.06673196773223738,394.7265731991157,0.6672362828674785,162.21098916583756,2.92767691612,43.4654464722,160.721862793,0
34.0,21.621988026200903,0.40253525536270307,394.7418019441597,0.6646980578506362,164.24157111587738,2.92767691612,43.4654464722,160.721862793,0
34.1,21.749333177187832,0.7383385429931686,394.75703068920365,0.662159832833794,166.2721530659172,2.92767691612,43.4654464722,160.721862793,0
34.2,21.865295815919662,1.0527045587674795,394.780942918268,0.6587481726096923,168.31296323618778,3.0196754377176562,42.640160230618804,162.64967691133307,0
34.300000000000004,21.916293261114262,1.2447182779808401,394.85441575463227,0.6503514189360856,170.41215052848045,3.32051229477,40.2537155151,168.986999512,0
34.4,21.967290706308862,1.4367319971941872,394.9278885909965,0.6419546652624795,172.51133782077295,3.32051229477,40.2537155151,168.986999512,0
34.5,22.018288151503462,1.6287457164075478,395.00136142736073,0.6335579115888728,174.61052511306562,3.32051229477,40.2537155151,168.986999512,0
34.6,22.069285596698066,1.8207594356209085,395.074834263725,0.625161157915266,176.70971240535826,3.32051229477,40.2537155151,168.986999512,0
34.7,22.087337445974573,1.9161503560701876,395.1857742760745,0.6159520163383432,178.50599828227698,4.77231676148198,33.06135737081072,178.1948951347393,0
34.800000000000004,22.05283729920676,1.8574168542123395,395.3564787221608,0.6054470230795248,179.81912173523702,4.80089712143,32.9219322205,178.380722046,0
34.9,22.018337152438956,1.7986833523544956,395.5271831682471,0.5949420298207071,181.13224518819698,4.80089712143,32.9219322205,178.380722046,0
35.0,21.98383700567115,1.7399498504966475,395.6978876143334,0.5844370365618887,182.44536864115705,4.80089712143,32.9219322205,178.380722046,0
35.1,21.886102048458596,2.1027444618019295,395.91076117681763,0.5715199051248645,183.84800761643157,5.76589298248,28.8150272369,-176.49937439,0
35.2,21.742127968761892,2.7737726222865495,396.1544700169671,0.556838948480074,185.31610293088735,5.76589298248,28.8150272369,-176.49937439,0
35.300000000000004,21.598153889065184,3.4448007827711686,396.39817885711653,0.5421579918352833,186.78419824534313,5.76589298248,28.8150272369,-176.49937439,0
35.4,21.43954436533075,3.9660866035685056,396.66519747887804,0.5274787559263948,188.14406953112157,6.86061560005731,25.257419861335407,-174.20258283355068,0
35.5,21.21040668956793,3.765764629528106,397.04454585415067,0.5128078122376057,188.98240961306465,7.98960351944,21.5872478485,-171.824813843,0
35.6,20.981269013805107,3.565442655487707,397.4238942294233,0.4981368685488166,189.8207496950077,7.98960351944,21.5872478485,-171.824813843,0
35.7,20.752131338042286,3.3651206814473076,397.8032426046959,0.48346592486002754,190.65908977695074,7.98960351944,21.5872478485,-171.824813843,0
35.800000000000004,20.522993662279465,3.1647987074069084,398.18259097996855,0.46879498117123847,191.4974298588938,7.98960351944,21.5872478485,-171.824813843,0
35.9,20.306655480717453,3.1030130840038583,398.56750393954025,0.45199146963098547,192.08898375995244,8.413475937831915,10.657271597286655,-168.57748213321386,0
36.0,20.109475189199273,3.2485844179110077,398.960745798088,0.4319959959890663,192.311155680477,8.52135658264,7.94367218018,-167.73600769,0
36.1,19.912294897681093,3.3941557518181575,399.35398765663575,0.4120005223471471,192.53332760100156,8.52135658264,7.94367218018,-167.73600769,0
36.2,19.715114606162913,3.5397270857253074,399.74722951518345,0.39200504870522795,192.7554995215261,8.52135658264,7.94367218018,-167.73600769,0
36.300000000000004,19.517934314644737,3.6852984196324567,400.1404713737312,0.3720095750633088,192.97767144205068,8.52135658264,7.94367218018,-167.73600769,0
36.4,19.36023445585289,4.254695883361042,400.4296029061904,0.3590281729594622,193.27429585243843,6.5803194046,-2.32753801346,-166.211334229,0
36.5,19.206945757475044,4.871447565804821,400.7071021611536,0.34683045514104915,193.57923886151747,6.5803194046,-2.32753801346,-166.211334229,0
36.6,19.053657059097194,5.4881992482486,400.98460141611685,0.3346327373226361,193.88418187059654,6.5803194046,-2.32753801346,-166.211334229,0
36.7,18.924557275677532,5.312835372462551,401.19774623548284,0.32687683705208276,193.68768256145097,4.03716421127,-7.57598114014,-165.83442688,0
36.800000000000004,18.810270534770105,4.652388083098569,401.3714810609735,0.3218410601223981,193.18410513862662,4.03716421127,-7.57598114014,-165.83442688,0
36.9,18.695983793862688,3.991940793734634,401.5452158864641,0.3168052831927138,192.6805277158023,4.03716421127,-7.57598114014,-165.83442688,0
37.0,18.58169705295526,3.331493504370652,401.7189507119548,0.31176950626302913,192.17695029297792,4.03716421127,-7.57598114014,-165.83442688,0
37.1,18.476247614847747,2.8205240019443454,401.82113218920506,0.3082114430704643,191.64228779614274,2.405504468919924,-9.205536228914939,-166.87817021563737,0
37.2,18.37558578675999,2.390534111360907,401.884549630104,0.305453931500307,191.090784956143,2.18267011642,-9.42768287659,-167.021270752,0
37.300000000000004,18.27492395867224,1.9605442207774684,401.947967071003,0.3026964199301496,190.53928211614328,2.18267011642,-9.42768287659,-167.021270752,0
37.4,18.17530939748278,1.5350926289926086,402.00932766779687,0.300000011921,189.98496056811422,2.1222050901179554,-9.48643722253531,-167.09885181496793,0
37.5,18.121909145340005,1.3099093198830365,401.9799228357491,0.300000011921,189.30625368508143,0.31460288167,-11.0248670578,-169.489761353,0
37.6,18.06850889319723,1.0847260107734644,401.95051800370135,0.300000011921,188.62754680204864,0.31460288167,-11.0248670578,-169.489761353,0
37.7,18.015108641054457,0.8595427016638922,401.9211131716536,0.300000011921,187.94883991901585,0.31460288167,-11.0248670578,-169.489761353,0
37.800000000000004,17.96170838891168,0.6343593925543202,401.8917083396058,0.300000011921,187.27013303598306,0.31460288167,-11.0248670578,-169.489761353,0
37.9,17.94423060714264,0.15595549113300977,401.775583897423,0.3052209406100783,186.6084302666279,-5.21648263931,-12.222366333,-172.240234375,0
38.0,17.95050335676991,-0.4898679548053133,401.60212384324683,0.31389374299987477,185.95796995169087,-5.21648263931,-12.222366333,-172.240234375,0
38.1,17.956776106397186,-1.1356914007436363,401.4286637890707,0.3225665453896712,185.30750963675385,-5.21648263931,-12.222366333,-172.240234375,0
38.2,17.96304885602446,-1.7815148466819593,401.25520373489456,0.3312393477794677,184.65704932181683,-5.21648263931,-12.222366333,-172.240234375,0
38.300000000000004,17.969321605651736,-2.4273382926202824,401.0817436807184,0.3399121501692641,184.00658900687984,-5.869525957445261,-11.75767190745033,-172.9097373061379,0
38.400000000000006,18.025941284698547,-2.1348126592512373,400.83144473214935,0.34994167756504196,183.66861088019914,-8.04110813141,-10.5038557053,-175.142364502,0
38.5,18.083076185126043,-1.8326845036671915,400.58035945873957,0.35998508890049236,183.33383051565272,-8.04110813141,-10.5038557053,-175.142364502,0
38.6,18.14030379692472,-1.5328906533112099,400.3292234231245,0.37002385318813336,182.9982113681169,-8.04110813141,-10.5038557053,-175.142364502,0
38.7,18.2301154176665,-2.05350342041026,400.0602466833179,0.37842938257178366,182.36779653283858,-9.45177173615,-8.65101051331,-176.662261963,0
38.800000000000004,18.31992703840828,-2.57411618750931,399.7912699435114,0.38683491195543396,181.73738169756027,-9.45177173615,-8.65101051331,-176.662261963,0
38.900000000000006,18.40973865915006,-3.0947289546083603,399.5222932037048,0.39524044133908426,181.10696686228198,-9.45177173615,-8.65101051331,-176.662261963,0
39.0,18.499550279891835,-3.615341721707373,399.2533164638983,0.40364597072273395,180.4765520270037,-9.45177173615,-8.65101051331,-176.662261963,0
39.1,18.59058320505719,-3.9967972261994693,398.98111187535085,0.4124252345583999,179.8544857466295,-8.75567626953,-4.71352100372,-179.553131104,0
39.2,18.68539881887336,-3.9472474974497818,398.69890982297477,0.4223620485042349,179.2582770520275,-8.75567626953,-4.71352100372,-179.553131104,0
39.300000000000004,18.78021443268953,-3.897697768700094,398.4167077705987,0.4322988624500699,178.66206835742545,-8.75567626953,-4.71352100372,-179.553131104,0
39.400000000000006,18.875030046505696,-3.848148039950406,398.13450571822256,0.4422356763959049,178.06585966282344,-8.75567626953,-4.71352100372,-179.553131104,0
39.5,18.96984566032186,-3.798598311200722,397.8523036658465,0.4521724903417392,177.46965096822146,-8.75567626953,-4.71352100372,-179.553131104,0
39.6,19.065424178960175,-3.7512776228528475,397.57935814605173,0.4619732078648188,176.9342266852861,-7.86519066941909,-2.9470684776471208,-5.2447851442126705,0
39.7,19.163833808733532,-3.7122288196980464,397.34076327092725,0.47126887667576906,176.624371070566,-6.97233772278,-1.19892442226,177.293838501,0
39.800000000000004,19.26224343850689,-3.673180016543245,397.1021683958028,0.48056454548671934,176.31451545584594,-6.97233772278,-1.19892442226,177.293838501,0
39.900000000000006,19.36065306828025,-3.6341312133884434,396.8635735206783,0.48986021429766957,176.00465984112586,-6.8888368029398395,-1.0773308418704202,177.21527725820005,0
40.0,19.450862346565827,-3.565390845693277,396.6441270718537,0.4977092600845708,176.0,-6.01925230026,0.188003271818,176.389038086,0
40.1,19.540946418874082,-3.4961971362892514,396.4249729882323,0.5055362183000042,176.0,-6.01925230026,0.188003271818,176.389038086,0
40.2,19.63103049118234,-3.427003426885226,396.2058189046109,0.5133631765154376,176.0,-6.01925230026,0.188003271818,176.389038086,0
40.300000000000004,19.71918156177634,-3.3501133398056484,395.99154809814917,0.5207686660296547,176.0,-5.719394535533752,1.1599224191868045,176.62529013406714,0
40.400000000000006,19.796553391684817,-3.2303049734717364,395.80450852456744,0.5258238665925866,176.0,-5.26366281509,2.63546276093,176.985778809,0
40.5,19.87392522159329,-3.1104966071378333,395.6174689509857,0.5308790671555181,176.0,-5.26366281509,2.63546276093,176.985778809,0
40.6,19.951297051501765,-2.9906882408039217,395.4304293774039,0.53593426771845,176.0,-5.26366281509,2.63546276093,176.985778809,0
