t_sec,airspeed,climb,altitude,throttle,heading,pitch,roll,yaw,is_boundary
0.0,17.7535533905,-2.70474648476,424.829986572,0.40000000596,272.0,-3.09853744507,2.12005710602,-88.1319503784,0
0.1,17.916128611632722,-2.4602266024238486,424.64831447575625,0.4410230650007668,272.87906545356105,-3.09853744507,2.12005710602,-88.1319503784,0
0.2,18.078703832765445,-2.215706720087697,424.4666423795125,0.48204612404153363,273.75813090712205,-4.144311864959527,10.943420863064997,-88.01000084872885,0
0.30000000000000004,18.24127905389817,-1.9711868377515458,424.28497028326876,0.5230691830823004,274.6371963606831,-4.23554611206,11.7128143311,-87.9993896484,0
0.4,18.42308205034568,-2.278643820109487,424.09961917753054,0.5327626794616592,275.5428003585403,-4.23554611206,11.7128143311,-87.9993896484,0
0.5,18.618397390080453,-2.974003238410642,423.9116826432425,0.5204392862742226,276.467054351782,-3.9114102844567475,17.031691084552,-86.62535946759863,0
0.6000000000000001,18.813712729815222,-3.669362656711798,423.7237461089545,0.5081158930867861,277.3913083450237,-3.48337674141,23.5578117371,-84.8044509888,0
0.7000000000000001,19.013253597513685,-3.845168478865524,423.501594819794,0.4788522750924797,278.45973317160906,-3.48337674141,23.5578117371,-84.8044509888,0
0.8,19.220945132441656,-3.0188016715911883,423.2134463147349,0.4169124716888324,279.80625069971785,-3.48337674141,23.5578117371,-84.8044509888,0
0.9,19.428636667369624,-2.1924348643168527,422.9252978096758,0.3549726682851851,281.15276822782664,-4.40302324295,31.2704811096,-81.7166671753,0
1.0,19.636328202297594,-1.3660680570425172,422.6371493046167,0.2930328648815378,282.49928575593543,-4.40302324295,31.2704811096,-81.7166671753,0
1.1,19.781759160693667,-0.9355953623662036,422.3310829067994,0.2643490216384329,284.2432173035169,-4.40302324295,31.2704811096,-81.7166671753,0
1.2000000000000002,19.890331953483983,-0.7394913738165629,422.01440914401087,0.2553526556924213,286.2224173397586,-4.7797053265741445,31.930508723044998,-80.61588244766875,0
1.3,19.998904746274302,-0.5433873852669228,421.69773538122234,0.24635628974640977,288.20161737600023,-6.25792741776,34.5207939148,-76.1290435791,0
1.4000000000000001,20.107477539064618,-0.34728339671728214,421.3810616184338,0.2373599238003982,290.18081741224194,-6.25792741776,34.5207939148,-76.1290435791,0
1.5,20.216050331854937,-0.15117940816764197,421.0643878556453,0.22836355785438664,292.1600174484836,-6.25792741776,34.5207939148,-76.1290435791,0
1.6,20.321118475343667,-0.005241523055763819,420.7511065955604,0.21919306715822784,294.11297043770116,-6.25792741776,34.5207939148,-76.1290435791,0
1.7000000000000002,20.379867052171445,-0.5223292283373384,420.48266270481065,0.20772123836010334,295.71902656515954,-6.25792741776,34.5207939148,-76.1290435791,0
1.8,20.438615628999223,-1.0394169336189116,420.2142188140609,0.19624940956197884,297.3250826926179,-5.460250159861353,32.23351555101264,-67.45146820694094,0
1.9000000000000001,20.497364205827,-1.5565046389004864,419.94577492331126,0.18477758076385434,298.9311388200763,-5.25250577927,31.6524791718,-65.1845626831,0
2.0,20.55611278265478,-2.07359234418206,419.67733103256154,0.17330575196572987,300.53719494753466,-5.25250577927,31.6524791718,-65.1845626831,0
2.1,20.56916784344966,-2.171915227192056,419.45649060192056,0.16565192890244623,301.86961454255805,-5.25250577927,31.6524791718,-65.1845626831,0
2.2,20.563725488805797,-2.1007158768263006,419.2549207605097,0.1595436913916948,303.0912619961682,-5.206895334904284,26.980698928551472,-61.41590173826726,0
2.3000000000000003,20.558283134161936,-2.0295165264605455,419.0533509190989,0.15343545388094335,304.3129094497784,-5.16856050491,23.1634178162,-58.2458877563,0
2.4000000000000004,20.552840779518075,-1.95831717609479,418.85178107768803,0.14732721637019192,305.53455690338853,-5.16856050491,23.1634178162,-58.2458877563,0
2.5,20.547398424874217,-1.8871178257290349,418.6502112362772,0.14121897885944049,306.7562043569987,-5.16856050491,23.1634178162,-58.2458877563,0
2.6,20.521044526068064,-1.8030915843336595,418.4402515163096,0.1420699080414685,307.2069906335171,-5.16856050491,23.1634178162,-58.2458877563,0
2.7,20.48947701176324,-1.7158673735605656,418.2282000521583,0.14465587979355912,307.4655876700147,-5.898835982126711,16.67682328936105,-53.593992679099436,0
2.8000000000000003,20.457909497458413,-1.628643162787472,418.01614858800696,0.14724185154564978,307.7241847065123,-6.06691169739,15.7012205124,-52.5242271423,0
2.9000000000000004,20.426341983153588,-1.5414189520143782,417.8040971238556,0.14982782329774044,307.9827817430099,-6.06691169739,15.7012205124,-52.5242271423,0
3.0,20.37728695981261,-1.7643918349174428,417.6131667904157,0.15263904443901338,308.2639040995603,-6.06691169739,15.7012205124,-52.5242271423,0
3.1,20.326984501111678,-2.0094919871993233,417.42374308923746,0.15546633328051135,308.5466332533206,-6.27686405182,8.02164840698,-51.1021690369,0
3.2,20.276682042410744,-2.254592139481204,417.2343193880593,0.15829362212200931,308.8293624070809,-6.27686405182,8.02164840698,-51.1021690369,0
3.3000000000000003,20.232800685873123,-2.4562016454625955,417.0111022835877,0.159999996424,309.10781364417034,-6.27686405182,8.02164840698,-51.1021690369,0
3.4000000000000004,20.198694208093652,-2.591605103963559,416.73644129742456,0.159999996424,309.3797525854371,-6.27686405182,8.02164840698,-51.1021690369,0
3.5,20.164587730314178,-2.7270085624645217,416.46178031126146,0.159999996424,309.65169152670376,-7.57798576355,1.47622454166,-50.2934265137,0
3.6,20.130481252534704,-2.862412020965485,416.18711932509837,0.159999996424,309.92363046797044,-7.57798576355,1.47622454166,-50.2934265137,0
3.7,20.123766876354505,-2.8864627278916775,415.9011087648671,0.159999996424,310.0,-7.57798576355,1.47622454166,-50.2934265137,0
3.8000000000000003,20.12774907070955,-2.867030368825398,415.6106662146651,0.159999996424,310.0,-8.452901941941505,-0.10645805296625488,-49.98470161058704,0
3.9000000000000004,20.131731265064598,-2.847598009759119,415.32022366446313,0.159999996424,310.0,-9.78224277496,-2.49742531776,-49.512878418,0
4.0,20.135713459419645,-2.8281656506928394,415.0297811142612,0.159999996424,310.0,-9.78224277496,-2.49742531776,-49.512878418,0
4.1000000000000005,20.13969565377469,-2.80873329162656,414.7393385640592,0.159999996424,310.0,-9.78224277496,-2.49742531776,-49.512878418,0
4.2,20.14242245685499,-2.976520108124417,414.39040260193246,0.16269007330033106,309.730992456676,-9.78224277496,-2.49742531776,-49.512878418,0
4.3,20.144591509075205,-3.227485498741792,414.0154789246872,0.16657530958365593,309.3424690367669,-11.170940119249476,-4.727628256810371,-49.688585467819834,0
4.4,20.14676056129542,-3.47845088935917,413.64055524744197,0.17046054586698087,308.95394561685777,-12.6002378464,-6.97502994537,-49.8738059998,0
4.5,20.148929613515634,-3.7294162799765456,413.2656315701967,0.17434578215030574,308.5654221969487,-12.6002378464,-6.97502994537,-49.8738059998,0
4.6000000000000005,20.151098665735848,-3.9803816705939234,412.89070789295147,0.17823101843363065,308.1768987770396,-12.6002378464,-6.97502994537,-49.8738059998,0
4.7,20.18065159165046,-4.085767434059491,412.4355468984284,0.180000007153,307.685685407522,-12.6002378464,-6.97502994537,-49.8738059998,0
4.800000000000001,20.233094922488906,-4.069461991549048,411.91331487140684,0.180000007153,307.1086326657381,-13.040622186952108,-6.645659647168113,-50.05186441544906,0
4.9,20.285538253327353,-4.053156549038605,411.3910828443853,0.180000007153,306.53157992395427,-15.9341344833,-4.47118473053,-51.5625267029,0
5.0,20.33961044688442,-4.078384060436745,410.8661064609641,0.17951226517459098,305.975612914162,-15.9341344833,-4.47118473053,-51.5625267029,0
5.1000000000000005,20.41272414174763,-4.589134254045726,410.3090483892752,0.1733227906850488,305.666139355702,-15.9341344833,-4.47118473053,-51.5625267029,0
5.2,20.485837836610845,-5.099884447654703,409.7519903175863,0.16713331619550667,305.356665797242,-17.6490192413,-2.05480766296,-53.9439163208,0
5.300000000000001,20.558951531474055,-5.610634641263685,409.1949322458974,0.16094384170596449,305.047192238782,-17.6490192413,-2.05480766296,-53.9439163208,0
5.4,20.65174601475031,-5.803896365327421,408.59587631319175,0.15226895699845946,305.3865520519118,-17.6490192413,-2.05480766296,-53.9439163208,0
5.5,20.7480816593542,-5.940032436356908,407.989263711609,0.14314687280064697,305.8426563569458,-18.677520752,0.0713240355253,-54.3479309082,0
5.6000000000000005,20.8655173716725,-6.081667927483405,407.37737747736685,0.13197968762254683,306.16040626903026,-18.677520752,0.0713240355253,-54.3479309082,0
5.7,20.99406552932037,-6.226199712877745,406.7627138608239,0.1197354408376077,306.40529121932565,-18.741377934432712,0.34548343030811823,-53.978307209063146,0
5.800000000000001,21.122613686968243,-6.370731498272084,406.1480502442809,0.10749119405266847,306.65017616962103,-18.8466567993,0.796951174736,-53.3688316345,0
5.9,21.251161844616114,-6.515263283666423,405.5333866277379,0.09524694726772934,306.8950611199164,-18.8466567993,0.796951174736,-53.3688316345,0
6.0,21.381263727826887,-6.585842088137263,404.9186476425437,0.0851202697791752,307.0,-18.8466567993,0.796951174736,-53.3688316345,0
6.1000000000000005,21.512530675696365,-6.600967081113379,404.30385214199435,0.07658145645948015,307.0,-18.275145893142003,2.8356722036795077,-52.784868525775366,0
6.2,21.643797623565842,-6.616092074089495,403.68905664144506,0.0680426431397852,307.0,-17.7431964874,4.61932706833,-52.2394638062,0
6.300000000000001,21.771709733941773,-6.627507851932916,403.07869627755434,0.05966535528528693,307.03346433810924,-17.7431964874,4.61932706833,-52.2394638062,0
6.4,21.845241635120292,-6.5787991393167315,402.5402272227894,0.05390631305520837,307.60936857398855,-17.7431964874,4.61932706833,-52.2394638062,0
6.5,21.91877353629881,-6.530090426700548,402.0017581680245,0.048147270825129804,308.18527280986785,-16.29364577613375,4.149835218551418,-52.56620540801708,0
6.6000000000000005,21.99230543747733,-6.481381714084363,401.4632891132596,0.04238822859505119,308.76117704574716,-15.5588636398,3.91382002831,-52.731842041,0
6.7,22.050985718184076,-6.315475439307171,400.94605855482007,0.041555206489367426,309.0,-15.5588636398,3.91382002831,-52.731842041,0
6.800000000000001,22.099143587621366,-6.066534390568447,400.4438755256051,0.04421228230054253,309.0,-15.343315944919611,3.645567921518172,-52.5629697788315,0
6.9,22.147301457058656,-5.817593341829724,399.94169249639015,0.04686935811171761,309.0,-13.3971595764,1.82981264591,-50.8971061707,0
7.0,22.195459326495946,-5.568652293091002,399.43950946717524,0.04952643392289268,309.0,-13.3971595764,1.82981264591,-50.8971061707,0
7.1000000000000005,22.212272844859466,-5.374414212791162,399.0329325484209,0.05389046207804209,309.1945230709957,-13.3971595764,1.82981264591,-50.8971061707,0
7.2,22.222288294239917,-5.192040297493529,398.6470910065957,0.05862469983676051,309.4312349642233,-11.795347303596275,4.100655606891558,-50.50556553085319,0
7.300000000000001,22.232303743620367,-5.009666382195894,398.2612494647705,0.06335893759547898,309.6679468574509,-10.4365339279,5.99755859375,-50.1687316895,0
7.4,22.242319193000817,-4.82729246689826,397.8754079229453,0.0680931753541974,309.9046587506785,-10.4365339279,5.99755859375,-50.1687316895,0
7.5,22.216548994307164,-4.427102876221208,397.570549153996,0.07298904212802879,310.74726033502003,-10.4365339279,5.99755859375,-50.1687316895,0
7.6000000000000005,22.166644730004887,-3.880017027320516,397.32030567522406,0.07799391252384064,311.99847772887966,-8.990618174727725,7.511925423420263,-49.91864471963325,0
7.7,22.11674046570261,-3.3329311784198286,397.07006219645217,0.08299878291965246,313.24969512273935,-6.46193981171,10.1490659714,-49.4791717529,0
7.800000000000001,22.06683620140033,-2.7858453295191365,396.8198187176802,0.08800365331546431,314.500912516599,-6.46193981171,10.1490659714,-49.4791717529,0
7.9,21.993754438617813,-2.5174821936425755,396.62326447729544,0.10469403231529963,315.7347014989912,-6.46193981171,10.1490659714,-49.4791717529,0
8.0,21.905292886749415,-2.4340698428306347,396.4623365648891,0.12913851203675944,316.9569255882739,-6.312135916145478,10.646717586912958,-49.15988695999546,0
8.1,21.81683133488102,-2.3506574920186933,396.30140865248273,0.15358299175821927,318.1791496775566,-4.14900827408,17.8345050812,-44.5496635437,0
8.200000000000001,21.72836978301262,-2.267245141206751,396.1404807400763,0.1780274714796795,319.4013737668393,-4.14900827408,17.8345050812,-44.5496635437,0
8.3,21.639908231144226,-2.1838327903948103,395.97955282767,0.2024719512011393,320.623597856122,-4.14900827408,17.8345050812,-44.5496635437,0
8.4,21.55434064355988,-2.149445476519157,395.809197189952,0.22342161157258936,322.1504242837557,-4.14900827408,17.8345050812,-44.5496635437,0
8.5,21.470060909012147,-2.136874963575156,395.6346460876467,0.24281603032024748,323.81280284952965,-2.26699233055,28.5247268677,-38.52913982228267,0
8.6,21.385781174464412,-2.1243044506311546,395.4600949853413,0.26221044906790564,325.4751814153036,-2.26699233055,28.5247268677,-38.3682479858,0
8.700000000000001,21.30734705395887,-2.109443862582319,395.2898868078985,0.28037410603214535,327.1683470877556,-2.26699233055,28.5247268677,-38.3682479858,0
8.8,21.29371012854358,-2.069198354785412,395.16781888527686,0.28489507108853784,329.20278027176056,-2.26699233055,28.5247268677,-38.3682479858,0
8.9,21.280073203128293,-2.028952846988504,395.0457509626553,0.2894160361449304,331.2372134557655,-1.90421319008,35.6098823547,-31.6486682892,0
9.0,21.266436277713,-1.9887073391915968,394.9236830400337,0.2939370012013229,333.27164663977044,-1.90421319008,35.6098823547,-31.6486682892,0
9.1,21.25279935229771,-1.9484618313946893,394.8016151174121,0.2984579662577154,335.3060798237754,-1.90421319008,35.6098823547,-31.6486682892,0
9.200000000000001,21.241058666174848,-1.889228701258836,394.67716135948143,0.3122698254468306,337.6870997117518,-1.90421319008,35.6098823547,-31.6486682892,0
9.3,21.230299573439236,-1.8201665771758508,394.5514725674642,0.3308911410578102,340.2475311423995,-1.5594119070681751,37.07729404883115,-28.076003061464633,0
9.4,21.21954048070363,-1.7511044530928659,394.4257837754469,0.34951245666878983,342.8079625730472,-1.11874806881,38.9506454468,-22.9016189575,0
9.5,21.208781387968017,-1.6820423290098807,394.3000949834297,0.3681337722797695,345.3683940036949,-1.11874806881,38.9506454468,-22.9016189575,0
9.600000000000001,21.198119717542248,-1.6291556666496647,394.15756825994083,0.3864863731689911,318.8653403099236,-1.11874806881,38.9506454468,-22.9016189575,0
9.700000000000001,21.187629182422455,-1.604683364366221,393.9854634597343,0.4043669407405343,241.3083911809082,-1.45085165099368,39.723892581514995,-19.960365169873814,0
9.8,21.17713864730266,-1.5802110620827774,393.81335865952775,0.4222475083120776,163.7514420518927,-2.32120704651,41.7545585632,-12.2581567764,0
9.9,21.166648112182866,-1.5557387597993337,393.6412538593212,0.44012807588362085,86.19449292287726,-2.32120704651,41.7545585632,-12.2581567764,0
10.0,21.156157577063073,-1.53126645751589,393.46914905911467,0.4580086434551641,8.637543793861767,-2.32120704651,41.7545585632,-12.2581567764,0
10.100000000000001,21.143504887178004,-2.0084635877971,393.29747469591416,0.4572270867620566,2.7729159633519185,-2.32120704651,41.7545585632,-12.2581567764,0
10.200000000000001,21.13058121836642,-2.5485340361626148,393.12585427860125,0.4541066399575426,5.89335644398126,-2.00503468513,44.2234306335,0.952940821648,0
10.3,21.11765754955483,-3.0886044845281297,392.95423386128834,0.45098619315302857,9.0137969246106,-2.00503468513,44.2234306335,0.952940821648,0
10.4,21.054733665190742,-2.737169649522478,392.8635632986905,0.4473013180730723,12.293871692704002,-2.00503468513,44.2234306335,0.952940821648,0
10.5,20.968705337887485,-1.9737819314739513,392.8102986008181,0.44335562809983786,15.647711368510166,-0.1215860291309554,43.95745809415491,7.152875812785743,0
10.600000000000001,20.882677010584224,-1.2103942134254106,392.75703390294564,0.43940993812660334,19.00155104431639,0.892051815987,43.8142127991,10.5065422058,0
10.700000000000001,20.796648683280967,-0.44700649537688353,392.70376920507323,0.4354642481533689,22.355390720122553,0.892051815987,43.8142127991,10.5065422058,0
10.8,20.71062035597771,0.3163812226716436,392.6505045072008,0.4315185581801345,25.709230395928717,0.892051815987,43.8142127991,10.5065422058,0
10.9,20.582833585509864,0.5448591252940992,392.6465039897574,0.430000007153,28.787475967425557,0.892051815987,43.8142127991,10.5065422058,0
11.0,20.428920446437942,0.4386681574158342,392.6733258411411,0.430000007153,31.69329477660473,0.9330813649560582,44.68377685114888,16.25171606712113,0
11.100000000000001,20.275007307366014,0.3324771895375674,392.7001476925248,0.430000007153,34.599113585783954,1.0124155283,46.3675575256,27.7856502533,0
11.200000000000001,20.12109416829409,0.2262862216593024,392.7269695439085,0.430000007153,37.50493239496312,1.0124155283,46.3675575256,27.7856502533,0
11.3,19.957463370245772,0.16736534521986324,392.761927772392,0.4306815816101423,40.443023819654314,1.0124155283,46.3675575256,27.7856502533,0
11.4,19.734803612904642,0.3955819686750977,392.84630961964854,0.43550331276381193,43.57715205855766,1.0124155283,46.3675575256,27.7856502533,0
11.5,19.512143855563508,0.6237985921303322,392.9306914669051,0.4403250439174815,46.711280297461,3.70862531662,47.9648895264,40.7738952637,0
11.600000000000001,19.28948409822237,0.8520152155855707,393.0150733141616,0.4451467750711512,49.845408536364396,3.70862531662,47.9648895264,40.7738952637,0
11.700000000000001,19.066824340881237,1.0802318390408052,393.0994551614182,0.44996850622482076,52.97953677526774,3.70862531662,47.9648895264,40.7738952637,0
11.8,18.81031571110987,1.0460515006325966,393.22670018262426,0.44254732203477143,56.35370291832934,3.70862531662,47.9648895264,40.7738952637,0
11.9,18.553584624176175,1.0101466709977351,393.3542269036141,0.4350456765468893,59.729446607323055,6.95799684525,48.520526886,54.0007133484,0
12.0,18.313344516899974,1.0689470293971282,393.4907572059642,0.431952152878885,62.87846641444167,6.95799684525,48.520526886,54.0007133484,0
12.100000000000001,18.10698423098546,1.3223140490420326,393.6457848768415,0.43791487589239186,65.56169432951422,7.057909827709013,48.447024176644,55.674790850462955,0
12.200000000000001,17.90062394507095,1.5756810686869325,393.8008125477188,0.4438775989058986,68.24492224458673,7.44176769257,48.1651153564,62.2183380127,0
12.3,17.69426365915644,1.8290480883318327,393.95584021859617,0.4498403219194054,70.92815015965924,7.44176769257,48.1651153564,62.2183380127,0
12.4,17.526685361873888,1.8447085863459343,394.0850327032676,0.46225870216800463,73.94209067990786,7.44176769257,48.1651153564,62.2183380127,0
12.5,17.36017411792929,1.8538287921701024,394.21351435482677,0.4748547043190486,76.96513047540525,7.2138710022,47.7866668701,71.6034851074,0
12.600000000000001,17.19366287398469,1.862948997994271,394.34199600638595,0.4874507064700927,79.98817027090269,7.2138710022,47.7866668701,71.6034851074,0
12.700000000000001,17.027333975481326,1.8710993192104977,394.4704402703684,0.49998745486921936,83.00878159992145,7.2138710022,47.7866668701,71.6034851074,0
12.8,16.9099961713457,1.6186689095248004,394.58883954343,0.4966043857386697,85.3769322498115,7.2138710022,47.7866668701,71.6034851074,0
12.9,16.792658367210077,1.3662384998391028,394.70723881649167,0.49322131660812,87.74508289970154,5.82187271118,47.5751914978,83.2604522705,0
13.0,16.675989109347938,1.1278774470508153,394.8250016200456,0.490000009537,90.13159803936836,5.82187271118,47.5751914978,83.2604522705,0
13.100000000000001,16.572633188653672,1.1696916035763247,394.9300898586677,0.490000009537,92.88382106495061,5.82187271118,47.5751914978,83.2604522705,0
13.200000000000001,16.46927726795941,1.2115057601018333,395.0351780972898,0.490000009537,95.63604409053282,6.5675226143193965,46.59728506055268,88.24568468639416,0
13.3,16.365921347265147,1.2533199166273419,395.1402663359119,0.490000009537,98.38826711611503,6.91384935379,46.1478652954,90.7989425659,0
13.4,16.263234051534592,1.2841292407435256,395.24314893477873,0.48956927998606103,101.12921886014739,6.91384935379,46.1478652954,90.7989425659,0
13.5,16.172976594535843,1.1103570736756903,395.3050283585529,0.4811312232400754,103.66063578336144,6.91384935379,46.1478652954,90.7989425659,0
13.600000000000001,16.08271913753709,0.9365849066078519,395.366907782327,0.47269316649408966,106.19205270657554,5.568886998891792,44.24688473237283,99.06232733592744,0
13.700000000000001,15.992461680538343,0.7628127395400165,395.42878720610116,0.464255109748104,108.7234696297896,5.20683908463,43.7354164124,101.286880493,0
13.8,15.90314134436583,0.8225033951147845,395.51151566599424,0.45696923032016484,111.01025930147075,5.20683908463,43.7354164124,101.286880493,0
13.9,15.814774292131522,1.1196835533900098,395.6154527584381,0.45085540053674006,113.04820248163807,5.008171077585493,42.206301745445955,103.04031222917882,0
14.0,15.726407239897215,1.416863711665235,395.71938985088195,0.4447415707533153,115.08614566180539,4.20148658752,35.9971542358,110.235237122,0
14.100000000000001,15.638040187662906,1.7140438699404656,395.8233269433258,0.4386277409698904,117.12408884197275,4.20148658752,35.9971542358,110.235237122,0
14.200000000000001,15.549673135428598,2.0112240282156906,395.9272640357696,0.4325139111864656,119.16203202214008,4.20148658752,35.9971542358,110.235237122,0
14.3,15.459193814341972,2.0352025230646387,396.0273020819123,0.430000007153,120.58772505194352,4.20148658752,35.9971542358,110.235237122,0
14.4,15.367239451391589,1.8683985375680976,396.12461734183546,0.430000007153,121.58587089622318,4.06001083643328,34.186493335358776,111.80237825557697,0
14.5,15.275285088441207,1.7015945520715567,396.2219326017586,0.430000007153,122.58401674050285,3.32342100143,25.0355167389,120.005195618,0
14.600000000000001,15.183330725490821,1.5347905665750128,396.3192478616818,0.430000007153,123.58216258478252,3.32342100143,25.0355167389,120.005195618,0
14.700000000000001,15.106585829418563,1.4048467312296593,396.4335178546257,0.42873224016748945,124.12677644162592,3.32342100143,25.0355167389,120.005195618,0
14.8,15.040792151713857,1.301443178762137,396.5599957037134,0.426551647426234,124.34483527383343,3.1564620570306503,21.44595071557806,121.26626583266604,0
14.9,14.97499847400915,1.1980396262946147,396.68647355280115,0.42437105468497865,124.56289410604094,2.74383211136,12.555934906,124.513160706,0
15.0,14.909204796304444,1.0946360738270924,396.8129514018889,0.4221904619437232,124.78095293824845,2.74383211136,12.555934906,124.513160706,0
15.100000000000001,14.843411118599736,0.9912325213595683,396.9394292509766,0.4200098692024678,124.99901177045597,2.74383211136,12.555934906,124.513160706,0
15.200000000000001,14.809271951412077,1.1256878748059793,397.04108772592275,0.42288834521329216,125.0,2.74383211136,12.555934906,124.513160706,0
15.3,14.775276893662136,1.261226098043375,397.1426332088816,0.4257898529987776,125.0,2.1159794613444953,0.6079066461033964,125.58921023450733,0
15.4,14.741281835912195,1.3967643212807705,397.2441786918404,0.42869136078426306,125.0,2.09179234505,0.146371334791,125.634132385,0
15.5,14.74271627298231,1.3203086330998324,397.3159452304956,0.43415475884550236,124.79226237203562,2.09179234505,0.146371334791,125.634132385,0
15.600000000000001,14.773258502641873,1.069685211646615,397.3632462965628,0.44172292783735523,124.41385384349749,2.0092463267620446,-0.470062042735048,125.62506081139952,0
15.700000000000001,14.803800732301438,0.8190617901934019,397.4105473626301,0.4492910968292079,124.03544531495939,0.943686366081,-8.09767532349,125.501281738,0
15.8,14.834342961961003,0.5684383687401888,397.45784842869733,0.4568592658210606,123.65703678642127,0.943686366081,-8.09767532349,125.501281738,0
15.9,14.864885191620566,0.3178149472869758,397.5051494947646,0.4644274348129133,123.27862825788316,0.943686366081,-8.09767532349,125.501281738,0
16.0,14.933236842321543,0.1228179954021009,397.53438780131927,0.4718634832653932,122.81365156166493,0.943686366081,-8.09767532349,125.501281738,0
16.1,15.107168213814909,0.0831534174051624,397.51318732691533,0.4789305959004575,122.10694032623849,0.943686366081,-8.09767532349,125.501281738,0
16.2,15.281099585308269,0.043488839408225316,397.4919868525114,0.4859977085355216,121.40022909081208,-1.9994287132155149,-14.136980552023829,123.06221353069373,0
16.3,15.455030956801634,0.0038242614112868334,397.47078637810745,0.4930648211705859,120.69351785538564,-2.06204080582,-14.2647199631,123.010093689,0
16.400000000000002,15.630549275907818,-0.0468257678976638,397.4496702315205,0.49993769335195015,119.98130798775847,-2.06204080582,-14.2647199631,123.010093689,0
16.5,15.8894864385285,-0.6749325680101297,397.4329868267006,0.49660020075472444,118.98005925369984,-2.06204080582,-14.2647199631,123.010093689,0
16.6,16.148423601149194,-1.3030393681226178,397.4163034218807,0.4932627081574986,117.97881051964117,-4.1334212334087646,-25.1502246857,120.89910781527566,0
16.7,16.405919197090924,-1.8984557726930056,397.3997956871709,0.48985138465554406,116.99504583748164,-4.17967844009,-25.1502246857,120.847221375,0
16.8,16.60053008198257,-1.0678361098427782,397.39095111801214,0.4832193741203569,116.77397882842581,-4.17967844009,-25.1502246857,120.847221375,0
16.900000000000002,16.795140966874218,-0.23721644699255084,397.3821065488534,0.4765873635851698,116.55291181936997,-4.69077396393,-26.7083683014,117.924797058,0
17.0,16.989751851765856,0.593403215857647,397.37326197969463,0.46995535304998287,116.33184481031412,-4.69077396393,-26.7083683014,117.924797058,0
17.1,17.184362736657505,1.4240228787078741,397.3644174105359,0.46332334251479573,116.11077780125828,-4.69077396393,-26.7083683014,117.924797058,0
17.2,17.341520952473886,1.597636179307241,397.35166100389193,0.46208144273003393,115.16742545196007,-4.69077396393,-26.7083683014,117.924797058,0
17.3,17.461060579724222,1.111332506375934,397.3349754298875,0.4662535324859971,113.49858795800449,-4.37243901179155,-23.39939776242791,117.58732545745626,0
17.400000000000002,17.58060020697456,0.6250288334446275,397.31828985588305,0.4704256222419603,111.82975046404891,-3.54600834846,-14.8453683853,116.694137573,0
17.5,17.700139834224892,0.13872516051333816,397.3016042818786,0.4745977119979233,110.16091297009339,-3.54600834846,-14.8453683853,116.694137573,0
17.6,17.81967946147523,-0.34757851241796867,397.28491870787417,0.4787698017538864,108.49207547613781,-3.54600834846,-14.8453683853,116.694137573,0
17.7,17.907265383424054,-0.42202912735818726,397.2619436916923,0.479999989271,107.548719222164,-3.54600834846,-14.8453683853,116.694137573,0
17.8,17.981489525750046,-0.32425903280812596,397.2363386787845,0.479999989271,106.90873061703311,-4.485539842137197,-11.520106540164496,110.07247026314121,0
17.900000000000002,18.055713668076038,-0.22648893825806465,397.2107336658766,0.479999989271,106.26874201190222,-4.7324795723,-10.670630455,108.32624054,0
18.0,18.11605038165115,-0.422711563170428,397.13984483650273,0.479999989271,106.0,-4.7324795723,-10.670630455,108.32624054,0
18.1,18.16633411262459,-0.8317528276447765,397.0361754667396,0.479999989271,106.0,-5.340758252637126,-6.741901358227992,107.12639385698735,0
18.2,18.216617843598026,-1.2407940921191105,396.9325060969765,0.479999989271,106.0,-5.6174197197,-4.95374107361,106.578582764,0
18.3,18.28231700163511,-1.3767662590887497,396.8081301779792,0.479999989271,105.27951404600388,-5.6174197197,-4.95374107361,106.578582764,0
18.400000000000002,18.355059574571605,-1.3879712728688303,396.6742932938857,0.479999989271,104.22983309259335,-5.725270345431098,-3.489567177947189,106.47258958328901,0
18.5,18.427802147508093,-1.3991762866489104,396.5404564097922,0.479999989271,103.18015213918287,-6.00081634521,0.251013815403,106.197296143,0
18.6,18.500544720444587,-1.410381300428991,396.4066195256988,0.479999989271,102.13047118577232,-6.00081634521,0.251013815403,106.197296143,0
18.7,18.56508751265418,-1.2820594034419945,396.28188182973497,0.47415655009026736,101.4156555246374,-6.00081634521,0.251013815403,106.197296143,0
18.8,18.628466440910003,-1.1339332766308208,396.1584356581942,0.4674837023613011,100.7483701153507,-5.51047330631386,0.9851917860912371,104.57370397095656,0
18.900000000000002,18.691845369165826,-0.985807149819647,396.0349894866535,0.4608108546323349,100.08108470606398,-4.77838277817,2.08224916458,102.149612427,0
19.0,18.743943796972633,-0.9451103239886074,395.96108040233014,0.4466117586236812,100.0,-4.77838277817,2.08224916458,102.149612427,0
19.1,18.794481878539436,-0.919273380182175,395.89402340831333,0.4313716136600053,100.0,-4.28828477859,-0.920408546925,100.776977539,0
19.200000000000003,18.84501996010624,-0.8934364363757427,395.8269664142966,0.4161314686963294,100.0,-4.28828477859,-0.920408546925,100.776977539,0
19.3,18.873944322923283,-0.8478811031040109,395.80504501991857,0.4074719216682236,99.87359633002043,-4.28828477859,-0.920408546925,100.776977539,0
19.400000000000002,18.888319483929404,-0.7890524025307657,395.8135065020647,0.4032420819250911,99.66210445631862,-4.243988041974599,-1.0109365514381827,100.78008585452159,0
19.5,18.902694644935522,-0.7302237019575225,395.8219679842108,0.3990122421819587,99.45061258261681,-3.34719061852,-2.87403607368,100.843780518,0
19.6,18.917069805941644,-0.6713950013842773,395.8304294663569,0.3947824024388262,99.23912070891501,-3.34719061852,-2.87403607368,100.843780518,0
19.700000000000003,18.931444966947762,-0.612566300811032,395.8388909485031,0.3905525626956936,99.02762883521319,-3.34719061852,-2.87403607368,100.843780518,0
19.8,18.878342596116237,-0.6462306512881593,395.81585925454186,0.39321839616225707,99.64368174814834,-3.34719061852,-2.87403607368,100.843780518,0
19.900000000000002,18.815100473309215,-0.6937937999513867,395.78809512615464,0.3969204325566131,100.38408862982827,-1.67717945576,-3.94307112694,99.0694580078,0
20.0,18.751858350502197,-0.7413569486146124,395.7603309977675,0.400622468950969,101.12449551150817,-1.67717945576,-3.94307112694,99.0694580078,0
20.1,18.688616227695174,-0.7889200972778398,395.73256686938026,0.404324505345325,101.86490239318812,-1.67717945576,-3.94307112694,99.0694580078,0
20.200000000000003,18.625374104888156,-0.8364832459410674,395.70480274099305,0.408026541739681,102.60530927486805,-1.67717945576,-3.94307112694,99.0694580078,0
20.3,18.54972962774798,-0.7605215670990909,395.6716440546682,0.4019683870479262,102.77052542295215,-1.67717945576,-3.94307112694,99.0694580078,0
20.400000000000002,18.45992586376979,-0.5435363843900949,395.63232661080815,0.3847674008042146,102.27906862291897,-1.67717945576,-3.94307112694,99.0694580078,0
20.5,18.370122099791608,-0.32655120168110663,395.5930091669481,0.36756641456050365,101.78761182288581,-0.542271852493,-4.20637798309,103.307533264,0
20.6,18.28031833581342,-0.10956601897211071,395.55369172308804,0.35036542831679207,101.29615502285264,-0.542271852493,-4.20637798309,103.307533264,0
20.700000000000003,18.191094336400045,0.030074311184517345,395.56672397783495,0.33760483732486674,101.39919435932755,-0.542271852493,-4.20637798309,103.307533264,0
20.8,18.10274949021518,0.05242914140426245,395.6591391568496,0.33157764823154245,102.40372583496823,-0.542271852493,-4.20637798309,103.307533264,0
20.900000000000002,18.014404644030314,0.07478397162400835,395.7515543358643,0.3255504591382179,103.40825731060893,1.27897047997,3.98134636879,101.324264526,0
21.0,17.926059797845454,0.09713880184375345,395.84396951487895,0.31952327004489356,104.41278878624959,1.27897047997,3.98134636879,101.324264526,0
21.1,17.837714951660587,0.11949363206349935,395.93638469389356,0.31349608095156906,105.4173202618903,1.27897047997,3.98134636879,101.324264526,0
21.200000000000003,17.72455377805602,0.36717645938952415,396.05123914968794,0.3173922832740991,106.21120804701083,1.27897047997,3.98134636879,101.324264526,0
21.3,17.577115227175774,0.9260919939958242,396.1970876983213,0.33499510002280536,106.7141457197883,1.27897047997,3.98134636879,101.324264526,0
21.400000000000002,17.429676676295518,1.4850075286021442,396.3429362469547,0.35259791677151225,107.21708339256578,1.0583178997,8.77986240387,106.12815094,0
21.5,17.28223812541527,2.043923063208444,396.4887847955881,0.37020073352021854,107.72002106534325,1.0583178997,8.77986240387,106.12815094,0
21.6,17.14629423003595,2.217982965027415,396.6099577326227,0.381142286384932,108.11422922423361,1.0583178997,8.77986240387,106.12815094,0
21.700000000000003,17.02478467093124,1.9087629964422934,396.700144436484,0.38371900196438075,108.37190102792009,1.0583178997,8.77986240387,106.12815094,0
21.8,16.903275111826535,1.5995430278571825,396.79033114034524,0.3862957175438294,108.62957283160655,0.845652461052,21.3920440674,108.061157227,0
21.900000000000002,16.781765552721826,1.290323059272061,396.88051784420657,0.3888724331232781,108.88724463529303,0.845652461052,21.3920440674,108.061157227,0
22.0,16.69030120045707,1.161028572580948,396.9283733156785,0.3920971402352541,109.62914602457084,0.845652461052,21.3920440674,108.061157227,0
22.1,16.62221417017726,1.1717289924297887,396.9432920576796,0.39582603115199155,110.74781269948335,0.8176750573687016,21.644905565357153,108.11628078684456,0
22.200000000000003,16.554127139897446,1.1824294122786296,396.95821079968067,0.399554922068729,111.86647937439585,0.104642018676,27.6240062714,109.818283081,0
22.3,16.486040109617637,1.19312983212747,396.97312954168177,0.40328381298546634,112.98514604930831,0.104642018676,27.6240062714,109.818283081,0
22.400000000000002,16.417953079337828,1.2038302519763109,396.9880482836829,0.4070127039022038,114.1038127242208,0.104642018676,27.6240062714,109.818283081,0
22.5,16.3564756857572,1.1017084181632986,396.9823125701089,0.409999996424,115.33163172023723,0.104642018676,27.6240062714,109.818283081,0
22.6,16.321623104767788,0.5451181322131798,396.89337697220134,0.409999996424,116.99913601599927,0.104642018676,27.6240062714,109.818283081,0
22.700000000000003,16.286770523778376,-0.011472153736938662,396.8044413742938,0.409999996424,118.66664031176133,-1.9590357542,32.1991882324,115.993797302,0
22.8,16.251917942788964,-0.5680624396870375,396.71550577638624,0.409999996424,120.33414460752333,-1.9590357542,32.1991882324,115.993797302,0
22.900000000000002,16.244559246949457,-0.629761332894366,396.62948711213966,0.4034830995183841,122.30337965300816,-1.9590357542,32.1991882324,115.993797302,0
23.0,16.25547736609687,-0.3624765857590226,396.54540750658043,0.3926340349913735,124.47319301103336,-2.461247891003029,31.599847505889564,117.706657245111,0
23.1,16.266395485244285,-0.09519183862366964,396.46132790102126,0.38178497046436255,126.64300636905863,-3.59591960907,30.2468242645,121.58821106,0
23.200000000000003,16.277313604391697,0.17209290851168324,396.3772482954621,0.37093590593735154,128.81281972708388,-3.59591960907,30.2468242645,121.58821106,0
23.3,16.273363748856177,0.03964790494809939,396.31775483592247,0.3678232398894775,130.7414135636041,-3.59591960907,30.2468242645,121.58821106,0
23.400000000000002,16.268010208705604,-0.13053556086071197,396.26058255298204,0.3654409667668445,132.64723387929135,-4.437985144592622,32.29505162525016,126.30475940141174,0
23.5,16.26265666855503,-0.30071902666951733,396.20341027004156,0.36305869364421156,134.55305419497853,-4.9836435318,33.6107215881,129.376617432,0
23.6,16.25730312840446,-0.4709024924783287,396.14623798710113,0.36067642052157856,136.45887451066577,-4.9836435318,33.6107215881,129.376617432,0
23.700000000000003,16.257999063408604,-0.31108667013638003,396.1597501633589,0.35716701366544845,138.1331996479157,-4.9836435318,33.6107215881,129.376617432,0
23.8,16.261093721658487,-0.020420328812307487,396.20128997028803,0.3532106784695125,139.71573287734012,-2.5499654637412617,36.381890071950664,137.02381299648087,0
23.900000000000002,16.26418837990837,0.2702460125117754,396.2428297772171,0.34925434327357635,141.2982661067646,-2.45186090469,36.4817962646,137.332778931,0
24.0,16.26728303815825,0.560912353835848,396.2843695841462,0.34529800807764044,142.88079933618903,-2.45186090469,36.4817962646,137.332778931,0
24.1,16.270377696408133,0.8515786951599309,396.32590939107524,0.3413416728817043,144.4633325656135,-2.45186090469,36.4817962646,137.332778931,0
24.200000000000003,16.24641948429951,0.9532620701326915,396.40122048793825,0.3344339450543015,146.29874693679275,-2.45186090469,36.4817962646,137.332778931,0
24.3,16.20857957284,0.9579721965532108,396.49386072168545,0.326011762581847,148.26392276894916,-1.516090277418368,36.103856290364064,140.18790617621818,0
24.400000000000002,16.17073966138049,0.9626823229737301,396.58650095543265,0.3175895801093922,150.22909860110565,0.0755828768015,35.4625778198,145.069488525,0
24.5,16.135505602105233,0.9890412110193201,396.68168242535535,0.30905138047392383,152.2529658326358,0.0755828768015,35.4625778198,145.069488525,0
24.6,16.12402509187352,1.2127385836119768,396.80002843948756,0.29945563068722203,154.81183234075067,0.0755828768015,35.4625778198,145.069488525,0
24.700000000000003,16.112544581641806,1.4364359562046336,396.9183744536197,0.2898598809005202,157.37069884886552,-1.27151858807,33.6364593506,153.428604126,0
24.8,16.101064071410093,1.6601333287972824,397.0367204677519,0.2802641311138187,159.92956535698028,-1.27151858807,33.6364593506,153.428604126,0
24.900000000000002,16.047914019074504,1.4508160565620658,397.13827854263764,0.27754264062979117,161.4744177434775,-1.27151858807,33.6364593506,153.428604126,0
25.0,15.993584517398128,1.229242378050051,397.23936143774273,0.2750157248925352,162.9905686317842,-2.52379751205,36.9799461365,160.4896698,0
25.1,15.93925501572175,1.007668699538028,397.34044433284777,0.27248880915527907,164.50671952009097,-2.52379751205,36.9799461365,160.4896698,0
25.200000000000003,15.884894772159297,0.7946842040590002,397.442107157375,0.26981537892898844,166.01477054047933,-2.52379751205,36.9799461365,160.4896698,0
25.3,15.828527294725395,1.142514327124865,397.5816353873097,0.2575755595637591,166.99395585624032,-2.52379751205,36.9799461365,160.4896698,0
25.400000000000002,15.772159817291492,1.4903444501907424,397.7211636172444,0.2453357401985294,167.97314117200133,-0.375695824623,31.8367958069,166.074890137,0
25.5,15.715792339857588,1.838174573256607,397.86069184717906,0.2330959208333001,168.95232648776232,-0.375695824623,31.8367958069,166.074890137,0
25.6,15.659424862423684,2.186004696322484,398.00022007711374,0.2208561014680704,169.93151180352334,-0.375695824623,31.8367958069,166.074890137,0
25.700000000000003,15.575888708867438,2.0663295838780527,398.0837554841082,0.23324138865409683,171.70246458275145,-0.375695824623,31.8367958069,166.074890137,0
25.8,15.490309358304335,1.9114961408037172,398.16307999883395,0.24747858587698202,173.53296155560162,-0.123779140413,21.42237854,170.976623535,0
25.900000000000002,15.40473000774123,1.7566626977293764,398.2424045135596,0.26171578309986776,175.36345852845184,-0.123779140413,21.42237854,170.976623535,0
26.0,15.319150657178128,1.601829254655041,398.32172902828535,0.27595298032275295,177.193955501302,-0.123779140413,21.42237854,170.976623535,0
26.1,15.234438755479133,1.4438408829228089,398.3997746795356,0.2901878718314762,179.01252534460053,-0.123779140413,21.42237854,170.976623535,0
26.200000000000003,15.213796086168403,1.0528314471094635,398.3833642716557,0.3042524647294015,179.9501648338577,-0.123779140413,21.42237854,170.976623535,0
26.3,15.193153416857674,0.661822011296132,398.3669538637758,0.3183170576273263,180.88780432311486,-4.11429786682,9.76361370087,179.96232605,0
26.400000000000002,15.172510747546946,0.2708125754827868,398.3505434558959,0.3323816505252516,181.82544381237204,-4.11429786682,9.76361370087,179.96232605,0
26.5,15.151868078236218,-0.12019686033054455,398.334133048016,0.3464462434231764,182.7630833016292,-4.11429786682,9.76361370087,179.96232605,0
26.6,15.16263263021114,-0.40581565798635244,398.3154852191012,0.3483886685802618,182.67773460074008,-4.11429786682,9.76361370087,179.96232605,0
26.700000000000003,15.184016067812127,-0.6558015315297719,398.296080910718,0.3462325486413272,182.24651020173755,-5.213197168521406,9.21030828551644,-69.67259291650163,0
26.8,15.205399505413112,-0.9057874050731826,398.27667660233476,0.34407642870239263,181.81528580273508,-5.6822977066,8.98174858093,-176.366088867,0
26.900000000000002,15.226782943014097,-1.1557732786166022,398.25727229395153,0.341920308763458,181.38406140373255,-5.6822977066,8.98174858093,-176.366088867,0
27.0,15.248597988502627,-1.3638921594632718,398.23126487074086,0.3402566344264953,181.12831554760933,-5.6822977066,8.98174858093,-176.366088867,0
27.1,15.273927737207195,-1.2310764602829294,398.1514864447533,0.342603081755316,182.30154033080686,-5.6822977066,8.98174858093,-176.366088867,0
27.200000000000003,15.299257485911763,-1.098260761102587,398.07170801876566,0.34494952908413673,183.47476511400436,-6.304371423062295,0.09681555492049299,-178.32312298758123,0
27.3,15.32458723461633,-0.9654450619222491,397.9919295927781,0.34729597641295734,184.64798989720185,-6.4222612381,-1.58328413963,-178.694854736,0
27.400000000000002,15.349916983320897,-0.8326293627419066,397.91215116679047,0.34964242374177806,185.82121468039935,-6.4222612381,-1.58328413963,-178.694854736,0
27.5,15.40255433242885,-0.9121904056984736,397.7630924991817,0.34999999404,185.7087211883869,-6.4222612381,-1.58328413963,-178.694854736,0
27.6,15.460101179042047,-1.0299336056476434,397.60157828189523,0.34999999404,185.36507480958295,-8.301837228922341,-5.363533766287767,-174.13293645756045,0
27.700000000000003,15.517648025655246,-1.1476768055968132,397.4400640646088,0.34999999404,185.021428430779,-8.37025928497,-5.49741411209,-173.966033936,0
27.8,15.570270615652008,-1.1158516214072842,397.3235404457493,0.34619811572743625,184.2396236123543,-8.37025928497,-5.49741411209,-173.966033936,0
27.900000000000002,15.622565728260595,-1.0740797046229695,397.2100088325493,0.34214340144856337,183.42867998322333,-7.6871881485,0.887009680271,-174.346786499,0
28.0,15.67486084086918,-1.0323077878386564,397.0964772193493,0.33808868716969065,182.61773635409241,-7.6871881485,0.887009680271,-174.346786499,0
28.1,15.727155953477764,-0.9905358710543419,396.9829456061493,0.33403397289081777,181.80679272496144,-7.6871881485,0.887009680271,-174.346786499,0
28.200000000000003,15.779316205990881,-0.9489843270342906,396.8698603175565,0.3299400997792847,181.00299566507874,-7.6871881485,0.887009680271,-174.346786499,0
28.3,15.80526430340022,-0.9502656540528613,396.8435251516658,0.3182350990632905,181.58824538692124,-7.6871881485,0.887009680271,-174.346786499,0
28.400000000000002,15.831212400809557,-0.9515469810714321,396.81718998577514,0.3065300983472959,182.17349510876375,-5.70074653625,3.35957622528,-178.259521484,0
28.5,15.857160498218896,-0.9528283080900029,396.7908548198845,0.2948250976313017,182.75874483060625,-5.70074653625,3.35957622528,-178.259521484,0
28.6,15.863090174870942,-0.8038397256445489,396.7757646107105,0.29423433245038405,183.42343406271397,-5.70074653625,3.35957622528,-178.259521484,0
28.700000000000003,15.854980246952461,-0.549461705475583,396.7685608750815,0.3014383615695778,184.14383694600932,-5.622606268822024,3.136181279128178,-178.05904822645047,0
28.8,15.84687031903398,-0.2950836853066263,396.76135713945257,0.3086423906887713,184.86423982930467,-4.90554523468,1.10646927357,-176.217346191,0
28.900000000000002,15.8387603911155,-0.040705665137660496,396.7541534038236,0.3158464198079651,185.58464271260004,-4.90554523468,1.10646927357,-176.217346191,0
29.0,15.817849007563238,0.1374793336624472,396.742729106733,0.32636066500700656,185.63653298229224,-4.90554523468,1.10646927357,-176.217346191,0
29.1,15.77950685969782,0.21191811517435205,396.72555799348254,0.341382178595214,184.7781606895507,-4.90554523468,1.10646927357,-176.217346191,0
29.200000000000003,15.741164711832402,0.2863568966862569,396.7083868802321,0.35640369218342144,183.91978839680917,-4.11876678467,5.45104646683,-173.656188965,0
29.3,15.702822563966985,0.3607956781981591,396.69121576698166,0.37142520577162835,183.06141610406763,-4.11876678467,5.45104646683,-173.656188965,0
29.400000000000002,15.664480416101567,0.4352344597100639,396.6740446537312,0.38644671935983577,182.2030438113261,-4.11876678467,5.45104646683,-173.656188965,0
29.5,15.677557463239447,0.22946071174563465,396.638555485089,0.39174602832834854,181.65079218099993,-4.11876678467,5.45104646683,-173.656188965,0
29.6,15.706565985393093,-0.06313273287430654,396.5973907386438,0.3940330563775106,181.1933874980981,-3.780020515475826,0.41970157765429583,-177.65307960430133,0
29.700000000000003,15.735574507546739,-0.35572617749424773,396.5562259921986,0.39632008442667277,180.73598281519628,-3.7574775219,0.0893770009279,-177.919448853,0
29.8,15.764583029700384,-0.6483196221141785,396.5150612457534,0.3986071124758348,180.27857813229446,-3.7574775219,0.0893770009279,-177.919448853,0
29.900000000000002,15.78936383479805,-0.874992196207257,396.4589349480843,0.4007763992152969,180.31055759826648,-3.7574775219,0.0893770009279,-177.919448853,0
30.0,15.807558651868073,-0.998972452363053,396.3795013675646,0.402762267138936,181.1049055252123,-3.7574775219,0.0893770009279,-177.919448853,0
30.1,15.825753468938096,-1.1229527085188535,396.30006778704495,0.4047481350625751,181.89925345215815,-4.9552192688,1.02460968494,-179.023712158,0
30.200000000000003,15.84394828600812,-1.246932964674654,396.2206342065253,0.40673400298621426,182.693601379104,-4.9552192688,1.02460968494,-179.023712158,0
30.3,15.862143103078141,-1.3709132208304502,396.1412006260056,0.40871987090985334,183.4879493060498,-4.9552192688,1.02460968494,-179.023712158,0
30.400000000000002,15.886176955095493,-1.509011933102546,396.0069403143293,0.410798604712936,184.0,-4.9552192688,1.02460968494,-179.023712158,0
30.5,15.920802061816444,-1.6727196999698197,395.77323139864836,0.4130457852184845,184.0,-4.9552192688,1.02460968494,-179.023712158,0
30.6,15.955427168537394,-1.836427466837099,395.5395224829674,0.415292965724033,184.0,-6.715907471854727,-1.3026088456493403,-176.39555009338724,0
30.700000000000003,15.990052275258346,-2.0001352337043783,395.3058135672864,0.4175401462295816,184.0,-7.25580024719,-2.01460337639,-175.589477539,0
30.8,16.024677381979295,-2.163843000571652,395.07210465160546,0.41978732673513003,184.0,-7.25580024719,-2.01460337639,-175.589477539,0
30.900000000000002,16.047954871615893,-2.1581862389875313,394.8732667954395,0.4083737590234026,183.53495071914517,-7.25580024719,-2.01460337639,-175.589477539,0
31.0,16.07004624091304,-2.1348264909099415,394.6780738695389,0.39553228876683716,183.02129172518784,-6.0958571434,3.3412001133,-175.424728394,0
31.1,16.09213761021019,-2.111466742832351,394.48288094363824,0.38269081851027126,182.50763273123047,-6.0958571434,3.3412001133,-175.424728394,0
31.200000000000003,16.11370878247036,-2.0837738112086384,394.28842333597777,0.36988340115732543,182.00388678686804,-6.0958571434,3.3412001133,-175.424728394,0
31.3,16.09146025176944,-1.6910676204347024,394.15590654031087,0.3599444894196158,182.33518383162817,-6.0958571434,3.3412001133,-175.424728394,0
31.400000000000002,16.06921172106852,-1.2983614296607522,394.02338974464396,0.3500055776819058,182.6664808763883,-3.500744533631436,-0.19490258259873405,-177.4158360579647,0
31.5,16.0469631903676,-0.905655238886816,393.89087294897706,0.3400666659441962,182.9977779211484,-3.46035790443,-0.251791238785,-177.447769165,0
31.6,15.983467549420274,-0.6044064488772899,393.8357329610325,0.34246594980970835,183.0,-3.46035790443,-0.251791238785,-177.447769165,0
31.700000000000003,15.919693387342924,-0.3037752250065253,393.78111546001594,0.344948547346441,183.0,-1.693711556843442,-1.6787963097701635,-176.4444975636741,0
31.8,15.855919225265577,-0.0031440011357712905,393.7264979589994,0.3474311448831735,183.0,-1.57421207428,-1.77156877518,-176.375976562,0
31.900000000000002,15.792145063188228,0.2974872227349932,393.67188045798287,0.34991374241990614,183.0,-1.57421207428,-1.77156877518,-176.375976562,0
32.0,15.697307968016831,0.4002333803832912,393.68831375749664,0.3568725939652165,182.7709133449285,-1.57421207428,-1.77156877518,-176.375976562,0
32.1,15.60135282545268,0.495857065672506,393.7073043867399,0.36399255921181317,182.53358117947192,0.431766986847,1.27136993408,-176.442932129,0
32.2,15.505397682888528,0.5914807509617207,393.7262950159831,0.3711125244584099,182.2962490140154,0.431766986847,1.27136993408,-176.442932129,0
32.300000000000004,15.409442540324378,0.6871044362509355,393.7452856452264,0.3782324897050066,182.05891684855882,0.431766986847,1.27136993408,-176.442932129,0
32.4,15.31527426827194,0.6334569312892451,393.7961207470095,0.3820054134844583,182.20054201650277,0.431766986847,1.27136993408,-176.442932129,0
32.5,15.221696062034265,0.530516639905808,393.8574716273631,0.3846730670513036,182.46730762760166,1.3177242204966841,2.917815397513641,-176.95153197061396,0
32.6,15.12811785579659,0.4275763485223709,393.9188225077167,0.3873407206181489,182.73407323870055,1.78943884373,3.79258131981,-177.222213745,0
32.7,15.034647930190314,0.32518442396897074,393.98010181338555,0.39003191802540815,183.0,1.78943884373,3.79258131981,-177.222213745,0
32.800000000000004,14.975504433032699,0.396632220442607,394.0186909734337,0.400186832100588,183.0,1.78943884373,3.79258131981,-177.222213745,0
32.9,14.916360935875089,0.46808001691623813,394.05728013348187,0.4103417461757671,183.0,1.558647167209055,3.9701175902310117,-176.63750266567902,0
33.0,14.857217438717473,0.5395278133898743,394.09586929353003,0.4204966602509469,183.0,1.5378702879,3.98603272438,-176.559753418,0
33.1,14.798073941559858,0.6109756098635105,394.1344584535782,0.43065157432612666,183.0,1.5378702879,3.98603272438,-176.559753418,0
33.2,14.743353260726249,0.6656214033789923,394.1669907867801,0.4407480111447487,183.0,1.5378702879,3.98603272438,-176.559753418,0
33.300000000000004,14.739899574982314,0.5255070847738647,394.12931552160205,0.45016660990608276,183.0,1.5378702879,3.98603272438,-176.559753418,0
33.4,14.736445889238377,0.38539276616874696,394.091640256424,0.4595852086674161,183.0,0.858255207539,4.08103084564,-176.810760498,0
33.5,14.73299220349444,0.24527844756361927,394.05396499124595,0.46900380742875014,183.0,0.858255207539,4.08103084564,-176.810760498,0
33.6,14.729538517750504,0.10516412895849159,394.0162897260679,0.4784224061900842,183.0,0.858255207539,4.08103084564,-176.810760498,0
33.7,14.7655003908745,-0.1705934339911374,393.9177144902192,0.4845010064047569,183.0,0.858255207539,4.08103084564,-176.810760498,0
33.800000000000004,14.809392527286985,-0.47364191128657307,393.80688640763816,0.48990761138153527,183.0,-0.91210860014,-0.244013145566,-176.508743286,0
33.9,14.853284663699467,-0.7766903885819872,393.6960583250571,0.4953142163583133,183.0,-0.91210860014,-0.244013145566,-176.508743286,0
34.0,14.90011548157202,-1.0460645776956148,393.58156030013186,0.5012095300906457,182.96976176395515,-0.91210860014,-0.244013145566,-176.508743286,0
34.1,14.966049542985429,-1.096535106462258,393.44320538451103,0.5102817524143888,182.74295632753135,-0.91210860014,-0.244013145566,-176.508743286,0
34.2,15.03198360439884,-1.1470056352289009,393.30485046889027,0.5193539747381318,182.51615089110757,-2.12062239647,-2.27123904228,-176.438430786,0
34.300000000000004,15.097917665812252,-1.1974761639955438,393.16649555326944,0.5284261970618749,182.28934545468377,-2.12062239647,-2.27123904228,-176.438430786,0
34.4,15.163851727225659,-1.2479466927621832,393.0281406376487,0.5374984193856174,182.06254001825997,-2.12062239647,-2.27123904228,-176.438430786,0
34.5,15.23802599974384,-1.3820875002182447,392.91464829629876,0.5328248243547484,181.64124033729405,-2.12062239647,-2.27123904228,-176.438430786,0
34.6,15.31533752999234,-1.5480837086195895,392.8106217686683,0.5229178474108445,181.1458917558286,-2.22867274284,-3.00399708748,-177.343322754,0
34.7,15.392649060240837,-1.7140799170209344,392.70659524103786,0.5130108704669406,180.65054317436315,-2.22867274284,-3.00399708748,-177.343322754,0
34.800000000000004,15.469960590489336,-1.8800761254222793,392.6025687134074,0.5031038935230367,180.1551945928977,-2.22867274284,-3.00399708748,-177.343322754,0
34.9,15.523949603532918,-1.6986933242890638,392.5318685121042,0.49809441261588105,180.0,-2.22867274284,-3.00399708748,-177.343322754,0
35.0,15.567297763655134,-1.358819528553869,392.4763733820951,0.49531940470973723,180.0,-1.9363866837829535,-2.6223588546854883,-178.06858140856522,0
35.1,15.610645923777351,-1.018945732818674,392.420878252086,0.4925443968035934,180.0,-1.55475175381,-2.13986849785,-179.03956604,0
35.2,15.651160375091962,-0.6797006464181852,392.3669419869904,0.4901908256133097,180.05724487748734,-1.55475175381,-2.13986849785,-179.03956604,0
35.300000000000004,15.66041113456461,-0.34739197311902503,392.3302043388269,0.49248687388293055,180.7460600152966,-1.55475175381,-2.13986849785,-179.03956604,0
35.4,15.669661894037255,-0.01508329981988843,392.2934666906634,0.49478292215255126,181.43487515310582,-0.971905827522,2.86938762665,-179.088577271,0
35.5,15.678912653509903,0.3172253734792717,392.2567290424999,0.49707897042217214,182.12369029091508,-0.971905827522,2.86938762665,-179.088577271,0
35.6,15.688163412982549,0.649534046778432,392.21999139433643,0.499375018691793,182.81250542872434,-0.971905827522,2.86938762665,-179.088577271,0
35.7,15.697244154437751,0.6044987215218083,392.15874762973215,0.5029281647354144,183.29281675278614,-0.971905827522,2.86938762665,-179.088577271,0
35.800000000000004,15.706261308924018,0.4183362294268728,392.0883385443682,0.5069514670501368,183.69514736794096,-0.685026705265,11.2516345978,-176.956893921,0
35.9,15.715278463410286,0.23217373733195068,392.0179294590042,0.5109747693648591,184.09747798309579,-0.685026705265,11.2516345978,-176.956893921,0
36.0,15.724295617896553,0.046011245237015275,391.9475203736402,0.5149980716795817,184.49980859825064,-0.685026705265,11.2516345978,-176.956893921,0
36.1,15.733312772382822,-0.14015124685792013,391.87711128827624,0.5190213739943041,184.9021392134055,-0.685026705265,11.2516345978,-176.956893921,0
36.2,15.750696641011398,-0.2601419024960283,391.82299414177186,0.5183915323872519,185.96507004413965,-0.685026705265,11.2516345978,-176.956893921,0
36.300000000000004,15.77076968653165,-0.35886402063507294,391.7741134482831,0.5162661063852678,187.24032686141499,0.3131871616150722,17.541038992916953,-174.52638008020676,0
36.4,15.790842732051905,-0.4575861387741106,391.7252327547944,0.5141406803832839,188.51558367869026,0.498770713806,18.7128295898,-174.068511963,0
36.5,15.810915777572157,-0.5563082569131552,391.67635206130564,0.5120152543812998,189.7908404959656,0.498770713806,18.7128295898,-174.068511963,0
36.6,15.831260757337093,-0.6367951139882096,391.63076604936657,0.5096193917742269,191.0634331122751,0.498770713806,18.7128295898,-174.068511963,0
36.7,15.856580400372057,-0.3836929317676129,391.6454517082906,0.5022762631551462,192.28728783349408,0.498770713806,18.7128295898,-174.068511963,0
36.800000000000004,15.881900043407022,-0.1305907495470161,391.66013736721453,0.4949331345360655,193.51114255471302,1.60091602802,25.9324836731,-168.721786499,0
36.9,15.907219686441985,0.12251143267356279,391.67482302613854,0.4875900059169853,194.7349972759319,1.60091602802,25.9324836731,-168.721786499,0
37.0,15.93253932947695,0.37561361489415956,391.6895086850625,0.4802468772979046,195.95885199715084,1.60091602802,25.9324836731,-168.721786499,0
37.1,15.955775869756271,0.5883737736861024,391.70657205269816,0.49104684418839706,197.38085715272143,1.60091602802,25.9324836731,-168.721786499,0
37.2,15.97893993600903,0.7997303776751516,391.7237181441092,0.5024780344702213,198.80975623601782,2.52126741409,28.5120582581,-163.327072144,0
37.300000000000004,16.002104002261788,1.0110869816642007,391.74086423552023,0.5139092247520456,200.2386553193142,2.52126741409,28.5120582581,-163.327072144,0
37.4,16.042830789118117,0.9486793416411521,391.7480916496092,0.519046737531348,201.7625954437326,2.52126741409,28.5120582581,-163.327072144,0
37.5,16.10358782947531,0.5740440387856456,391.7440068287866,0.5170063216358359,203.39492971673621,2.52126741409,28.5120582581,-163.327072144,0
37.6,16.1643448698325,0.19940873593013897,391.739922007964,0.5149659057403239,205.02726398973982,2.47095656395,31.027551651,-158.606399536,0
37.7,16.225101910189693,-0.17522656692536764,391.73583718714144,0.5129254898448119,206.65959826274343,2.47095656395,31.027551651,-158.606399536,0
37.800000000000004,16.285858950546885,-0.5498618697808741,391.73175236631886,0.5108850739492998,208.29193253574704,2.47095656395,31.027551651,-158.606399536,0
37.9,16.354039906832128,-0.6111442545362874,391.7237328852862,0.509999990463,210.2498218742644,2.47095656395,31.027551651,-158.606399536,0
38.0,16.427908217976643,-0.43237149067575487,391.71269911784714,0.509999990463,212.45711425044453,2.393273768551348,31.00730969110911,-156.97892155352093,0
38.1,16.50177652912116,-0.25359872681522233,391.70166535040806,0.509999990463,214.66440662662464,2.06404399872,30.9346885681,-150.000732422,0
38.2,16.575644840265678,-0.0748259629546898,391.69063158296893,0.509999990463,216.87169900280477,2.06404399872,30.9346885681,-150.000732422,0
38.300000000000004,16.649243055269583,0.10204932823446947,391.679524887869,0.5101169124067859,219.0584610276414,2.06404399872,30.9346885681,-150.000732422,0
38.400000000000006,16.715563945927638,0.22780014191063286,391.6664532693132,0.5133841159730911,220.6920643685981,2.06404399872,30.9346885681,-150.000732422,0
38.5,16.781884836585686,0.3535509555867873,391.65338165075747,0.5166513195393959,222.32566770955466,1.0632964595288232,33.0347709656,-141.40836765532293,0
38.6,16.848205727243737,0.47930176926295065,391.6403100322017,0.519918523105701,223.95927105051138,0.983135640621,33.0347709656,-140.697677612,0
38.7,16.927025514596075,0.31795480787514174,391.63795781185087,0.515938918977752,226.0305329110417,0.983135640621,33.0347709656,-140.697677612,0
38.800000000000004,17.00616489207733,0.14926690934783826,391.6358796808007,0.5117740178382408,228.1129854667282,1.8611608664570924,36.011490843144394,-135.6774726266681,0
38.900000000000006,17.085304269558584,-0.019420989179465165,391.6338015497506,0.5076091166987295,230.19543802241466,1.98427712917,36.4288787842,-134.971694946,0
39.0,17.164443647039832,-0.18810888770675666,391.63172341870046,0.5034442155592187,232.27789057810102,1.98427712917,36.4288787842,-134.971694946,0
39.1,17.239041907449927,-0.2850469184690349,391.6414558328766,0.4960167220100571,234.34853676699046,1.98427712917,36.4288787842,-134.971694946,0
39.2,17.291937796534125,-0.039086440247868726,391.70763181237965,0.47299703146405103,236.36275935960975,1.98427712917,36.4288787842,-134.971694946,0
39.300000000000004,17.344833685618326,0.2068740379732975,391.77380779188263,0.4499773409180449,238.37698195222902,4.23986005783,37.0870513916,-125.631889343,0
39.400000000000006,17.397729574702524,0.4528345161944637,391.8399837713856,0.42695765037203887,240.39120454484828,4.23986005783,37.0870513916,-125.631889343,0
39.5,17.422783225129365,0.8505266597583654,391.94857951795314,0.4183283965933771,242.5044326990381,4.23986005783,37.0870513916,-125.631889343,0
39.6,17.43577632264388,1.3139451194013578,392.0755504336838,0.41593271570373264,244.66054755600481,4.30523704275539,36.426383092609015,-123.37942277719148,0
39.7,17.448769420158396,1.7773635790443505,392.2025213494145,0.4135370348140882,246.81666241297157,4.44552612305,35.0577354431,-118.501060486,0
39.800000000000004,17.46176251767291,2.240782038687343,392.3294922651451,0.41114135392444373,248.9727772699383,4.44552612305,35.0577354431,-118.501060486,0
39.900000000000006,17.4508270984211,2.3759831748611706,392.47565313014263,0.40895526285953865,250.83578764857617,4.44552612305,35.0577354431,-118.501060486,0
40.0,17.41811819370225,2.21252663858593,392.6392756742553,0.4069598857050514,252.43209089440074,4.543412120732804,34.91068231067543,-116.98902759973575,0
