t_sec,airspeed,climb,altitude,throttle,heading,pitch,roll,yaw,is_boundary
0.0,21.2795162201,-0.0815057829022,390.690002441,0.430000007153,120.0,0.862144172192,-12.4737987518,127.986785889,0
0.1,21.165729179894704,1.6170326443373573,390.8916901009799,0.4169032158742183,120.0,0.7424099057955738,-14.303463549789385,124.61411567159323,0
0.2,21.05194213968941,3.3155710715769144,391.09337776095975,0.4038064245954366,120.0,0.595242142677,-16.411151886,120.483222961,0
0.30000000000000004,20.938155099484113,5.014109498816472,391.2950654209397,0.39070963331665487,120.0,0.595242142677,-16.411151886,120.483222961,0
0.4,20.8107691625824,6.315024304885798,391.49650554860057,0.3818257273895306,120.0,0.595242142677,-16.411151886,120.483222961,0
0.5,20.622373625489328,5.832054822707471,391.69683515618374,0.39184235852027105,120.0,1.15334117413,-8.2811384201,120.816223145,0
0.6000000000000001,20.433978088396252,5.349085340529145,391.8971647637669,0.4018589896510115,120.0,1.15334117413,-8.2811384201,120.816223145,0
0.7000000000000001,20.245582551303176,4.8661158583508195,392.09749437135,0.411875620781752,120.0,1.15334117413,-8.2811384201,120.816223145,0
0.8,20.068846309180387,4.342663851214919,392.3077259715282,0.4259681924439379,119.75132484010216,1.15334117413,-8.2811384201,120.816223145,0
0.9,19.942168795402498,3.6454017016363163,392.56047139082244,0.4575606558520303,118.43497257732842,2.71812367439,-10.6005496979,120.567222595,0
1.0,19.815491281624606,2.9481395520577136,392.81321681011667,0.4891531192601227,117.11862031455469,2.71812367439,-10.6005496979,120.567222595,0
1.1,19.688813767846714,2.2508774024791105,393.0659622294109,0.5207455826682152,115.80226805178096,2.71812367439,-10.6005496979,120.567222595,0
1.2000000000000002,19.60964980730548,1.8067105841190625,393.30574869230975,0.53858269500124,114.71653528310343,2.71812367439,-10.6005496979,120.567222595,0
1.3,19.6046344103133,1.7575185460570628,393.52531170450123,0.5349535213200601,113.99070201780486,2.85801529884,-32.1873893738,115.892166138,0
1.4000000000000001,19.599619013321117,1.7083265079950631,393.7448747166927,0.5313243476388804,113.2648687525063,2.85801529884,-32.1873893738,115.892166138,0
1.5,19.594603616328932,1.6591344699330635,393.9644377288842,0.5276951739577005,112.53903548720774,2.85801529884,-32.1873893738,115.892166138,0
1.6,19.58958821933675,1.6099424318710638,394.1840007410757,0.5240660002765206,111.81320222190918,2.85801529884,-32.1873893738,115.892166138,0
1.7000000000000002,19.58457282234457,1.560750393809064,394.4035637532672,0.5204368265953409,111.08736895661062,2.85801529884,-32.1873893738,115.892166138,0
1.8,19.631579901127274,1.637454147963227,394.5554720662524,0.512725840627118,109.36331809111472,3.751742026357299,-35.523733694110895,113.9147747048196,0
1.9000000000000001,19.685705857765644,1.7313857782224724,394.6981223511864,0.5044562898718796,107.50266878305465,4.64394903183,-38.8262825012,111.964393616,0
2.0,19.739831814404013,1.8253174084817174,394.84077263612045,0.4961867391166413,105.64201947499456,4.64394903183,-38.8262825012,111.964393616,0
2.1,19.793957771042386,1.9192490387409626,394.9834229210545,0.4879171883614029,103.78137016693448,4.64394903183,-38.8262825012,111.964393616,0
2.2,19.84981357234645,1.9721073004588798,395.1226983326895,0.4798498046539616,101.93992609589216,4.64394903183,-38.8262825012,111.964393616,0
2.3000000000000003,19.944538282131948,1.1020636192924567,395.1861417092304,0.4763250325662946,100.53001591619403,0.456797301769,-40.1943397522,102.311317444,0
2.4000000000000004,20.039262991917447,0.23201993812603328,395.2495850857713,0.4728002604786276,99.1201057364959,0.456797301769,-40.1943397522,102.311317444,0
2.5,20.138619560591586,-0.4297916947006826,395.29570340325415,0.47053563692233524,97.62505296237835,0.456797301769,-40.1943397522,102.311317444,0
2.6,20.255878448686634,-0.2867781520043279,395.2748596761887,0.47314153772113215,95.80092066354553,-0.545438170433,-41.3327941895,98.3810424805,0
2.7,20.373137336781685,-0.1437646093079732,395.2540159491233,0.47574743851992907,93.97678836471272,-0.545438170433,-41.3327941895,98.3810424805,0
2.8000000000000003,20.490396224876733,-0.0007510666116185005,395.2331722220578,0.478353339318726,92.1526560658799,-0.545438170433,-41.3327941895,98.3810424805,0
2.9000000000000004,20.616131539746146,-0.016451867599751188,395.180891333927,0.479999989271,90.28894796800331,-0.6039399412543055,-41.404492637646406,98.20012428151894,0
3.0,20.756417488366942,-0.304601702540359,395.07464541677837,0.479999989271,88.35730405558684,-2.29300427437,-43.0525283813,91.1814651489,0
3.1,20.89670343698774,-0.5927515374809682,394.9683994996297,0.479999989271,86.42566014317036,-2.29300427437,-43.0525283813,91.1814651489,0
3.2,21.04323475631347,-0.8233271357473402,394.8470787746879,0.4813001450670666,84.47993796056065,-2.29300427437,-43.0525283813,91.1814651489,0
3.3000000000000003,21.207363035531053,-0.8916815334755787,394.6832832631166,0.48626362054061173,82.4945488362046,-3.45828008652,-42.1385650635,85.2251968384,0
3.4000000000000004,21.371491314748635,-0.960035931203817,394.51948775154534,0.4912270960141568,80.50915971184855,-3.45828008652,-42.1385650635,85.2251968384,0
3.5,21.535619593966214,-1.028390328932055,394.35569223997413,0.49619057148770185,78.52377058749252,-3.45828008652,-42.1385650635,85.2251968384,0
3.6,21.705309048965173,-1.1757604835555175,394.1804727086248,0.5020628428170177,76.3811474868781,-3.45828008652,-42.1385650635,85.2251968384,0
3.7,21.89335555726861,-1.5839561395192803,393.9675432849323,0.5109349858682704,73.71950599933992,-3.9021519838195666,-41.81007132844896,80.1000867913546,0
3.8000000000000003,22.081402065572043,-1.9921517954830432,393.75461386123976,0.5198071289195229,71.05786451180171,-4.14693403244,-41.6406669617,77.1330947876,0
3.9000000000000004,22.269448573875476,-2.400347451446806,393.54168443754725,0.5286792719707755,68.39622302426352,-4.14693403244,-41.6406669617,77.1330947876,0
4.0,22.45749508217891,-2.808543107410567,393.32875501385473,0.537551415022028,65.73458153672533,-4.14693403244,-41.6406669617,77.1330947876,0
4.1000000000000005,22.693469707419684,-3.2867942004671242,393.1312089604176,0.5472094708765252,62.837163111798986,-4.609552023638734,-41.885359077579544,72.86454317784079,0
4.2,22.9477141896918,-3.7917499274993247,392.93952693822524,0.5571671110976092,59.84986819656528,-5.48341655731,-42.3445625305,64.8349151611,0
4.3,23.20195867196392,-4.296705654531526,392.74784491603293,0.5671247513186933,56.862573281331585,-5.48341655731,-42.3445625305,64.8349151611,0
4.4,23.456203154236036,-4.801661381563731,392.5561628938406,0.5770823915397775,53.87527836609785,-5.48341655731,-42.3445625305,64.8349151611,0
4.5,23.683396543177945,-4.251176798139608,392.3914378746902,0.5820483280633965,51.15648796468577,-5.558835584349977,-43.754832191357714,59.2350945067112,0
4.6000000000000005,23.899379207099297,-3.263288411782205,392.2378845869294,0.5849455638194246,48.548973297473694,-5.63301372528,-45.1357307434,53.7473831177,0
4.7,24.11536187102065,-2.2754000254248115,392.08433129916864,0.5878427995754527,45.94145863026164,-5.63301372528,-45.1357307434,53.7473831177,0
4.800000000000001,24.32514472521229,-1.5166736977795119,391.93662303506335,0.5908557968344973,43.14418122441624,-5.63301372528,-45.1357307434,53.7473831177,0
4.9,24.51685601569461,-1.4259221829625304,391.8059521837137,0.5942062224128046,39.79377242093569,-4.87041139603,-43.7418060303,44.3668632507,0
5.0,24.708567306176928,-1.3351706681455486,391.67528133236414,0.597556647991112,36.443363617455134,-4.87041139603,-43.7418060303,44.3668632507,0
5.1000000000000005,24.88291906285928,-1.2315010465586902,391.55816000887086,0.600000023842,33.251673741388025,-4.87041139603,-43.7418060303,44.3668632507,0
5.2,25.010508371588312,-1.0930331232177342,391.4775378850956,0.600000023842,30.48753483920671,-4.37840890884,-43.5607261658,34.8372268677,0
5.300000000000001,25.138097680317344,-0.954565199876777,391.3969157613204,0.600000023842,27.72339593702537,-4.37840890884,-43.5607261658,34.8372268677,0
5.4,25.265686989046376,-0.8160972765358212,391.3162936375451,0.600000023842,24.959257034844054,-4.37840890884,-43.5607261658,34.8372268677,0
5.5,25.393276297775408,-0.6776293531948653,391.23567151376983,0.600000023842,22.19511813266274,-4.37840890884,-43.5607261658,34.8372268677,0
5.6000000000000005,25.43758895101092,-0.5851393668667759,391.20728686178535,0.600000023842,19.206389772055594,-3.2713745114572372,-43.17436397239982,26.694126630938744,0
5.7,25.475576709676844,-0.4961414228452652,391.18286966622304,0.600000023842,16.20060375420268,-2.68603897095,-42.9701766968,22.3727359772,0
5.800000000000001,25.513564468342764,-0.40714347882375357,391.1584524706608,0.600000023842,13.194817736349739,-2.68603897095,-42.9701766968,22.3727359772,0
5.9,25.551552227008685,-0.3181455348022428,391.13403527509854,0.600000023842,10.189031718496826,-2.68603897095,-42.9701766968,22.3727359772,0
6.0,25.58953998567461,-0.229147590780732,391.10961807953623,0.600000023842,7.183245700643912,-2.68603897095,-42.9701766968,22.3727359772,0
6.1000000000000005,25.572553474633438,-0.22281525858131662,391.1132341904337,0.6013231542660965,52.04498267165911,-2.0455989247434734,-42.494630431525295,17.028295697201997,0
6.2,25.519876083306798,-0.27015182404962546,391.1350503318215,0.6035052990949338,127.98369513794647,-0.839046001434,-41.6016807556,6.99976348877,0
6.300000000000001,25.46719869198016,-0.31748838951793473,391.15686647320933,0.605687443923771,203.9224076042345,-0.839046001434,-41.6016807556,6.99976348877,0
6.4,25.41452130065352,-0.36482495498624357,391.17868261459716,0.6078695887526083,279.86112007052185,-0.839046001434,-41.6016807556,6.99976348877,0
6.5,25.361139692001522,-0.4120404164208586,391.2002373541738,0.610000014305,353.931819847668,-0.839046001434,-41.6016807556,6.99976348877,0
6.6000000000000005,25.27874989360905,-0.45426734851767164,391.2110244044808,0.610000014305,351.05515611481474,-0.08268644489258303,-43.732860411773565,-4.135775619833245,0
6.7,25.196360095216576,-0.4964942806144843,391.2218114547877,0.610000014305,348.1784923819616,0.0280707962811,-44.0423469543,-5.77115631104,0
6.800000000000001,25.109721759361076,-0.49561089262313335,391.23789045106673,0.6092090651243304,345.2881450585013,0.0280707962811,-44.0423469543,-5.77115631104,0
6.9,25.009826783160968,-0.36021109433215476,391.270481817799,0.6059501304521238,342.3551010562713,0.658672809601,-43.6060028076,-13.6359357834,0
7.0,24.90993180696086,-0.22481129604117617,391.3030731845313,0.6026911957799171,339.4220570540412,0.658672809601,-43.6060028076,-13.6359357834,0
7.1000000000000005,24.799546018142614,-0.10454316855195704,391.33746372429636,0.5995846075095607,336.4599614716937,0.658672809601,-43.6060028076,-13.6359357834,0
7.2,24.639434210304813,-0.05599853641763182,391.3803822700134,0.5972001348990401,333.36016259809,0.218414396048,-42.7760925293,-22.8474884033,0
7.300000000000001,24.47932240246701,-0.0074539042833061675,391.4233008157305,0.5948156622885196,330.26036372448635,0.218414396048,-42.7760925293,-22.8474884033,0
7.4,24.319210594629208,0.04109072785101907,391.46621936144754,0.5924311896779991,327.1605648508827,0.218414396048,-42.7760925293,-22.8474884033,0
7.5,24.159098786791407,0.08963535998534429,391.5091379071646,0.5900467170674786,324.06076597727906,0.218414396048,-42.7760925293,-22.8474884033,0
7.6000000000000005,23.998494600647245,0.11621174380572317,391.5380524105677,0.5813624102772437,321.62466777309703,0.398142835342418,-42.28979512775677,-31.411927455545296,0
7.7,23.837880569315487,0.14234886878177674,391.5666869007738,0.5725521372360054,319.2018403761666,0.490900427103,-42.0464897156,-35.9374198914,0
7.800000000000001,23.67726653798373,0.16848599375783055,391.5953213909799,0.563741864194767,316.77901297923614,0.490900427103,-42.0464897156,-35.9374198914,0
7.9,23.516652506651976,0.19462311873388413,391.623955881186,0.5549315911535287,314.35618558230567,0.490900427103,-42.0464897156,-35.9374198914,0
8.0,23.35232760443801,0.37473816965084705,391.64706836636697,0.5485836848578225,312.15020295164203,0.490900427103,-42.0464897156,-35.9374198914,0
8.1,23.18328450205671,0.7506290098639139,391.6631598783423,0.5453665636418427,310.2199283811513,0.962699711323,-35.9689750671,-46.6851882935,0
8.200000000000001,23.01424139967541,1.1265198500769873,391.67925139031763,0.5421494424258628,308.2896538106605,0.962699711323,-35.9689750671,-46.6851882935,0
8.3,22.842285659213637,1.2781978941800478,391.6974505072786,0.5372065248643924,306.5344177154228,0.962699711323,-35.9689750671,-46.6851882935,0
8.4,22.66446639537721,0.9785061029084952,391.71989251015816,0.5287893523724759,305.1315570828256,1.63613033295,-33.1395568848,-52.4012641907,0
8.5,22.486647131540785,0.6788143116369426,391.74233451303775,0.5203721798805596,303.72869645022837,1.63613033295,-33.1395568848,-52.4012641907,0
8.6,22.30882786770436,0.37912252036538996,391.7647765159174,0.5119550073886433,302.3258358176312,1.63613033295,-33.1395568848,-52.4012641907,0
8.700000000000001,22.147805316413475,0.5375877579313736,391.81085332256356,0.5059138129037163,300.97845463593126,1.978791772513847,-29.60894848027658,-54.511271325080266,0
8.8,21.991864329158762,0.8346607304541867,391.86408044320706,0.500591430767236,299.647857832821,2.54955005646,-23.8399620056,-57.9712371826,0
8.9,21.83592334190405,1.1317337029769996,391.9173075638505,0.49526904863075566,298.3172610297108,2.54955005646,-23.8399620056,-57.9712371826,0
9.0,21.680403636847572,1.422674414067253,391.9709561362262,0.4899522630214661,296.99283802651195,2.54955005646,-23.8399620056,-57.9712371826,0
9.1,21.56649671311394,1.1078917998484112,392.06623423590065,0.48518828278380804,296.2782413742086,2.717935496374613,-13.515016883321014,-62.560595639535144,0
9.200000000000001,21.4525897893803,0.7931091856295641,392.1615123355751,0.4804243025461499,295.5636447219053,2.73218655586,-12.6963863373,-62.9409370422,0
9.3,21.338682865646668,0.47832657141072255,392.2567904352495,0.4756603223084918,294.8490480696019,2.73218655586,-12.6963863373,-62.9409370422,0
9.4,21.224775941913034,0.16354395719188086,392.352068534924,0.4708963420708337,294.1344514172986,2.73218655586,-12.6963863373,-62.9409370422,0
9.5,21.15100359356417,0.3027545411694593,392.4570831786442,0.467875920740903,294.0,2.6600168445498404,-9.58048766553837,-63.67981815774196,0
9.600000000000001,21.08653262393492,0.5471802079545967,392.56435431275264,0.46525957747995034,294.0,2.48416113853,-2.05958032608,-65.4942626953,0
9.700000000000001,21.022061654305674,0.7916058747397297,392.6716254468611,0.4626432342189977,294.0,2.48416113853,-2.05958032608,-65.4942626953,0
9.8,20.957590684676425,1.0360315415248627,392.77889658096956,0.4600268909580451,294.0,2.48416113853,-2.05958032608,-65.4942626953,0
9.9,20.921938328556127,1.0718558100858542,392.8951695822025,0.4540935698091231,294.0,1.9837718275556457,5.45250564752585,-65.1923050835051,0
10.0,20.88658515428904,1.1055144729738429,393.01153603676175,0.44812581329115486,294.0,1.96070694923,5.79726362228,-65.1706008911,0
10.100000000000001,20.851231980021954,1.1391731358618322,393.1279024913209,0.44215805677318654,294.0,1.96070694923,5.79726362228,-65.1706008911,0
10.200000000000001,20.82578216465106,1.1650779833156757,393.23365023513804,0.4385530223644738,294.1446976631508,1.6025275983793692,7.193832501911741,-65.22927992578414,0
10.3,20.80594225272626,1.186590567863534,393.3333828539244,0.43628638667904435,294.37136144786297,1.22209107876,8.67737293243,-65.2913894653,0
10.4,20.78610234080146,1.208103152411392,393.4331154727107,0.4340197509936149,294.5980252325752,1.22209107876,8.67737293243,-65.2913894653,0
10.5,20.76626242887666,1.2296157369592504,393.53284809149704,0.43175311530818544,294.82468901728737,1.22209107876,8.67737293243,-65.2913894653,0
10.600000000000001,20.75111503045633,1.252519412866267,393.6228673538943,0.42932201438968914,295.06779913892933,1.22209107876,8.67737293243,-65.2913894653,0
10.700000000000001,20.751987189330414,1.2801720719586405,393.67972663304425,0.42632945313196463,295.3670546582306,-0.241855084896,9.47748565674,-65.0030212402,0
10.8,20.7528593482045,1.3078247310510143,393.7365859121942,0.4233368918742401,295.6663101775318,-0.241855084896,9.47748565674,-65.0030212402,0
10.9,20.753731507078584,1.3354773901433878,393.7934451913442,0.42034433061651566,295.965565696833,-0.241855084896,9.47748565674,-65.0030212402,0
11.0,20.76606046223042,0.8762535382759291,393.8057249099185,0.419999986887,296.0,-1.0117114166746992,10.125715607214968,-64.28195121857588,0
11.100000000000001,20.779879127316036,0.3537218682962314,393.81220801549364,0.419999986887,296.0,-1.83537173271,10.8187637329,-63.5155487061,0
11.200000000000001,20.793697792401648,-0.16880980168345716,393.8186911210688,0.419999986887,296.0,-1.83537173271,10.8187637329,-63.5155487061,0
11.3,20.815696019089692,-0.44360394884333654,393.8051278076233,0.42212197988814426,296.4243977401444,-2.812053847994686,10.712008371255287,-63.338221577770085,0
11.4,20.839717624299386,-0.6571152538358077,393.7866056106027,0.42476889039346516,296.953778768365,-2.91394996643,10.7012271881,-63.3201293945,0
11.5,20.863739229509083,-0.8706265588282789,393.7680834135821,0.427415800898786,297.48315979658554,-2.91394996643,10.7012271881,-63.3201293945,0
11.600000000000001,20.888038399311256,-1.0733728378517535,393.7495229348852,0.430000007153,298.01362900586776,-2.91394996643,10.7012271881,-63.3201293945,0
11.700000000000001,20.923776732219242,-0.8324642299292044,393.72938476814574,0.430000007153,298.58894500393285,-3.4117921644340363,10.17258273587675,-62.50106658919734,0
11.8,20.959515065127224,-0.5915556220066553,393.7092466014063,0.430000007153,299.16426100199794,-4.07901906967,9.46855163574,-61.4054489136,0
11.9,20.995253398035207,-0.35064701408410615,393.6891084346668,0.430000007153,299.73957700006304,-4.07901906967,9.46855163574,-61.4054489136,0
12.0,21.038285374145893,-0.3757322121410124,393.6764867477876,0.43116869630261767,300.35060707925925,-4.07901906967,9.46855163574,-61.4054489136,0
12.100000000000001,21.087349343519715,-0.6207997703316436,393.6700813446804,0.43330391546765773,300.9911734396794,-4.4867105484,12.5576629639,-59.0954437256,0
12.200000000000001,21.136413312893538,-0.8658673285222704,393.6636759415732,0.43543913463269773,301.6317398000996,-4.4867105484,12.5576629639,-59.0954437256,0
12.3,21.18547728226736,-1.1109348867128972,393.657270538466,0.4375743537977378,302.2723061605197,-4.4867105484,12.5576629639,-59.0954437256,0
12.4,21.234541251641183,-1.356002444903524,393.6508651353588,0.4397095729627778,302.91287252093986,-4.4867105484,12.5576629639,-59.0954437256,0
12.5,21.27739755327332,-1.363796170224794,393.6335756744112,0.44234521022986223,303.9380859401974,-4.366682750310864,16.73331071358791,-57.752749830326046,0
12.600000000000001,21.319276586304735,-1.3342360492567609,393.6145727441836,0.44505962795342646,305.0238540651202,-4.29933023453,19.0541324615,-56.9946174622,0
12.700000000000001,21.361155619336145,-1.3046759282887281,393.595569813956,0.4477740456769907,306.10962219004296,-4.29933023453,19.0541324615,-56.9946174622,0
12.8,21.406022554082234,-1.1920618686182942,393.57551185273036,0.45089487779789783,307.26846677165037,-4.29933023453,19.0541324615,-56.9946174622,0
12.9,21.464505114482787,-0.7009777498606072,393.5506462008592,0.4558677073481796,308.760314836433,-4.7816631687578095,21.141286942731586,-53.82017156049643,0
13.0,21.522987674883336,-0.20989363110292025,393.52578054898805,0.4608405368984614,310.2521629012156,-5.03532791138,22.2238330841,-52.15858078,0
13.100000000000001,21.581470235283888,0.2811904876547755,393.50091489711684,0.4658133664487432,311.7440109659983,-5.03532791138,22.2238330841,-52.15858078,0
13.200000000000001,21.640680708677408,0.6026543554672317,393.472364047576,0.4712025762559206,313.2004295666897,-5.03532791138,22.2238330841,-52.15858078,0
13.3,21.703767441266304,0.020861839894892986,393.4241889002248,0.4788090810078966,314.4681803083137,-5.05122375488,32.0901565552,-46.8928489685,0
13.4,21.766854173855197,-0.5609306756774459,393.37601375287363,0.48641558575987265,315.7359310499378,-5.05122375488,32.0901565552,-46.8928489685,0
13.5,21.82994090644409,-1.1427231912497846,393.32783860552246,0.49402209051184864,317.0036817915618,-5.05122375488,32.0901565552,-46.8928489685,0
13.600000000000001,21.894165352275664,-1.5683071104244841,393.2823138891369,0.5004508765354002,318.45087696540156,-5.05122375488,32.0901565552,-46.8928489685,0
13.700000000000001,21.962565879752116,-1.4205129342071698,393.2465178246571,0.5025567370799173,320.55673951827976,-3.4756916801777904,35.80226712416974,-41.43604920168794,0
13.8,22.030966407228565,-1.2727187579898556,393.21072176017725,0.5046625976244343,322.66260207115795,-3.43619728088,35.8638496399,-41.2236022949,0
13.9,22.099366934705017,-1.1249245817725415,393.1749256956974,0.5067684581689514,324.76846462403614,-3.43619728088,35.8638496399,-41.2236022949,0
14.0,22.16776746218147,-0.9771304055552272,393.1391296312176,0.5088743187134686,326.87432717691433,-3.43619728088,35.8638496399,-41.2236022949,0
14.100000000000001,22.223139604742798,-0.8413243124895563,393.1100753541035,0.5122044698133651,328.992016653701,-3.43619728088,35.8638496399,-41.2236022949,0
14.200000000000001,22.26354964519074,-0.719285614648029,393.0887635033647,0.5169406248366477,331.12328844666547,-3.15671110153,37.2390670776,-31.8980941772,0
14.3,22.303959685638677,-0.5972469168065017,393.06745165262583,0.5216767798599302,333.25456023963,-3.15671110153,37.2390670776,-31.8980941772,0
14.4,22.34436972608662,-0.47520821896497434,393.046139801887,0.5264129348832128,335.38583203259446,-3.15671110153,37.2390670776,-31.8980941772,0
14.5,22.380959201350176,-0.2747539972650274,393.01183431151685,0.5307567625539993,337.52975116244136,-3.15671110153,37.2390670776,-31.8980941772,0
14.600000000000001,22.405622572738274,0.17047858518821413,392.93696846201516,0.5338759188651189,339.7131496483855,-3.65986943245,40.9249610901,-22.4834213257,0
14.700000000000001,22.43028594412637,0.6157111676414478,392.8621026125134,0.5369950751762383,341.8965481343297,-3.65986943245,40.9249610901,-22.4834213257,0
14.8,22.454461152714064,1.0315587416823158,392.7870606163494,0.5403241910791109,344.08644531473914,-3.65986943245,40.9249610901,-22.4834213257,0
14.9,22.465792454332984,0.6742660559344624,392.70738407748377,0.5491774916626573,346.4473277219251,-3.11744999886,41.4164733887,-15.247838974,0
15.0,22.477123755951908,0.316973370186609,392.6277075386181,0.5580307922462037,348.808210129111,-3.11744999886,41.4164733887,-15.247838974,0
15.100000000000001,22.48845505757083,-0.0403193155612509,392.5480309997524,0.5668840928297503,351.16909253629694,-3.11744999886,41.4164733887,-15.247838974,0
15.200000000000001,22.49309890770784,-0.5482329238716735,392.4676365570216,0.5716887934693002,293.0608020773001,-3.0004067933174774,41.570416618189725,-14.36500646797526,0
15.3,22.494110898791764,-1.1379465964773823,392.3868522309908,0.5742947575051277,202.11257049869045,-2.38139224052,42.3817367554,-7.38243913651,0
15.4,22.495122889875688,-1.727660269083091,392.3060679049601,0.5769007215409551,111.16433892008081,-2.38139224052,42.3817367554,-7.38243913651,0
15.5,22.496134880959612,-2.3173739416887997,392.22528357892935,0.5795066855767825,20.216107341471172,-2.38139224052,42.3817367554,-7.38243913651,0
15.600000000000001,22.47891015252095,-2.359784153441841,392.1594450710656,0.5814866562565287,5.378678981392142,-2.5751033800437995,42.36127341951272,-5.71512321059042,0
15.700000000000001,22.457427235075723,-2.274401558085548,392.0970963420808,0.5833204604054061,8.312768417836878,-3.48091506958,42.265712738,4.57741498947,0
15.8,22.435944317630497,-2.1890189627292553,392.0347476130961,0.5851542645542833,11.246857854281616,-3.48091506958,42.265712738,4.57741498947,0
15.9,22.41446140018527,-2.103636367372963,391.9723988841114,0.5869880687031606,14.180947290726355,-3.48091506958,42.265712738,4.57741498947,0
16.0,22.39297848274004,-2.0182537720166702,391.9100501551266,0.5888218728520379,17.115036727171095,-3.48091506958,42.265712738,4.57741498947,0
16.1,22.347743589565972,-1.7815444601519812,391.8665002098668,0.5917470576610977,20.13560222525882,-3.48091506958,42.265712738,4.57741498947,0
16.2,22.259833560208396,-1.272946682716116,391.85672600876836,0.5966331243282835,23.31153912273468,-2.44901823997,42.3332099915,19.8338718414,0
16.3,22.171923530850815,-0.7643489052802328,391.8469518076699,0.6015191909954695,26.48747602021065,-2.44901823997,42.3332099915,19.8338718414,0
16.400000000000002,22.08401350149323,-0.2557511278443494,391.83717760657146,0.6064052576626555,29.663412917686625,-2.44901823997,42.3332099915,19.8338718414,0
16.5,21.987559769617928,0.04646175054899812,391.83931579686276,0.6092225480048116,32.777467041658724,-2.41761875704195,42.38674806979141,20.05474841393213,0
16.6,21.86732202709839,-0.22586089888636096,391.8746157742157,0.6062807663248638,35.71925152718631,-0.716214537485897,45.28538620733351,31.68943285519929,0
16.7,21.747084284578854,-0.49818354832171036,391.9099157515687,0.6033389846449163,38.66103601271378,-0.603486299515,45.4775543213,32.4478988647,0
16.8,21.626846542059315,-0.7705061977570693,391.94521572892165,0.6003972029649686,41.602820498241364,-0.603486299515,45.4775543213,32.4478988647,0
16.900000000000002,21.48790638294311,-0.30120510283338586,391.9974125117281,0.5979379023397456,44.680744530978956,0.8877345906102078,44.47175247042406,42.281347119226574,0
17.0,21.34604702161166,0.28385374276504527,392.0522466645052,0.5955539106863067,47.77991816350713,0.951157510281,44.4300231934,42.6694030762,0
17.1,21.20418766028021,0.8689125883634973,392.1070808172823,0.5931699190328675,50.879091796035425,0.951157510281,44.4300231934,42.6694030762,0
17.2,21.06232829894876,1.4539714339619287,392.16191497005934,0.5907859273794285,53.97826542856361,0.951157510281,44.4300231934,42.6694030762,0
17.3,20.883901986654127,1.5191669528335265,392.19262140200516,0.5878951024455455,57.31536066945945,0.8930658442578356,44.45049587355746,43.0198565244024,0
17.400000000000002,20.687491167053913,1.3286811651932608,392.21146123965946,0.5847550046957793,60.76947148838774,-1.32706856728,44.8254547119,55.3620758057,0
17.5,20.49108034745371,1.1381953775530023,392.2303010773137,0.5816149069460133,64.22358230731591,-1.32706856728,44.8254547119,55.3620758057,0
17.6,20.26895500149802,1.0128652591402065,392.2917672972482,0.577274912337386,67.18086521471784,-1.32706856728,44.8254547119,55.3620758057,0
17.7,20.019601946933246,0.9565249230563554,392.3983682670802,0.5716644124282764,69.61208416057117,-1.81999289989,42.680973053,66.3730621338,0
17.8,19.77024889236846,0.9001845869725023,392.50496923691213,0.5660539125191665,72.04330310642459,-1.81999289989,42.680973053,66.3730621338,0
17.900000000000002,19.520895837803675,0.843844250888649,392.61157020674403,0.5604434126100566,74.47452205227802,-1.81999289989,42.680973053,66.3730621338,0
18.0,19.2715427832389,0.787503914804798,392.718171176576,0.5548329127009469,76.90574099813135,-1.81999289989,42.680973053,66.3730621338,0
18.1,19.029975907452155,0.8016296659306055,392.82788715814024,0.550267027419633,79.3738220546002,-1.81999289989,42.680973053,66.3730621338,0
18.2,18.836801356293773,1.2537132221300022,392.95696342711483,0.5521935862011783,82.07100692106884,2.4233716750408574,41.62668373264286,78.99108955239522,0
18.3,18.643626805135387,1.705796778329415,393.0860396960895,0.5541201449827237,84.76819178753757,2.81593585014,41.5352096558,80.2078552246,0
18.400000000000002,18.450452253977,2.1578803345288278,393.2151159650641,0.556046703764269,87.4653766540063,2.81593585014,41.5352096558,80.2078552246,0
18.5,18.25727770281862,2.6099638907282245,393.3441922340387,0.5579732625458144,90.16256152047494,2.81593585014,41.5352096558,80.2078552246,0
18.6,18.064103151660234,3.0620474469276373,393.47326850301334,0.5598998213273597,92.85974638694367,2.81593585014,41.5352096558,80.2078552246,0
18.7,17.93476556709826,2.255949341528556,393.51569561772016,0.5578992792064926,95.31079769906594,0.6395201087,46.4044723511,93.2749099731,0
18.8,17.808929588298955,1.3808370521599254,393.5533698252309,0.5556833264876029,97.7483480145364,0.6395201087,46.4044723511,93.2749099731,0
18.900000000000002,17.683093609499647,0.5057247627912949,393.59104403274165,0.5534673737687131,100.18589833000685,0.6395201087,46.4044723511,93.2749099731,0
19.0,17.557257630700345,-0.36938752657730456,393.6287182402524,0.5512514210498234,102.62344864547723,0.6395201087,46.4044723511,93.2749099731,0
19.1,17.43946892192011,-0.6980455654262638,393.61940756366454,0.5487255307616848,105.27448237478899,0.6395201087,46.4044723511,93.2749099731,0
19.200000000000003,17.332120826988426,-0.31772803839370634,393.5491381979276,0.5457975241695059,108.20249175941045,-1.68995964527,45.3587722778,105.493156433,0
19.3,17.224772732056742,0.06258948863883773,393.47886883219064,0.5428695175773272,111.13050114403183,-1.68995964527,45.3587722778,105.493156433,0
19.400000000000002,17.117121599870387,0.42651545261258256,393.4074336291241,0.5400504132464751,114.05543102018717,-1.68995964527,45.3587722778,105.493156433,0
19.5,16.994608782520725,-0.013440765431033452,393.2788229234512,0.5425721410954452,116.82933429952584,-3.008868747444313,42.11979601277538,113.9226038273319,0
19.6,16.872095965171056,-0.4533969834746651,393.1502122177783,0.5450938689444154,119.6032375788646,-3.12264513969,41.8413276672,114.702865601,0
19.700000000000003,16.74958314782139,-0.8933532015182968,393.02160151210535,0.5476155967933856,122.37714085820335,-3.12264513969,41.8413276672,114.702865601,0
19.8,16.627119356123874,-1.3243838802735486,392.89396535810545,0.5502232873566261,125.13396538913845,-3.12264513969,41.8413276672,114.702865601,0
19.900000000000002,16.505506887635633,-1.6004238874349435,392.7832521499827,0.5543237077579592,127.59421997628316,-2.34205102921,42.3820838928,125.804977417,0
20.0,16.383894419147396,-1.8764638945963288,392.6725389418599,0.5584241281592923,130.0544745634278,-2.34205102921,42.3820838928,125.804977417,0
20.1,16.262281950659155,-2.152503901757724,392.5618257337371,0.5625245485606255,132.5147291505725,-2.34205102921,42.3820838928,125.804977417,0
20.200000000000003,16.140669482170914,-2.4285439089191185,392.45111252561435,0.5666249689619587,134.9749837377172,-2.34205102921,42.3820838928,125.804977417,0
20.3,16.026751024358152,-2.555708766245681,392.34810684581066,0.5690861895375257,137.4112118814362,-2.34205102921,42.3820838928,125.804977417,0
20.400000000000002,15.9486301878715,-1.9902080602604357,392.28096168034267,0.5639207694551012,139.73565313534687,0.137417003512,40.2438011169,137.753967285,0
20.5,15.870509351384849,-1.4247073542752098,392.2138165148746,0.5587553493726768,142.06009438925747,0.137417003512,40.2438011169,137.753967285,0
20.6,15.792388514898194,-0.8592066482899641,392.14667134940663,0.5535899292902522,144.38453564316814,0.137417003512,40.2438011169,137.753967285,0
20.700000000000003,15.713342105652016,-0.455350699807787,392.09398789212634,0.550000011921,146.60160086909303,0.137417003512,40.2438011169,137.753967285,0
20.8,15.632186699894351,-0.4198161244068411,392.074256670966,0.550000011921,148.57400065288013,1.03767108917,34.3079566956,146.346420288,0
20.900000000000002,15.551031294136685,-0.3842815490058939,392.0545254498057,0.550000011921,150.54640043666728,1.03767108917,34.3079566956,146.346420288,0
21.0,15.454164420170486,-0.4181396493304752,392.069737217458,0.5401274034307213,152.2340753992651,1.5795136999438086,32.765211257558164,149.04076549540568,0
21.1,15.35260521404451,-0.47272232355469307,392.0953849359704,0.5273062762084619,153.83671544231126,1.99893975258,31.5820636749,151.27532959,0
21.200000000000003,15.251046007918537,-0.5273049977789109,392.1210326544828,0.5144851489862027,155.43935548535742,1.99893975258,31.5820636749,151.27532959,0
21.3,15.148616520321266,-0.21020286006106587,392.19922470187805,0.5062583328203608,156.56124918165924,2.4585538256119266,28.873256234480017,152.62370075386204,0
21.400000000000002,15.04571877876341,0.3068838700192468,392.30568816595485,0.5005034805182104,157.42447785024297,3.72162699699,21.4356517792,156.344116211,0
21.5,14.94282103720556,0.8239706000995412,392.41215163003164,0.49474862821606025,158.28770651882667,3.72162699699,21.4356517792,156.344116211,0
21.6,14.838872692332773,1.262528419724174,392.52866250523607,0.4887889031424203,159.08074042309724,3.72162699699,21.4356517792,156.344116211,0
21.700000000000003,14.729966339288637,1.3304925298174965,392.69258913266935,0.48186234228909447,159.5425111283046,4.77444553375,12.2454051971,159.50769043,0
21.8,14.621059986244507,1.3984566399108167,392.85651576010264,0.4749357814357689,160.00428183351195,4.77444553375,12.2454051971,159.50769043,0
21.900000000000002,14.512153633200372,1.4664207500041393,393.0204423875359,0.4680092205824431,160.4660525387193,4.77444553375,12.2454051971,159.50769043,0
22.0,14.403247280156242,1.5343848600974594,393.18436901496915,0.46108265972911755,160.92782324392664,4.77444553375,12.2454051971,159.50769043,0
22.1,14.311267352509587,1.739280282775306,393.3257571596468,0.460000008345,161.6431326266148,4.821260461328895,13.622014521438855,160.08284815044607,0
22.200000000000003,14.22242323967685,1.9695438046476728,393.46296979139424,0.460000008345,162.40541296283124,4.91868686676,16.4839782715,161.296890259,0
22.3,14.133579126844117,2.1998073265200313,393.6001824231417,0.460000008345,163.16769329904767,4.91868686676,16.4839782715,161.296890259,0
22.400000000000002,14.04473501401138,2.4300708483923983,393.73739505488913,0.460000008345,163.92997363526413,4.91868686676,16.4839782715,161.296890259,0
22.5,13.988925079954852,2.185029495033827,393.839335662264,0.460000008345,164.34362612766694,4.435597557430921,21.166444347767126,162.3996858651761,0
22.6,13.936456785740106,1.8919077059899556,393.93770825595396,0.460000008345,164.72201245829427,3.64331841469,28.7460403442,164.195602417,0
22.700000000000003,13.894586559263738,1.5938951290798318,394.01932024446273,0.4607782577209984,165.38912505910778,3.64331841469,28.7460403442,164.195602417,0
22.8,13.882060618999061,1.28234077432013,394.0545249059324,0.46371135013038023,166.85567266244516,3.05950808525,31.1388225555,165.938339233,0
22.900000000000002,13.869534678734384,0.9707864195604174,394.0897295674021,0.46664444253976217,168.32222026578256,3.05950808525,31.1388225555,165.938339233,0
23.0,13.857008738469707,0.6592320648007157,394.1249342288718,0.46957753494914406,169.78876786911997,3.05950808525,31.1388225555,165.938339233,0
23.1,13.881339802189592,0.4612167772741552,394.0887209909668,0.4786912309807674,171.95552764684462,1.662965192024712,32.486384331603006,168.37452159156857,0
23.200000000000003,13.911872799734343,0.2823067263482741,394.0404902519644,0.48884493815054336,174.24011223666568,0.182589948177,33.9147834778,170.978088379,0
23.3,13.942405797279093,0.10339667542239928,393.992259512962,0.49899864532031896,176.52469682648663,0.182589948177,33.9147834778,170.978088379,0
23.400000000000002,13.972938794823847,-0.07551337550348192,393.9440287739596,0.5091523524900949,178.8092814163077,0.182589948177,33.9147834778,170.978088379,0
23.5,14.035243551289673,-0.270099923523642,393.7959494823089,0.5238130785828956,181.17062835490265,-2.054342079875963,37.13546604169001,176.5823475041256,0
23.6,14.100442220185954,-0.4661143562863512,393.6387755425341,0.5388843239081396,183.53896714798896,-3.38375592232,39.0426292419,179.88848877,0
23.700000000000003,14.165640889082237,-0.6621287890490605,393.48160160275927,0.5539555692333834,185.90730594107526,-3.38375592232,39.0426292419,179.88848877,0
23.8,14.230839557978516,-0.8581432218117627,393.3244276629845,0.5690268145586268,188.27564473416152,-3.38375592232,39.0426292419,179.88848877,0
23.900000000000002,14.317681050079356,-1.310518582470797,393.15408028995756,0.582329613643925,190.54357984942538,-3.38375592232,39.0426292419,179.88848877,0
24.0,14.4624742048879,-2.449335905181954,392.94845922119725,0.5908971524979019,192.54267018335977,-2.21500062943,45.8636932373,-169.618972778,0
24.1,14.607267359696452,-3.5881532278931516,392.74283815243695,0.5994646913518789,194.54176051729425,-2.21500062943,45.8636932373,-169.618972778,0
24.200000000000003,14.752060514505004,-4.726970550604349,392.53721708367664,0.608032230205856,196.5408508512287,-2.21500062943,45.8636932373,-169.618972778,0
24.3,14.933535454938708,-4.486582716513885,392.3357196960223,0.6189001648767872,199.6700450654464,-1.5604963217008319,45.692181880589146,-167.74502227738543,0
24.400000000000002,15.125947443363263,-3.834970817616415,392.1354518258896,0.6304539859902454,203.13619126176232,0.574843525887,45.1352462769,-161.676528931,0
24.5,15.318359431787808,-3.183358918718967,391.935183955757,0.6420078071037032,206.6023374580781,0.574843525887,45.1352462769,-161.676528931,0
24.6,15.510771420212363,-2.5317470198214966,391.7349160856243,0.6535616282171615,210.06848365439402,0.574843525887,45.1352462769,-161.676528931,0
24.700000000000003,15.703183408636917,-1.8801351209240256,391.53464821549164,0.6651154493306197,213.53462985070993,0.574843525887,45.1352462769,-161.676528931,0
24.8,15.978782274135709,-2.041644198010326,391.33925896032093,0.6726363768945591,217.10909017567568,-0.8264062264066011,46.16723419806144,-156.68567392081977,0
24.900000000000002,16.31530728209732,-2.7986837982351354,391.14744280707015,0.6772036096501699,220.76287986441812,-4.25413274765,48.6744346619,-144.536178589,0
25.0,16.66094540681461,-3.3012228158539294,390.98059910149556,0.680000007153,224.12911579726227,-4.25413274765,48.6744346619,-144.536178589,0
25.1,17.020974422439803,-3.4018696797273407,390.8531903971225,0.680000007153,227.04126397481667,-2.62348175049,47.1556892395,-136.694747925,0
25.200000000000003,17.381003438064997,-3.5025165436007524,390.7257816927495,0.680000007153,229.9534121523711,-2.62348175049,47.1556892395,-136.694747925,0
25.3,17.7044198146889,-3.205099365457725,390.66205974439384,0.6816300369538394,232.63003135540026,-1.8628179025169826,46.97091654035492,-134.7670938144588,0
25.400000000000002,18.0072963339661,-2.684366445513343,390.63406635642485,0.6841745209020286,235.1745177302661,0.789663255215,46.3382148743,-128.080780029,0
25.5,18.310172853243287,-2.1636335255689794,390.6060729684559,0.6867190048502176,237.71900410513183,0.789663255215,46.3382148743,-128.080780029,0
25.6,18.613049372520482,-1.642900605624597,390.578079580487,0.6892634887984067,240.26349047999767,0.789663255215,46.3382148743,-128.080780029,0
25.700000000000003,18.86661025438112,-1.191499955911191,390.62157610093294,0.6838080882490695,242.8575745815861,0.8731810072198434,46.387347759409295,-127.91248558983477,0
25.8,19.1000815889975,-0.7683429625981155,390.69419522767225,0.6750938013508847,245.4718631442014,5.95361280441,47.4689903259,-118.628364563,0
25.900000000000002,19.33355292361389,-0.3451859692850252,390.76681435441157,0.6663795144526996,248.08615170681676,5.95361280441,47.4689903259,-118.628364563,0
26.0,19.553019301505387,0.21569926751659946,390.85662677072474,0.659060314155909,250.84573662864773,5.95361280441,47.4689903259,-118.628364563,0
26.1,19.734219229431424,1.1529063339260996,390.9934172797336,0.6555529793777667,254.00232212458354,6.05947589874,44.723400116,-109.413475037,0
26.200000000000003,19.915419157357462,2.0901134003356,391.1302077887424,0.6520456445996243,257.15890762051936,6.05947589874,44.723400116,-109.413475037,0
26.3,20.080850508235738,2.7150430624958375,391.28142641151715,0.6474935210518328,260.12790587345904,6.05947589874,44.723400116,-109.413475037,0
26.400000000000002,20.22421301916744,2.902926310611325,391.45283783497825,0.6414791681560441,262.83436725771617,5.25287723541,44.6920814514,-99.844909668,0
26.5,20.367575530099135,3.0908095587268063,391.6242492584393,0.6354648152602557,265.54082864197323,5.25287723541,44.6920814514,-99.844909668,0
26.6,20.504777319473305,3.259486833521999,391.7989135203225,0.6290542432275382,268.1891502994227,5.25287723541,44.6920814514,-99.844909668,0
26.700000000000003,20.580713920639116,3.2371706412037864,392.0059255772303,0.6187034768898144,270.25930245643434,5.6305191726959825,44.55773991069571,-93.9752665991752,0
26.8,20.656650521804924,3.2148544488855753,392.21293763413803,0.6083527105520911,272.3294546134459,5.8079252243,44.4946212769,-91.2328872681,0
26.900000000000002,20.732587122970738,3.192538256567363,392.41994969104576,0.5980019442143673,274.3996067704575,5.8079252243,44.4946212769,-91.2328872681,0
27.0,20.79211194318093,3.22500279230723,392.62942838586974,0.5859223043867725,276.50970877973504,5.8079252243,44.4946212769,-91.2328872681,0
27.1,20.795724461164948,3.444096471565262,392.84731051996874,0.5679526702107294,278.7559135203268,6.65152597427,41.6379852295,-83.0220947266,0
27.200000000000003,20.79933697914896,3.6631901508232936,393.06519265406774,0.5499830360346861,281.0021182609186,6.65152597427,41.6379852295,-83.0220947266,0
27.3,20.802949497132975,3.8822838300813176,393.28307478816674,0.5320134018586437,283.24832300151036,6.65152597427,41.6379852295,-83.0220947266,0
27.400000000000002,20.806562015116988,4.10137750933935,393.50095692226574,0.5140437676826004,285.4945277421021,6.65152597427,41.6379852295,-83.0220947266,0
27.5,20.777795963914457,3.9192936727050487,393.70749063428906,0.5013460261144628,287.38463479096674,5.6637863934731705,39.262334168212625,-79.82174075137979,0
27.6,20.739627854304363,3.620716287066501,393.9107290022045,0.49017913175369626,289.1713385276861,3.63175582886,34.3745079041,-73.1356430054,0
27.700000000000003,20.70145974469427,3.3221389014279543,394.11396737012,0.47901223739292975,290.9580422644055,3.63175582886,34.3745079041,-73.1356430054,0
27.8,20.663291635084175,3.0235615157894173,394.31720573803545,0.46784534303216363,292.7447460011248,3.63175582886,34.3745079041,-73.1356430054,0
27.900000000000002,20.613052785109318,2.834258029764818,394.5228418351631,0.45508993361108213,294.1964029425303,3.63175582886,34.3745079041,-73.1356430054,0
28.0,20.53430353418155,2.9030532682207646,394.73414123206766,0.4385825421308462,294.8566984443121,3.31909322739,25.4102954865,-65.7247619629,0
28.1,20.455554283253782,2.971848506676714,394.9454406289722,0.4220751506506097,295.5169939460939,3.31909322739,25.4102954865,-65.7247619629,0
28.200000000000003,20.37171705405308,3.006505840408577,395.15812218447485,0.406125592444576,296.3099524291991,3.31909322739,25.4102954865,-65.7247619629,0
28.3,20.274018174667237,2.9481581202753,395.37456928258763,0.39169579106411034,297.46433695246736,3.13348770142,15.2853059769,-63.2346763611,0
28.400000000000002,20.176319295281395,2.889810400142021,395.5910163807004,0.37726598968364417,298.61872147573564,3.13348770142,15.2853059769,-63.2346763611,0
28.5,20.078620415895557,2.8314626800087437,395.8074634788132,0.36283618830317854,299.77310599900386,3.13348770142,15.2853059769,-63.2346763611,0
28.6,19.99103421592342,2.9093609889818124,395.9911687083869,0.35521480899910257,300.23926013694376,2.483630614594954,12.035764665514181,-62.06941479556282,0
28.700000000000003,19.905921902463184,3.0205894570470084,396.1668642242498,0.3492589886288236,300.53705099570783,1.06538200378,4.94319534302,-59.5345039368,0
28.8,19.820809589002955,3.1318179251122005,396.3425597401127,0.34330316825854484,300.83484185447185,1.06538200378,4.94319534302,-59.5345039368,0
28.900000000000002,19.73821693376071,2.9200909745712917,396.4930163282157,0.3383432010985525,300.83431959424587,0.7300894888452504,1.7385212852878715,-59.24565108075002,0
29.0,19.658761830849986,2.306210462334127,396.6120446630451,0.33462329957106135,300.46232908672937,-0.397116065025,-9.0185956955,-58.2725868225,0
29.1,19.579306727939258,1.692329950096941,396.7310729978745,0.33090339804357005,300.0903385792129,-0.397116065025,-9.0185956955,-58.2725868225,0
29.200000000000003,19.50205249284028,1.514185815060685,396.80025739742877,0.33503466175966856,299.24480198280514,-0.8636354978949613,-13.045812779504109,-58.80486025099894,0
29.3,19.425504176114906,1.4758021477222958,396.8534545806971,0.3416841511365804,298.2473776250746,-1.49837100506,-18.5241203308,-59.6013031006,0
29.400000000000002,19.34895585938953,1.437418480383905,396.90665176396533,0.34833364051349247,297.24995326734404,-1.49837100506,-18.5241203308,-59.6013031006,0
29.5,19.283858638151607,1.0514226231166537,396.88720390168464,0.35468290024936505,295.59512819301074,-2.0566658396756425,-22.115207106337323,-60.555126780520865,0
29.6,19.22259064692481,0.5491857449472645,396.8434636397046,0.3609317636211557,293.72046925596,-3.19148921967,-28.8554191589,-62.455619812,0
29.700000000000003,19.161322655698015,0.04694886677787524,396.79972337772466,0.36718062699294635,291.84581031890923,-3.19148921967,-28.8554191589,-62.455619812,0
29.8,19.10005466447122,-0.4552880113914959,396.75598311574464,0.37342949036473677,289.97115138185853,-3.19148921967,-28.8554191589,-62.455619812,0
29.900000000000002,19.038786673244424,-0.9575248895608852,396.7122428537647,0.3796783537365275,288.0964924448078,-3.19148921967,-28.8554191589,-62.455619812,0
30.0,18.975349137610642,-1.1112289050871313,396.55592492916395,0.3932819029524946,285.8748952713883,-5.65189313889,-37.0474319458,-71.2779388428,0
30.1,18.911793871356657,-1.2460197377595783,396.3934979624998,0.4072845551889015,283.6344714477251,-5.65189313889,-37.0474319458,-71.2779388428,0
30.200000000000003,18.848238605102672,-1.3808105704320255,396.2310709958356,0.4212872074253084,281.39404762406184,-5.65189313889,-37.0474319458,-71.2779388428,0
30.3,18.792106281115398,-1.5705295034368725,396.0541435343536,0.4345698721852584,278.9032320000099,-5.701450291991818,-37.449257810694384,-71.78482146297937,0
30.400000000000002,18.748200122083283,-1.8507193024687814,395.85333262676585,0.44666666140737943,276.0000015483895,-6.49907159805,-40.9744491577,-79.6653823853,0
30.5,18.70429396305117,-2.1309091015006802,395.6525217191781,0.4587634506295,273.0967710967692,-6.49907159805,-40.9744491577,-79.6653823853,0
30.6,18.66038780401906,-2.411098900532589,395.45171081159026,0.470860239851621,270.19354064514886,-6.49907159805,-40.9744491577,-79.6653823853,0
30.700000000000003,18.617098870693372,-2.6556159816612506,395.2506819134344,0.4825613696743,267.1675511952787,-6.49907159805,-40.9744491577,-79.6653823853,0
30.8,18.575717685882513,-2.789874248403457,395.04897924038846,0.49303957792420555,263.7621328036891,-6.40792274475,-43.0519714355,-92.206817627,0
30.900000000000002,18.53433650107165,-2.9241325151456685,394.8472765673425,0.5035177861741114,260.3567144120994,-6.40792274475,-43.0519714355,-92.206817627,0
31.0,18.49295531626079,-3.058390781887875,394.6455738942965,0.5139959944240169,256.95129602050986,-6.40792274475,-43.0519714355,-92.206817627,0
31.1,18.449427513081922,-3.118855565120427,394.44471656403977,0.5216243790346653,253.45682492503937,-6.40792274475,-43.0519714355,-92.206817627,0
31.200000000000003,18.40301914911783,-3.0802964054058486,394.24499360462653,0.5254285672523317,249.84285344215027,-6.09468221664,-44.890586853,-104.682640076,0
31.3,18.356610785153745,-3.0417372456912712,394.0452706452133,0.5292327554699978,246.2288819592613,-6.09468221664,-44.890586853,-104.682640076,0
31.400000000000002,18.310202421189658,-3.003178085976693,393.84554768580006,0.5330369436876642,242.6149104763722,-6.09468221664,-44.890586853,-104.682640076,0
31.5,18.26379405722557,-2.964618926262116,393.6458247263869,0.5368411319053303,239.0009389934832,-6.09468221664,-44.890586853,-104.682640076,0
31.6,18.21424167161075,-2.985732331008224,393.4572860814212,0.5387391695427873,235.453631401231,-6.09468221664,-44.890586853,-104.682640076,0
31.700000000000003,18.14929855657931,-3.2989570489813977,393.3234973003227,0.531306149361197,232.23265931700954,-4.673648464051229,-41.0585496837211,-120.312712383157,0
31.8,18.084355441547874,-3.612181766954561,393.1897085192241,0.5238731291796069,229.01168723278815,-4.34904098511,-40.2282447815,-123.906135559,0
31.900000000000002,18.019412326516434,-3.9254064849277346,393.05591973812557,0.5164401089980166,225.79071514856665,-4.34904098511,-40.2282447815,-123.906135559,0
32.0,17.952844466737634,-4.024815765790499,392.93240690028045,0.5092004708951811,222.76014390090353,-4.34904098511,-40.2282447815,-123.906135559,0
32.1,17.875738253237415,-2.737383999144292,392.8755454702959,0.5032151398166357,220.96454286487523,-2.5786890189741904,-30.58438589468976,-136.01229826057693,0
32.2,17.798632039737196,-1.449952232498085,392.8186840403113,0.49722980873809036,219.16894182884693,-2.50176477432,-30.1698360443,-136.515014648,0
32.300000000000004,17.721525826236974,-0.16252046585187774,392.76182261032676,0.49124447765954504,217.37334079281862,-2.50176477432,-30.1698360443,-136.515014648,0
32.4,17.60339971872845,0.032312405892204146,392.7833693462201,0.485232765906162,216.68218377057204,-1.7758098468229124,-25.579971216726335,-138.33998937093946,0
32.5,17.474505961752445,-0.05965999559202892,392.8254980866742,0.4792141292723945,216.28094134426357,-0.230260834098,-16.8405742645,-142.55670166,0
32.6,17.345612204776444,-0.151632397076262,392.86762682712833,0.473195492638627,215.8796989179551,-0.230260834098,-16.8405742645,-142.55670166,0
32.7,17.21671844780044,-0.24360479856049508,392.90975556758247,0.46717685600485953,215.47845649164663,-0.230260834098,-16.8405742645,-142.55670166,0
32.800000000000004,17.087824690824434,-0.33557720004472813,392.9518843080366,0.461158219371092,215.07721406533815,-0.230260834098,-16.8405742645,-142.55670166,0
32.9,16.979863690120784,-0.0460130533266348,393.01994285614217,0.45739354490243733,215.0,2.0159816856899093,3.1347268084596855,-144.35582010865306,0
33.0,16.87689084294073,0.33446902376515925,393.09418032592055,0.45416597644933493,215.0,2.16986441612,4.37938261032,-144.485031128,0
33.1,16.77391799576067,0.7149511008569531,393.168417795699,0.45093840799623247,215.0,2.16986441612,4.37938261032,-144.485031128,0
33.2,16.69388717930182,0.7826791747427785,393.2488694122769,0.449999988079,215.21803469113357,2.39206568700811,9.90181897598971,-144.46568946429414,0
33.300000000000004,16.623261282721774,0.7221960027423094,393.33186847347633,0.449999988079,215.52545112993496,2.61884212494,15.5379362106,-144.446014404,0
33.4,16.552635386141734,0.6617128307418447,393.4148675346757,0.449999988079,215.83286756873633,2.61884212494,15.5379362106,-144.446014404,0
33.5,16.502868116245757,0.5545818679799548,393.4701736590999,0.449999988079,216.25459783674376,2.61884212494,15.5379362106,-144.446014404,0
33.6,16.477951526421716,0.3918753708440784,393.49248680069365,0.449999988079,216.8125200238273,2.34225845337,21.1857357025,-143.405487061,0
33.7,16.45303493659767,0.22916887370820205,393.5147999422874,0.449999988079,217.37044221091085,2.34225845337,21.1857357025,-143.405487061,0
33.800000000000004,16.428118346773626,0.06646237657232568,393.53711308388125,0.449999988079,217.92836439799441,2.34225845337,21.1857357025,-143.405487061,0
33.9,16.435127934935696,-0.17050239206293377,393.5019836805078,0.45422175620087174,219.26652975713165,1.7029546046282482,22.004929072288874,-142.20493872007935,0
34.0,16.446840615985693,-0.41840625740782283,393.4583923301761,0.45906543928034005,220.71963390145442,0.976038396358,22.8013477325,-140.845352173,0
34.1,16.45855329703569,-0.6663101227527118,393.4148009798444,0.46390912235980836,222.17273804577718,0.976038396358,22.8013477325,-140.845352173,0
34.2,16.470265978085685,-0.9142139880976009,393.3712096295127,0.46875280543927667,223.62584219009997,0.976038396358,22.8013477325,-140.845352173,0
34.300000000000004,16.505686529230054,-0.7704451748405176,393.3018534742791,0.4718165766716659,224.36331591922757,0.6095511750992322,23.022936749386,-139.5620614780229,0
34.4,16.54932851314536,-0.4908518196688631,393.22356258089667,0.4742631087539034,224.85262280232703,-0.484914630651,23.6845626831,-135.797195435,0
34.5,16.59297049706067,-0.21125846449718877,393.1452716875143,0.47670964083614104,225.34192968542655,-0.484914630651,23.6845626831,-135.797195435,0
34.6,16.636612480975977,0.0683348906744855,393.0669807941319,0.4791561729183787,225.83123656852604,-0.484914630651,23.6845626831,-135.797195435,0
34.7,16.685743165349766,-0.30601240359624815,392.9913070579784,0.479999989271,226.4635519004485,-0.14494027525635744,23.402339297989265,-134.23474805597496,0
34.800000000000004,16.73776360435435,-1.0246539500831355,392.9170112330953,0.479999989271,227.1711599779589,0.079560495913,23.2210788727,-133.214889526,0
34.9,16.789784043358928,-1.743295496569972,392.84271540821226,0.479999989271,227.87876805546924,0.079560495913,23.2210788727,-133.214889526,0
35.0,16.83791405171244,-1.525729344410454,392.78293430697386,0.479999989271,228.8713736996802,0.053271071031275714,21.685522988997764,-132.11065749523473,0
35.1,16.885239722293033,-1.1146043596039585,392.7261540921508,0.479999989271,229.9229019487763,0.0322936661541,20.5022144318,-131.236465454,0
35.2,16.932565392873627,-0.7034793747974626,392.6693738773278,0.479999989271,230.97443019787244,0.0322936661541,20.5022144318,-131.236465454,0
35.300000000000004,16.979891063454225,-0.29235438999096686,392.6125936625048,0.479999989271,232.02595844696856,0.0322936661541,20.5022144318,-131.236465454,0
35.4,17.024509257769044,0.06700967677723846,392.5592562286162,0.479999989271,233.02471201774785,0.0322936661541,20.5022144318,-131.236465454,0
35.5,17.0350932949879,-0.22428356348813594,392.54919605209506,0.479999989271,233.36006487280255,-0.11728245765,13.4863176346,-126.81161499,0
35.6,17.045677332206754,-0.5155768037535102,392.5391358755739,0.479999989271,233.69541772785726,-0.11728245765,13.4863176346,-126.81161499,0
35.7,17.053238100279255,-0.7506761302608668,392.53124534889014,0.479999989271,234.02493748604135,-0.11728245765,13.4863176346,-126.81161499,0
35.800000000000004,17.030873072388445,-0.4295406274839492,392.54483107695035,0.479999989271,234.2967183998375,0.2532434720827056,9.894839691146126,-125.91935415465016,0
35.9,17.008508044497635,-0.10840512470705443,392.55841680501055,0.479999989271,234.5684993136336,0.406146734953,8.41937065125,-125.552841187,0
36.0,16.986143016606825,0.21273037806986317,392.57200253307076,0.479999989271,234.84028022742976,0.406146734953,8.41937065125,-125.552841187,0
36.1,16.95761439229881,0.40270178443133636,392.6065341000221,0.4779579503805303,235.2042040837964,0.6063083265229959,6.863144852153518,-125.38575127267775,0
36.2,16.92030084748043,0.4057261418900201,392.6709195894606,0.47300541117213135,235.69945847696042,1.17575788498,2.44578003883,-124.913803101,0
36.300000000000004,16.882987302662045,0.40875049934870383,392.7353050788991,0.46805287196373246,236.19471287012442,1.17575788498,2.44578003883,-124.913803101,0
36.4,16.845673757843667,0.41177485680738735,392.7996905683376,0.4631003327553339,236.6899672632884,1.17575788498,2.44578003883,-124.913803101,0
36.5,16.80755059792078,0.4447501353906618,392.8701798239975,0.460000008345,236.89220136564418,1.17575788498,2.44578003883,-124.913803101,0
36.6,16.76807226608474,0.5278586771200704,392.95088585118447,0.460000008345,236.6039642973426,1.42341005802,-0.60787320137,-122.852508545,0
36.7,16.728593934248703,0.6109672188494788,393.03159187837144,0.460000008345,236.31572722904102,1.42341005802,-0.60787320137,-122.852508545,0
36.800000000000004,16.689115602412663,0.6940757605788874,393.1122979055584,0.460000008345,236.02749016073943,1.42341005802,-0.60787320137,-122.852508545,0
36.9,16.633957054940012,0.5508739516947325,393.1988698480625,0.4556178981876493,235.5617892193431,1.4627811517284972,-0.798288356610806,-123.35280896678134,0
37.0,16.577145365528647,0.38381257732797697,393.2860602253409,0.4507737886388972,235.07737852433002,1.50380408764,-0.996087491512,-123.870819092,0
37.1,16.520333676117282,0.2167512029612214,393.37325060261935,0.4459296790901451,234.5929678293169,1.50380408764,-0.996087491512,-123.870819092,0
37.2,16.46352198670592,0.04968982859446591,393.4604409798978,0.441085569541393,234.10855713430382,1.50380408764,-0.996087491512,-123.870819092,0
37.300000000000004,16.415986553823988,0.38337570640428353,393.52096304518693,0.4380486523966609,234.1951347080339,1.4521803222586158,-2.243140983951095,-124.68318427326659,0
37.4,16.37113036608211,0.8616915475546372,393.57378254801847,0.43553370351038007,234.44662983651287,1.4060074091,-3.35700774193,-125.392082214,0
37.5,16.32627417834023,1.3400073887050246,393.62660205085,0.43301875462409906,234.69812496499188,1.4060074091,-3.35700774193,-125.392082214,0
37.6,16.281417990598353,1.8183232298554122,393.67942155368155,0.43050380573781805,234.94962009347088,1.4060074091,-3.35700774193,-125.392082214,0
37.7,16.253172328032242,1.6924516214788081,393.685385442593,0.4315390677940213,234.2304689455876,1.0298153006467783,-2.736865705650053,-125.10807711017361,0
37.800000000000004,16.229087646905732,1.4152294244291068,393.67961187360953,0.433463667284293,233.26816828270563,0.292571038008,-1.5471701622,-124.547775269,0
37.9,16.205002965779222,1.1380072273794253,393.6738383046261,0.4353882667745645,232.30586761982372,0.292571038008,-1.5471701622,-124.547775269,0
38.0,16.180918284652712,0.860785030329724,393.6680647356426,0.4373128662648362,231.34356695694174,0.292571038008,-1.5471701622,-124.547775269,0
38.1,16.156833603526202,0.5835628332800227,393.66229116665914,0.4392374657551078,230.38126629405977,0.292571038008,-1.5471701622,-124.547775269,0
38.2,16.12952643355677,0.3562458105654315,393.6519796728826,0.439999997616,230.11461642381082,0.08481157399187003,-0.1706415197062039,-126.63905311936917,0
38.300000000000004,16.10010471332195,0.16167583672459734,393.63869045892034,0.439999997616,230.30444247632792,-0.20947304368,1.56406462193,-129.577758789,0
38.400000000000006,16.07068299308713,-0.03289413711623684,393.62540124495814,0.439999997616,230.49426852884505,-0.20947304368,1.56406462193,-129.577758789,0
38.5,16.041261272852314,-0.22746411095705715,393.61211203099595,0.439999997616,230.6840945813622,-0.20947304368,1.56406462193,-129.577758789,0
38.6,16.01183955261749,-0.42203408479789134,393.5988228170337,0.439999997616,230.8739206338793,-0.20947304368,1.56406462193,-129.577758789,0
38.7,15.991023694873308,-0.5330957950876957,393.57559776313917,0.44095994074814504,231.09599440476435,-0.20947304368,1.56406462193,-129.577758789,0
38.800000000000004,15.987228669882589,-0.478993329331105,393.5327214227016,0.44381847702221605,231.38184830479034,-1.44845318794,0.560363590717,-128.754989624,0
38.900000000000006,15.983433644891868,-0.42489086357451444,393.4898450822641,0.44667701329628706,231.6677022048163,-1.44845318794,0.560363590717,-128.754989624,0
39.0,15.979638619901149,-0.3707883978179276,393.44696874182654,0.4495355495703579,231.95355610484225,-1.44845318794,0.560363590717,-128.754989624,0
39.1,15.968305706391181,-0.40081709660782516,393.4169349448159,0.449999988079,231.53867823078565,-1.15155076981,2.5141043663,-127.677177429,0
39.2,15.955510494326516,-0.4471666629731926,393.38939251294596,0.449999988079,230.9878632096282,-1.15155076981,2.5141043663,-127.677177429,0
39.300000000000004,15.942715282261851,-0.49351622933856,393.36185008107606,0.449999988079,230.4370481884707,-1.15155076981,2.5141043663,-127.677177429,0
39.400000000000006,15.929961005221752,-0.5077450317920398,393.33329828870853,0.4506088150533792,230.0608825740533,-1.15155076981,2.5141043663,-127.677177429,0
39.5,15.917363984720389,-0.3985782773116615,393.30086892353205,0.45355651988838336,230.35565246017305,-0.750473678112,5.26037216187,-129.069549561,0
39.6,15.904766964219025,-0.28941152283127547,393.26843955835557,0.4565042247233877,230.65042234629286,-0.750473678112,5.26037216187,-129.069549561,0
39.7,15.892169943717661,-0.18024476835088948,393.2360101931791,0.4594519295583921,230.94519223241264,-0.750473678112,5.26037216187,-129.069549561,0
39.800000000000004,15.880164339238416,-0.3103336992144482,393.229980469,0.460000008345,231.0,-0.5118215116306442,5.575110020731581,-128.88935574816824,0
