t_sec,airspeed,climb,altitude,throttle,heading,pitch,roll,yaw,is_boundary
0.0,17.4100246429,1.38296854496,414.199981689,0.449999988079,302.0,-0.93081009388,6.19317579269,-58.9783401489,0
0.1,17.37988544482316,1.1530370944830663,414.16493160085207,0.449999988079,302.50077231108907,-1.6244189640245543,18.474545199041657,-57.57661222164061,0
0.2,17.349746246746317,0.9231056440061329,414.1298815127041,0.449999988079,303.00154462217813,-1.75219774246,20.7941551208,-57.3160667419,0
0.30000000000000004,17.319607048669475,0.6931741935291992,414.09483142455616,0.449999988079,303.50231693326714,-1.75219774246,20.7941551208,-57.3160667419,0
0.4,17.28953862460654,0.46349065127791644,414.05948911913134,0.44981397518434413,304.00744051696887,-1.75219774246,20.7941551208,-57.3160667419,0
0.5,17.270872027082813,0.2737455896980828,413.97707006168207,0.4196609356678227,305.21356228933877,-2.144668016665399,27.714344933742428,-55.36027554999386,0
0.6000000000000001,17.252205429559087,0.08400052811824898,413.8946510042328,0.38950789615130127,306.41968406170867,-2.18218564987,28.4104099274,-55.1730308533,0
0.7000000000000001,17.23353883203536,-0.10574453346158463,413.8122319467835,0.35935485663477984,307.62580583407856,-2.18218564987,28.4104099274,-55.1730308533,0
0.8,17.214872234511635,-0.29548959504141825,413.72981288933426,0.32920181711825847,308.83192760644846,-2.18218564987,28.4104099274,-55.1730308533,0
0.9,17.195687461996556,-0.4800586868671869,413.64500526928464,0.2990023196622586,310.02720978533625,-2.18218564987,28.4104099274,-55.1730308533,0
1.0,17.16059531014375,-0.5057314295975888,413.4868715104036,0.2673766166215339,310.8897288470075,-4.946767725983876,24.61891534001133,-50.2871875833562,0
1.1,17.125503158290947,-0.5314041723279906,413.3287377515225,0.23575091358080918,311.7522479086788,-5.29284286499,24.125831604,-49.6755905151,0
1.2000000000000002,17.090411006438142,-0.5570769150583925,413.1706039926414,0.20412521054008442,312.61476697035005,-5.29284286499,24.125831604,-49.6755905151,0
1.3,17.05155825993205,-0.6746255732670394,412.9540723227426,0.17866769214370726,313.5666152862785,-7.145811328003633,20.67737437709015,-47.54658881752891,0
1.4000000000000001,17.009670215566025,-0.866330261396896,412.690405805651,0.15818871554106143,314.590564139296,-8.43677520752,19.0055522919,-46.0239295959,0
1.5,16.9677821712,-1.0580349495267523,412.42673928855936,0.13770973893841562,315.61451299231356,-8.43677520752,19.0055522919,-46.0239295959,0
1.6,16.925894126833974,-1.2497396376566088,412.1630727714677,0.11723076233576978,316.6384618453311,-8.43677520752,19.0055522919,-46.0239295959,0
1.7000000000000002,16.891651582164833,-1.5679361167498818,411.83100424746306,0.10426465774721044,317.19117804762953,-11.486283837393383,15.390665815361345,-43.6643731591811,0
1.8,16.86158188654361,-1.9551707451358475,411.4616024868174,0.09539901513942434,317.486699456146,-12.7833175659,13.8354644775,-42.6600837708,0
1.9000000000000001,16.831512190922385,-2.3424053735218138,411.0922007261718,0.08653337253163822,317.7822208646625,-12.7833175659,13.8354644775,-42.6600837708,0
2.0,16.81275382800892,-2.6953170928188435,410.6927982861455,0.07786848863816007,318.0,-12.7833175659,13.8354644775,-42.6600837708,0
2.1,16.825681858557807,-2.952080176914021,410.2093550566247,0.06976598937051802,318.0,-15.7257986069,10.6866426468,-41.9435958862,0
2.2,16.838609889106696,-3.2088432610091986,409.7259118271039,0.06166349010287597,318.0,-15.7257986069,10.6866426468,-41.9435958862,0
2.3000000000000003,16.851537919655584,-3.465606345104376,409.2424685975831,0.05356099083523392,318.0,-15.7257986069,10.6866426468,-41.9435958862,0
2.4000000000000004,16.878766341174234,-3.8081285187478393,408.7385218907068,0.0500000007451,318.1381396664241,-16.36579165247349,9.712935503098144,-41.91243352869998,0
2.5,16.917207676404598,-4.217894257489173,408.2184984399944,0.0500000007451,318.3845944245861,-18.8968505859,5.88824462891,-41.7871856689,0
2.6,16.955649011634964,-4.627659996230509,407.6984749892819,0.0500000007451,318.63104918274814,-18.8968505859,5.88824462891,-41.7871856689,0
2.7,16.994090346865327,-5.037425734971844,407.1784515385695,0.0500000007451,318.8775039409102,-18.8968505859,5.88824462891,-41.7871856689,0
2.8000000000000003,17.052496997347582,-5.485657662648018,406.57356689607934,0.05241405367588412,319.1207026492375,-20.432085926510666,3.28516946364872,-41.2105048093359,0
2.9000000000000004,17.130633384065764,-5.97190190077913,405.88482237412745,0.057213675128027865,319.3606837272095,-21.6606121063,1.25185263157,-40.7447624207,0
3.0,17.20876977078394,-6.45814613891024,405.1960778521755,0.06201329658017159,319.60066480518145,-21.6606121063,1.25185263157,-40.7447624207,0
3.1,17.28690615750212,-6.944390377041352,404.50733333022356,0.06681291803231533,319.8406458831534,-21.6606121063,1.25185263157,-40.7447624207,0
3.2,17.37656723547833,-7.274350310413961,403.81570433423997,0.08164572710740614,319.86299144473793,-21.6606121063,1.25185263157,-40.7447624207,0
3.3000000000000003,17.489006140768375,-7.295424146454308,403.1183743567797,0.11630850038423404,319.4551940984873,-23.3815193176,0.0209875702858,-39.7120704651,0
3.4000000000000004,17.601445046058423,-7.316497982494654,402.4210443793195,0.15097127366106194,319.0473967522367,-23.3815193176,0.0209875702858,-39.7120704651,0
3.5,17.713883951348464,-7.337571818535,401.7237144018593,0.18563404693788968,318.6395994059861,-23.3815193176,0.0209875702858,-39.7120704651,0
3.6,17.826322856638512,-7.358645654575347,401.02638442439905,0.22029682021471758,318.23180205973546,-23.3815193176,0.0209875702858,-39.7120704651,0
3.7,17.97495155519133,-7.6975539761034355,400.3088478388681,0.2584735515290809,318.0,-23.22127093248601,1.4963369527363517,-40.73952728410677,0
3.8000000000000003,18.171245556524788,-8.455079692732472,399.5646972827937,0.3012784903770281,318.0,-23.1268386841,2.38336920738,-41.3451576233,0
3.9000000000000004,18.367539557858247,-9.212605409361506,398.8205467267194,0.34408342922497526,318.0,-23.1268386841,2.38336920738,-41.3451576233,0
4.0,18.59844302775844,-9.624725038103826,398.0858161891443,0.3834339172284634,318.20667558389505,-22.195995029165125,1.7882857688876554,-41.25699397900746,0
4.1000000000000005,18.882457559424587,-9.506790758832008,397.3655414408392,0.41748326771769717,318.7305117644806,-20.4826316833,0.650043964386,-41.093952179,0
4.2,19.166472091090736,-9.388856479560188,396.6452666925341,0.4515326182069307,319.2543479450661,-20.4826316833,0.650043964386,-41.093952179,0
4.3,19.45048662275688,-9.27092220028837,395.924991944229,0.4855819686961642,319.7781841256516,-20.4826316833,0.650043964386,-41.093952179,0
4.4,19.703240861285945,-9.048824948453195,395.3846233840375,0.5114814430053058,319.712963864988,-15.89965851101202,0.5946270255516213,-40.12944665066431,0
4.5,19.933036281777305,-8.750226215238408,394.9763851726768,0.5313953200768274,319.2151168343429,-14.7101993561,0.58476549387,-39.878238678,0
4.6000000000000005,20.162831702268665,-8.451627482023618,394.5681469613162,0.5513091971483491,318.7172698036977,-14.7101993561,0.58476549387,-39.878238678,0
4.7,20.392627122760025,-8.153028748808829,394.1599087499555,0.5712230742198707,318.21942277305254,-14.7101993561,0.58476549387,-39.878238678,0
4.800000000000001,20.5277780272936,-7.538219975945279,393.9269053217354,0.5830620788939448,318.0,-11.628567969628826,0.8000995510707737,-40.43901912525135,0
4.9,20.58834073924208,-6.674209914491721,393.8320022960608,0.5885373747848344,318.0,-7.75809764862,1.07991874218,-41.143951416,0
5.0,20.648903451190566,-5.810199853038162,393.73709927038624,0.5940126706757238,318.0,-7.75809764862,1.07991874218,-41.143951416,0
5.1000000000000005,20.70946616313905,-4.946189791584596,393.64219624471167,0.5994879665666134,318.0,-7.75809764862,1.07991874218,-41.143951416,0
5.2,20.770028875087537,-4.082179730131037,393.5472932190371,0.604963262457503,318.0,-7.75809764862,1.07991874218,-41.143951416,0
5.300000000000001,20.81863620401967,-3.2078656915686676,393.4737815445782,0.6097185785646589,318.0,-7.75809764862,1.07991874218,-41.143951416,0
5.4,20.729933955037342,-2.215208748750128,393.64595312446846,0.6062048061719986,318.0,1.33245134354,-1.15020108223,-41.6554260254,0
5.5,20.64123170605502,-1.2225518059315883,393.81812470435875,0.6026910337793383,318.0,1.33245134354,-1.15020108223,-41.6554260254,0
5.6000000000000005,20.529746469682355,-0.2860421245751236,394.0195563377078,0.5978756019893614,317.94688948217515,1.33245134354,-1.15020108223,-41.6554260254,0
5.7,20.34374489499956,0.46682665584880517,394.3166888554557,0.5888028315829335,317.7200703436916,4.73835086823,-0.00932619627565,-41.8254241943,0
5.800000000000001,20.15774332031676,1.2196954362727408,394.6138213732037,0.5797300611765055,317.493251205208,4.73835086823,-0.00932619627565,-41.8254241943,0
5.9,19.971741745633967,1.9725642166966697,394.91095389095165,0.5706572907700775,317.26643206672446,4.73835086823,-0.00932619627565,-41.8254241943,0
6.0,19.78574017095117,2.725432997120598,395.20808640869956,0.5615845203636497,317.0396129282409,4.73835086823,-0.00932619627565,-41.8254241943,0
6.1000000000000005,19.594116431252484,3.3595430309414978,395.5298119040948,0.5538206106817609,317.2059795106037,7.02028512524657,2.5550777434895737,-42.40424412815002,0
6.2,19.40130303860883,3.96852365425264,395.856741285929,0.5463336565874634,317.4555443892465,8.04250431061,3.61424970627,-42.6637229919,0
6.300000000000001,19.20848964596517,4.577504277563788,396.1836706677632,0.5388467024931658,317.70510926788927,8.04250431061,3.61424970627,-42.6637229919,0
6.4,19.015676253321512,5.18648490087493,396.5106000495974,0.5313597483988683,317.95467414653206,8.04250431061,3.61424970627,-42.6637229919,0
6.5,18.819548078421956,5.446032396517379,396.85636889998085,0.5218754018566228,318.0,8.93620204926,6.41076660156,-41.8905715942,0
6.6000000000000005,18.622684268720572,5.628031760856298,397.2063187093664,0.5119477829410577,318.0,8.93620204926,6.41076660156,-41.8905715942,0
6.7,18.42582045901919,5.810031125195216,397.556268518752,0.5020201640254927,318.0,8.93620204926,6.41076660156,-41.8905715942,0
6.800000000000001,18.228956649317805,5.992030489534136,397.9062183281376,0.49209254510992756,318.0,8.93620204926,6.41076660156,-41.8905715942,0
6.9,18.06918469688212,5.719057590022012,398.1904935406003,0.4846480872727557,318.35679480343964,8.436174429811643,7.638068655371317,-41.41063418414353,0
7.0,17.919318960806898,5.324574094493277,398.4572288719554,0.47786681356045085,318.80887969963044,8.18675136566,8.24866390228,-41.1502685547,0
7.1000000000000005,17.769453224731674,4.93009059896454,398.7239642033105,0.47108553984814594,319.2609645958213,8.18675136566,8.24866390228,-41.1502685547,0
7.2,17.61958748865645,4.535607103435806,398.99069953466557,0.4643042661358411,319.7130494920121,8.18675136566,8.24866390228,-41.1502685547,0
7.300000000000001,17.482424097960124,4.2246026112921085,399.23724115512573,0.4583739236452039,320.0,7.47809555918524,7.888256678755751,-40.69020748709023,0
7.4,17.36733330218954,4.058657804707218,399.4486925944157,0.45392222620831724,320.0,6.42157888412,7.33670473099,-40.0038871765,0
7.5,17.25224250641896,3.892712998122329,399.6601440337057,0.44947052877143057,320.0,6.42157888412,7.33670473099,-40.0038871765,0
7.6000000000000005,17.137151710648375,3.726768191537438,399.8715954729957,0.4450188313345438,320.0,6.42157888412,7.33670473099,-40.0038871765,0
7.7,17.02206091487779,3.5608233849525486,400.0830469122857,0.4405671338976571,320.0,6.42157888412,7.33670473099,-40.0038871765,0
7.800000000000001,16.93646289776449,3.4498744999854667,400.2301729153894,0.43764342609493334,320.2356573768531,3.80008625984,6.81762981415,-39.1350975037,0
7.9,16.855170753092125,3.3469548829964797,400.3679075645571,0.4349428009841536,320.50572014548993,3.80008625984,6.81762981415,-39.1350975037,0
8.0,16.773878608419757,3.2440352660074923,400.5056422137248,0.4322421758733739,320.7757829141268,3.80008625984,6.81762981415,-39.1350975037,0
8.1,16.699262979824702,3.0731848745711656,400.6288214316083,0.430000007153,321.0490370764216,3.80008625984,6.81762981415,-39.1350975037,0
8.200000000000001,16.657300130911416,2.570106029558807,400.68081452706025,0.430000007153,321.3378993601955,1.26164901257,6.76021099091,-38.289932251,0
8.3,16.61533728199813,2.0670271845464576,400.7328076225122,0.430000007153,321.62676164396936,1.26164901257,6.76021099091,-38.289932251,0
8.4,16.573374433084844,1.5639483395341083,400.7848007179641,0.430000007153,321.9156239277432,1.26164901257,6.76021099091,-38.289932251,0
8.5,16.554085689861775,1.30413841765995,400.7965216624179,0.430000007153,322.17340177870165,-0.09778159295916122,6.630156740014867,-37.89650426718866,0
8.6,16.544152843869536,1.1447072747961662,400.79162532056495,0.430000007153,322.41835342328744,-0.978819489479,6.54660272598,-37.635509491,0
8.700000000000001,16.534219997877297,0.9852761319323797,400.786728978712,0.430000007153,322.6633050678732,-0.978819489479,6.54660272598,-37.635509491,0
8.8,16.52428715188506,0.8258449890685962,400.78183263685906,0.430000007153,322.9082567124589,-0.978819489479,6.54660272598,-37.635509491,0
8.9,16.52424778186233,0.6632792692718733,400.7617304684888,0.4320299000902747,323.0,-2.164459849013012,6.607413553347735,-36.88370216158948,0
9.0,16.53013276236564,0.49883652136502915,400.7325228404597,0.4352753210510485,323.0,-2.82741999626,6.64234113693,-36.4619865417,0
9.1,16.536017742868946,0.334393773458185,400.7033152124306,0.43852074201182223,323.0,-2.82741999626,6.64234113693,-36.4619865417,0
9.200000000000001,16.551232900642866,0.12406623105619585,400.6570548950016,0.4426358027098498,323.13179018399364,-3.2816622867393264,8.827081610093254,-36.31941558149092,0
9.3,16.574262568515728,-0.12469221995238661,400.5965120607817,0.44747923204569706,323.3739615208732,-3.43552112579,9.60558986664,-36.2698173523,0
9.4,16.597292236388586,-0.37345067096096907,400.5359692265618,0.45232266138154426,323.61613285775275,-3.43552112579,9.60558986664,-36.2698173523,0
9.5,16.62032190426145,-0.6222091219695516,400.47542639234194,0.4571660907173915,323.8583041946323,-3.43552112579,9.60558986664,-36.2698173523,0
9.600000000000001,16.64603282751687,-0.9090208009612029,400.3970348634387,0.4622033890028005,324.330507413875,-3.770501256591298,11.01553611295626,-35.7225762432697,0
9.700000000000001,16.675524996167177,-1.2494971155588406,400.2934721796298,0.4675140913352504,325.1271135234657,-4.02650737762,12.0772457123,-35.3034248352,0
9.8,16.705017164817484,-1.5899734301564785,400.1899094958209,0.47282479366770036,325.92371963305646,-4.02650737762,12.0772457123,-35.3034248352,0
9.9,16.73450933346779,-1.9304497447541165,400.08634681201204,0.47813549600015026,326.7203257426472,-4.02650737762,12.0772457123,-35.3034248352,0
10.0,16.768182423350623,-2.016990293479018,399.9618625474076,0.4849882224095865,327.49882329403874,-4.297350911110721,14.58466232225257,-34.05673948985845,0
10.100000000000001,16.804117505864966,-1.9661446540084897,399.82605913590527,0.4926752259808659,328.26752362062365,-4.54152107239,16.7752323151,-32.9308128357,0
10.200000000000001,16.840052588379308,-1.9152990145379625,399.69025572440296,0.500362229552145,329.03622394720855,-4.54152107239,16.7752323151,-32.9308128357,0
10.3,16.875987670893654,-1.864453375067435,399.55445231290065,0.5080492331234243,329.80492427379346,-4.54152107239,16.7752323151,-32.9308128357,0
10.4,16.92134452895057,-1.7365660458076926,399.4136396824657,0.5196680582525879,331.1279411973017,-4.43182806910122,24.181227338727364,-30.646546440244723,0
10.5,16.969905502913445,-1.5824787181972868,399.2711235389312,0.5326239999301231,332.63946766628953,-4.37801742554,27.8852901459,-29.5256347656,0
10.600000000000001,17.018466476876323,-1.4283913905868786,399.1286073953966,0.5455799416076585,334.1509941352773,-4.37801742554,27.8852901459,-29.5256347656,0
10.700000000000001,17.0670274508392,-1.2743040629764728,398.9860912518621,0.5585358832851938,335.6625206042651,-4.37801742554,27.8852901459,-29.5256347656,0
10.8,17.120618183809903,-1.1715341712216605,398.8404087370448,0.5711687764165897,337.2337565885192,-4.37801742554,27.8852901459,-29.5256347656,0
10.9,17.212860523571518,-1.4631174381612664,398.6703939753777,0.5813191757823158,339.2638353726287,-3.72697472572,37.6920814514,-22.7436752319,0
11.0,17.305102863333136,-1.7547007051008723,398.5003792137106,0.5914695751480421,341.2939141567382,-3.72697472572,37.6920814514,-22.7436752319,0
11.100000000000001,17.39734520309476,-2.0462839720404835,398.3303644520434,0.6016199745137685,343.3239929408477,-3.72697472572,37.6920814514,-22.7436752319,0
11.200000000000001,17.495875096829366,-2.290577641829098,398.1631305712495,0.6119194005591652,345.46065259117086,-3.72697472572,37.6920814514,-22.7436752319,0
11.3,17.624167279108228,-2.311024861695403,398.0090600572134,0.6229242479910341,348.1018153451134,-3.66406130791,41.3159866333,-13.5335817337,0
11.4,17.75245946138709,-2.3314720815617083,397.8549895431773,0.633929095422903,350.7429780990559,-3.66406130791,41.3159866333,-13.5335817337,0
11.5,17.880751643665953,-2.3519193014280133,397.7009190291411,0.6449339428547718,353.38414085299837,-3.66406130791,41.3159866333,-13.5335817337,0
11.600000000000001,18.009043825944815,-2.3723665212943184,397.546848515105,0.6559387902866409,356.02530360694095,-3.66406130791,41.3159866333,-13.5335817337,0
11.700000000000001,18.145648651115906,-2.476217799275669,397.41926754236556,0.6618135006406184,293.3469873410163,-2.8583077067647906,42.63970071127224,-5.709554412683137,0
11.8,18.28711544244127,-2.628851120819018,397.3071799878922,0.6646876547138987,192.46408315685176,-2.48009085655,43.2748146057,-2.03104543686,0
11.9,18.42858223376663,-2.7814844423623675,397.1950924334189,0.667561808787179,91.58117897268716,-2.48009085655,43.2748146057,-2.03104543686,0
12.0,18.570928521029906,-2.823736053900744,397.0928002792401,0.6706550874068168,6.425796372641615,-2.48009085655,43.2748146057,-2.03104543686,0
12.100000000000001,18.718193750322808,-2.248632645094005,397.0452929218165,0.6749739099935532,9.23303373114221,-0.684796869755,44.2570037842,6.94649028778,0
12.200000000000001,18.86545897961571,-1.6735292362872762,396.99778556439287,0.6792927325802895,12.040271089642758,-0.684796869755,44.2570037842,6.94649028778,0
12.3,19.01272420890861,-1.0984258274805474,396.9502782069693,0.6836115551670259,14.847508448143303,-0.684796869755,44.2570037842,6.94649028778,0
12.4,19.159989438201514,-0.5233224186738186,396.9027708495457,0.6879303777537623,17.65474580664385,-0.684796869755,44.2570037842,6.94649028778,0
12.5,19.287420503497476,-0.4271457369938608,396.9166493760318,0.6876358204062066,20.41850767863582,0.3699678942913063,44.45539814410471,12.584250784565333,0
12.600000000000001,19.396601021916617,-0.7716568849264974,396.98701255959963,0.6830962287449088,23.14226527292599,1.76949596405,44.7303504944,20.071975708,0
12.700000000000001,19.505781540335754,-1.116168032859128,397.0573757431674,0.6785566370836109,25.866022867216113,1.76949596405,44.7303504944,20.071975708,0
12.8,19.61496205875489,-1.4606791807917583,397.1277389267353,0.6740170454223131,28.589780461506237,1.76949596405,44.7303504944,20.071975708,0
12.9,19.720703507341895,-1.536803233188845,397.2084031221271,0.6696085142256823,31.313202269355166,1.8174791521805311,44.730256610514665,20.336445481278187,0
13.0,19.80000825023906,0.4502092606185164,397.3682529203686,0.6662074667677065,34.03404283060144,3.75529980659,44.725112915,31.3681793213,0
13.100000000000001,19.879312993136224,2.437221754425914,397.5281027186101,0.6628064193097306,36.75488339184777,3.75529980659,44.725112915,31.3681793213,0
13.200000000000001,19.95542607557931,4.024705614687685,397.69037570531,0.6593864422972436,39.42950787971024,3.75529980659,44.725112915,31.3681793213,0
13.3,20.016476536419194,3.726666652792454,397.8640846111327,0.6558771297427021,41.88602168964132,4.18788957596,45.9622383118,39.0767860413,0
13.4,20.07752699725908,3.4286276908972235,398.0377935169554,0.6523678171881604,44.342535499572385,4.18788957596,45.9622383118,39.0767860413,0
13.5,20.138577458098965,3.130588729001993,398.2115024227781,0.6488585046336188,46.79904930950345,4.18788957596,45.9622383118,39.0767860413,0
13.600000000000001,20.19962791893885,2.832549767106757,398.3852113286008,0.6453491920790771,49.25556311943456,4.18788957596,45.9622383118,39.0767860413,0
13.700000000000001,20.260678379778735,2.534510805211527,398.5589202344235,0.6418398795245356,51.71207692936564,4.18788957596,45.9622383118,39.0767860413,0
13.8,20.314476992578392,2.399068341374985,398.7118378384571,0.6385274523643156,54.17802778803265,4.049825664445837,46.22028740023488,41.39668073052605,0
13.9,20.360283224400114,2.442826151862175,398.841841006887,0.6354320158348535,56.65437937329882,3.36350607872,47.5640640259,53.1653175354,0
14.0,20.40608945622184,2.4865839623493655,398.97184417531696,0.6323365793053914,59.130730958564996,3.36350607872,47.5640640259,53.1653175354,0
14.100000000000001,20.450910979651216,2.482691673071322,399.09865753795316,0.6287795429275657,61.61022673415991,3.36350607872,47.5640640259,53.1653175354,0
14.200000000000001,20.492700485554547,2.332079868930726,399.21564916336587,0.6238011935588708,64.09940379231107,3.15761446953,47.8554077148,61.1083831787,0
14.3,20.53448999145788,2.1814680647901294,399.3326407887786,0.6188228441901759,66.58858085046221,3.15761446953,47.8554077148,61.1083831787,0
14.4,20.576279497361213,2.0308562606495335,399.4496324141913,0.6138444948214808,69.07775790861336,3.15761446953,47.8554077148,61.1083831787,0
14.5,20.613420443277164,1.95003446837864,399.56601234570047,0.608437953569158,71.57275501140975,3.15761446953,47.8554077148,61.1083831787,0
14.600000000000001,20.63480004407257,2.105841753936419,399.6803182760677,0.6015795906615274,74.0874854794891,2.97441768646,47.2648200989,71.2376022339,0
14.700000000000001,20.65617964486798,2.261649039494195,399.79462420643495,0.594721227753897,76.6022159475684,2.97441768646,47.2648200989,71.2376022339,0
14.8,20.67755924566339,2.417456325051971,399.9089301368022,0.5878628648462665,79.1169464156477,2.97441768646,47.2648200989,71.2376022339,0
14.9,20.6989388464588,2.573263610609747,400.0232360671694,0.5810045019386361,81.63167688372701,2.612812539370667,46.25204664528169,74.82458506424496,0
15.0,20.700557213452203,2.5125454141857224,400.1351049346705,0.5684700571547099,84.017739001618,1.8464344350551096,44.09052811818709,82.43148947395663,0
15.100000000000001,20.698784556272482,2.4146714839216425,400.24655560262124,0.5549615977397124,86.38172165371371,1.83224773407,44.0842552185,82.5802001953,0
15.200000000000001,20.69701189909276,2.316797553657564,400.35800627057193,0.5414531383247153,88.74570430580937,1.83224773407,44.0842552185,82.5802001953,0
15.3,20.662239298278937,1.597116392759562,400.50245959838503,0.5231792625499945,90.68207561508733,1.93743526936,40.6117286682,89.2690734863,0
15.4,20.623488977669652,0.8024843483789115,400.6508909734,0.50433097697634,92.56690386350587,1.93743526936,40.6117286682,89.2690734863,0
15.5,20.58473865706037,0.007852303998260979,400.79932234841505,0.48548269140268546,94.45173211192441,1.93743526936,40.6117286682,89.2690734863,0
15.600000000000001,20.545988336451085,-0.786779740382404,400.94775372343,0.4666344058290306,96.33656036034299,1.93743526936,40.6117286682,89.2690734863,0
15.700000000000001,20.48876616269238,-0.0798954353571184,401.096231154054,0.4529587670003593,97.9388321419825,1.5774244332249139,32.56080742207123,96.17292341428015,0
15.8,20.421510360398628,1.4425896200297468,401.2447336013815,0.4420928308886999,99.38762356597178,1.52203392982,31.2452049255,97.2432937622,0
15.9,20.354254558104877,2.965074675416612,401.39323604870896,0.43122689477704046,100.83641498996106,1.52203392982,31.2452049255,97.2432937622,0
16.0,20.271225519217253,2.8487593726084457,401.5521720678592,0.417743823422336,101.73537084851272,1.06625306606,22.4845790863,101.232681274,0
16.1,20.18618881444923,2.5238525391813424,401.71243610399796,0.4039276350754037,102.56434195168536,1.06625306606,22.4845790863,101.232681274,0
16.2,20.101152109681212,2.1989457057542507,401.87270014013666,0.39011144672847187,103.39331305485798,1.06625306606,22.4845790863,101.232681274,0
16.3,20.013990626742775,1.9221399458460515,402.0182095729452,0.37819876543904013,104.12008198142607,1.06625306606,22.4845790863,101.232681274,0
16.400000000000002,19.921029921814178,1.776617915780682,402.1234488160088,0.37148138412961,104.56790738426115,0.425827622414,11.1351985931,104.84526062,0
16.5,19.828069216885584,1.631095885715318,402.2286880590725,0.3647640028201801,105.01573278709621,0.425827622414,11.1351985931,104.84526062,0
16.6,19.73510851195699,1.4855738556499485,402.33392730213615,0.35804662151075,105.46355818993129,0.425827622414,11.1351985931,104.84526062,0
16.7,19.642147807028397,1.3400518255845841,402.4391665451998,0.35132924020132017,105.91138359276634,0.425827622414,11.1351985931,104.84526062,0
16.8,19.55599721768181,1.3286984254831518,402.499194588702,0.34829559300248414,106.0,-0.3374237779797698,2.699537841755456,106.34015876720485,0
16.900000000000002,19.471526675280355,1.3504442575737161,402.5480690861601,0.3461707183736066,106.0,-0.571057677269,0.037926170975,106.889518738,0
17.0,19.3870561328789,1.3721900896642796,402.5969435836183,0.3440458437447291,106.0,-0.571057677269,0.037926170975,106.889518738,0
17.1,19.302585590477445,1.3939359217548437,402.64581808107647,0.34192096911585146,106.0,-0.571057677269,0.037926170975,106.889518738,0
17.2,19.22107063481614,1.3836107266443516,402.6895647295069,0.340000003576,105.95627155370398,-0.571057677269,0.037926170975,106.889518738,0
17.3,19.167399363342636,1.0711541337862989,402.6850034711005,0.340000003576,105.50059070819364,-2.17039203644,-7.89346504211,106.183937073,0
17.400000000000002,19.11372809186913,0.7586975409282459,402.68044221269406,0.340000003576,105.0449098626833,-2.17039203644,-7.89346504211,106.183937073,0
17.5,19.060056820395626,0.4462409480702043,402.67588095428766,0.340000003576,104.58922901717297,-2.17039203644,-7.89346504211,106.183937073,0
17.6,19.006385548922125,0.1337843552121516,402.67131969588127,0.340000003576,104.13354817166262,-2.17039203644,-7.89346504211,106.183937073,0
17.7,18.969862954484782,-0.005614320549913142,402.6232382576509,0.34194777482461686,103.61044537879735,-3.889022734126097,-10.925918663922491,104.51897094135973,0
17.8,18.94044977380935,-0.07326750044577313,402.5571144383838,0.3447030434498979,103.05939112825581,-4.10079240799,-11.3176088333,104.313148499,0
17.900000000000002,18.91103659313391,-0.1409206803416331,402.4909906191167,0.34745831207517885,102.50833687771427,-4.10079240799,-11.3176088333,104.313148499,0
18.0,18.883427653328585,-0.22251905980897163,402.4215072225506,0.350282854571101,101.94342800842294,-4.10079240799,-11.3176088333,104.313148499,0
18.1,18.877289185835917,-0.47006536022961837,402.3120448450308,0.3539317563564233,101.21364913025536,-5.61113023758,-13.1061553955,102.590553284,0
18.2,18.871150718343245,-0.7176116606502563,402.2025824675111,0.35758065814174556,100.48387025208781,-5.61113023758,-13.1061553955,102.590553284,0
18.3,18.869568092458838,-0.9319295307818383,402.08347826985846,0.36163250451389733,99.75512623514153,-5.8127724147239075,-13.223804223999437,102.03300265055118,0
18.400000000000002,18.87694991919493,-1.0808643795986763,401.94540202550417,0.3664772181470101,99.02841849714979,-6.26344013214,-13.4746875763,100.782531738,0
18.5,18.884331745931025,-1.229799228415509,401.8073257811499,0.37132193178012274,98.30171075915806,-6.26344013214,-13.4746875763,100.782531738,0
18.6,18.89171357266712,-1.3787340772323473,401.66924953679563,0.3761666454132355,97.5750030211663,-6.26344013214,-13.4746875763,100.782531738,0
18.7,18.899480324657173,-1.5171994221921015,401.5326176210187,0.3808555991689009,96.82887930440897,-6.26344013214,-13.4746875763,100.782531738,0
18.8,18.908706050294075,-1.6159824390482447,401.40146011179195,0.3849541797180973,96.00916363426516,-6.39983272552,-12.910607338,97.3466796875,0
18.900000000000002,18.917931775930978,-1.7147654559043877,401.2703026025652,0.3890527602672938,95.18944796412136,-6.39983272552,-12.910607338,97.3466796875,0
19.0,18.92715750156788,-1.8135484727605273,401.1391450933385,0.3931513408164901,94.36973229397758,-6.39983272552,-12.910607338,97.3466796875,0
19.1,18.936383227204782,-1.9123314896166705,401.0079875841118,0.3972499213656866,93.55001662383377,-6.39983272552,-12.910607338,97.3466796875,0
19.200000000000003,18.9427443190499,-1.9938455683323215,400.8838173363341,0.4016074286645536,92.83925757625262,-6.39983272552,-12.910607338,97.3466796875,0
19.3,18.943263357583252,-2.0401418619531393,400.7738967123672,0.4064929838694942,92.35070158984715,-5.84272432327,-10.7542676926,93.7147521973,0
19.400000000000002,18.9437823961166,-2.086438155573959,400.6639760884003,0.4113785390744349,91.86214560344166,-5.84272432327,-10.7542676926,93.7147521973,0
19.5,18.94430143464995,-2.132734449194777,400.5540554644334,0.41626409427937544,91.3735896170362,-5.84272432327,-10.7542676926,93.7147521973,0
19.6,18.940049286930865,-2.128987831923209,400.449738429221,0.42048241986396623,90.8070272002922,-5.84272432327,-10.7542676926,93.7147521973,0
19.700000000000003,18.92029290388945,-1.9626239899951792,400.36363056759825,0.42253254565491954,89.98697854582147,-4.8633928299,-7.41396617889,91.5333862305,0
19.8,18.90053652084804,-1.7962601480671552,400.2775227059755,0.4245826714458728,89.16692989135076,-4.8633928299,-7.41396617889,91.5333862305,0
19.900000000000002,18.880780137806624,-1.6298963061391254,400.1914148443527,0.4266327972368262,88.34688123688002,-4.8633928299,-7.41396617889,91.5333862305,0
20.0,18.86102375476521,-1.4635324642111014,400.10530698273,0.42868292302777944,87.52683258240931,-4.8633928299,-7.41396617889,91.5333862305,0
20.1,18.83757575827131,-1.365511724093343,400.03283313495115,0.430000007153,86.91421885606307,-4.540472532495759,-6.120514876569979,90.47021887722752,0
20.200000000000003,18.807494898050816,-1.3902856608274916,399.984856043682,0.430000007153,86.67431143499337,-3.73070573807,-2.76259565353,87.7983551025,0
20.3,18.777414037830322,-1.4150595975616393,399.9368789524128,0.430000007153,86.43440401392368,-3.73070573807,-2.76259565353,87.7983551025,0
20.400000000000002,18.74733317760983,-1.439833534295788,399.88890186114367,0.430000007153,86.194496592854,-3.73070573807,-2.76259565353,87.7983551025,0
20.5,18.716616588263836,-1.3565812428952133,399.8428286149847,0.430000007153,86.0,-3.73070573807,-2.76259565353,87.7983551025,0
20.6,18.683177142855833,-0.8106478215386628,399.8049096219367,0.430000007153,86.0,-2.99240851402,0.17642621696,86.6453781128,0
20.700000000000003,18.64973769744783,-0.26471440018211223,399.7669906288888,0.430000007153,86.0,-2.99240851402,0.17642621696,86.6453781128,0
20.8,18.616298252039826,0.28121902117441877,399.7290716358408,0.430000007153,86.0,-2.99240851402,0.17642621696,86.6453781128,0
20.900000000000002,18.583807583644962,0.5337303394065169,399.69111466509224,0.43098527119227853,86.09852649789258,-2.99240851402,0.17642621696,86.6453781128,0
21.0,18.554442946332994,-0.1805256671060793,399.6530325653927,0.4352167837904683,86.52167816127128,-2.9607436657,2.62198781967,86.8748321533,0
21.1,18.525078309021023,-0.8947816736187011,399.6149504656932,0.4394482963886582,86.94482982465001,-2.9607436657,2.62198781967,86.8748321533,0
21.200000000000003,18.51245405172809,-0.7873735671786366,399.57145794540827,0.439999997616,86.78595014281726,-3.067211781216797,2.5279714976915835,87.11275194221781,0
21.3,18.502339620964808,-0.5567762388208597,399.52715425971934,0.439999997616,86.53980854042834,-3.09991765022,2.50262880325,87.1900787354,0
21.400000000000002,18.492225190201527,-0.3261789104630747,399.4828505740304,0.439999997616,86.29366693803942,-3.09991765022,2.50262880325,87.1900787354,0
21.5,18.482110759438246,-0.09558158210529777,399.43854688834153,0.439999997616,86.0475253356505,-3.09991765022,2.50262880325,87.1900787354,0
21.6,18.479269482284554,-0.2783583414539576,399.3892471460188,0.4425465325273164,86.0,-3.1165853697285026,2.1363375716551456,87.00674013840062,0
21.700000000000003,18.478168541268527,-0.5600481585802144,399.338751936314,0.44570240789394117,86.0,-3.130007267,1.8374209404,86.8377990723,0
21.8,18.477067600252497,-0.8417379757064611,399.2882567266091,0.4488582832605658,86.0,-3.130007267,1.8374209404,86.8377990723,0
21.900000000000002,18.47552589728524,-0.9448570346202467,399.2431285456335,0.449999988079,86.0,-2.926322534061452,0.7203681167913092,86.70909816973544,0
22.0,18.473734354479962,-0.9467557200826492,399.2010425909313,0.449999988079,86.0,-2.82009553909,0.127743080258,86.6416473389,0
22.1,18.471942811674687,-0.9486544055450516,399.15895663622905,0.449999988079,86.0,-2.82009553909,0.127743080258,86.6416473389,0
22.200000000000003,18.47015126886941,-0.9505530910074542,399.11687068152685,0.449999988079,86.0,-2.82009553909,0.127743080258,86.6416473389,0
22.3,18.467222233500348,-0.7503331802204427,399.08558872426704,0.449999988079,86.0,-2.5808426555890653,1.3796751844096997,86.35395126028162,0
22.400000000000002,18.464070701766605,-0.5105783710690143,399.056420055684,0.449999988079,86.0,-2.49452257156,1.84248733521,86.2501525879,0
22.5,18.46091917003286,-0.2708235619175944,399.0272513871009,0.449999988079,86.0,-2.49452257156,1.84248733521,86.2501525879,0
22.6,18.456743649249294,-0.22494065556036497,399.0080556744742,0.452387243645554,86.0,-2.367133300097692,2.1284545808966056,86.11569663101214,0
22.700000000000003,18.452228655708353,-0.2433301449181718,398.99216619530597,0.4555659219620531,86.0,-2.2578420639,2.32166194916,86.0001602173,0
22.8,18.447713662167416,-0.26171963427597794,398.9762767161377,0.45874460027855213,86.0,-2.2578420639,2.32166194916,86.0001602173,0
22.900000000000002,18.446890474227487,-0.23231343684366004,398.96848328045877,0.45848354570491423,85.84835404331712,-2.0617849016014165,2.6267356701230407,86.02761673695152,0
23.0,18.4484770997452,-0.1717087686108218,398.9659745094298,0.4559772172720313,85.59772170796032,-1.88288104534,2.90752267838,86.0526885986,0
23.1,18.45006372526292,-0.11110410037798141,398.9634657384009,0.4534708888391482,85.3470893726035,-1.88288104534,2.90752267838,86.0526885986,0
23.200000000000003,18.451650350780636,-0.05049943214514102,398.96095696737194,0.45096456040626515,85.09645703724668,-1.88288104534,2.90752267838,86.0526885986,0
23.3,18.45122051477818,0.02816717766220239,398.96195842725734,0.449999988079,85.19650531863782,-1.4622539115438908,4.569029785846617,85.66759759859008,0
23.400000000000002,18.449529115436185,0.1181339204516507,398.9651560007758,0.449999988079,85.51595070012206,-1.4254527092,4.73169231415,85.631729126,0
23.5,18.44783771609419,0.20810066324109583,398.9683535742942,0.449999988079,85.83539608160628,-1.4254527092,4.73169231415,85.631729126,0
23.6,18.45175184107705,0.25555209999489364,398.9641235812413,0.4514690871602897,86.29381922080391,-1.3917229302377423,6.076098728598977,86.01875772686125,0
23.700000000000003,18.46162490787114,0.2578077227496653,398.95199772788476,0.45449990918362854,86.89998239702138,-1.37624716759,6.70057058334,86.1966934204,0
23.8,18.471497974665233,0.2600633455044368,398.93987187452825,0.4575307312069672,87.50614557323883,-1.37624716759,6.70057058334,86.1966934204,0
23.900000000000002,18.4875223666335,0.24255493870457878,398.9212975409196,0.4610228836425708,88.15343144096319,-1.37624716759,6.70057058334,86.1966934204,0
24.0,18.530595934934162,0.13813831207816407,398.87436735316953,0.46654364086096767,88.98154581349539,-1.91245639324,14.8303346634,88.1592178345,0
24.1,18.573669503234825,0.03372168545174564,398.82743716541944,0.47206439807936473,89.80966018602763,-1.91245639324,14.8303346634,88.1592178345,0
24.200000000000003,18.616743071535492,-0.07069494117467279,398.78050697766935,0.4775851552977618,90.63777455855985,-1.91245639324,14.8303346634,88.1592178345,0
24.3,18.666755052510208,-0.22444764430471856,398.74589381212184,0.4814088796798764,91.56355502144994,-2.63515400887,21.6855602264,91.3854370117,0
24.400000000000002,18.7221616016449,-0.4165588077840274,398.7208570466705,0.48391317269705214,92.56527019824428,-2.63515400887,21.6855602264,91.3854370117,0
24.5,18.77756815077959,-0.6086699712633294,398.69582028121926,0.48641746571422784,93.56698537503857,-2.63515400887,21.6855602264,91.3854370117,0
24.6,18.83297469991428,-0.8007811347426381,398.670783515768,0.4889217587314036,94.56870055183289,-2.63515400887,21.6855602264,91.3854370117,0
24.700000000000003,18.89224080380977,-0.9075493002600543,398.63112216536706,0.4941255020481364,95.82509928912447,-3.101771635596258,25.606930304639267,95.24322136758315,0
24.8,18.95442517197281,-0.949788410776699,398.5804029582102,0.501370338143561,97.27406789009075,-3.1828019619,26.3351669312,95.917098999,0
24.900000000000002,19.016609540135853,-0.992027521293345,398.52968375105337,0.508615174238986,98.72303649105709,-3.1828019619,26.3351669312,95.917098999,0
25.0,19.100185706075262,-1.1621254727372627,398.47174373735186,0.5168922065689878,99.86152655108255,-3.07195091248,32.7779121399,99.7762908936,0
25.1,19.188817095251384,-1.36243850897357,398.4120973318167,0.5254131633435096,100.92664557651469,-3.07195091248,32.7779121399,99.7762908936,0
25.200000000000003,19.277448484427506,-1.5627515452098772,398.3524509262815,0.5339341201180314,101.99176460194681,-3.07195091248,32.7779121399,99.7762908936,0
25.3,19.366079873603624,-1.7630645814461774,398.29280452074636,0.542455076892553,103.05688362737891,-3.07195091248,32.7779121399,99.7762908936,0
25.400000000000002,19.458192582321804,-1.8944612007170338,398.23057965222904,0.550648997818715,104.29204393249404,-3.07195091248,32.7779121399,99.7762908936,0
25.5,19.57721691453987,-1.4931136567673822,398.1484225068417,0.5563148354949169,106.84167331836645,-0.809733450413,37.4614601135,104.384628296,0
25.6,19.69624124675794,-1.0917661128177163,398.0662653614544,0.561980673171119,109.39130270423894,-0.809733450413,37.4614601135,104.384628296,0
25.700000000000003,19.81526557897601,-0.6904185688680504,397.984108216067,0.5676465108473211,111.94093209011145,-0.809733450413,37.4614601135,104.384628296,0
25.8,19.94922649336302,-0.756416616655253,397.9020019360797,0.5753312989573736,114.42168016060042,-2.8142212833226,40.280377701258445,111.94928111982571,0
25.900000000000002,20.093800089691314,-1.1544712263562875,397.81993179677755,0.5844505838329727,116.85348694829845,-3.17790222168,40.8096580505,113.323364258,0
26.0,20.238373686019603,-1.552525836057308,397.7378616574754,0.5935698687085715,119.28529373599642,-3.17790222168,40.8096580505,113.323364258,0
26.1,20.391020226514453,-1.9620698453319678,397.66721868976214,0.6007983789481051,121.71852028074731,-3.17790222168,40.8096580505,113.323364258,0
26.200000000000003,20.562970515192365,-2.3990869141953137,397.6238999842072,0.6035057334986461,124.15514170004012,-3.12915563583,43.9717483521,122.332839966,0
26.3,20.73492080387027,-2.836103983058644,397.58058127865223,0.606213088049187,126.59176311933284,-3.12915563583,43.9717483521,122.332839966,0
26.400000000000002,20.906871092548183,-3.27312105192199,397.5372625730973,0.6089204425997281,129.02838453862566,-3.12915563583,43.9717483521,122.332839966,0
26.5,21.05175904092406,-3.0151557408944076,397.5077849171055,0.610000014305,131.52576819292747,-1.8277349831505696,43.88732330356267,128.01899251530193,0
26.6,21.178698810921343,-2.2962669626037577,397.48748686730204,0.610000014305,134.063450336586,-1.17337799072,43.8476829529,130.888687134,0
26.700000000000003,21.305638580918625,-1.5773781843131074,397.4671888174986,0.610000014305,136.6011324802445,-1.17337799072,43.8476829529,130.888687134,0
26.8,21.432578350915904,-0.8584894060224828,397.44689076769515,0.610000014305,139.13881462390293,-1.17337799072,43.8476829529,130.888687134,0
26.900000000000002,21.52936962411233,-0.30754031990977226,397.43806210351755,0.610000014305,141.93844459131557,-1.2780597785780943,43.24346326625615,137.2729025181457,0
27.0,21.610674172217138,0.157141253036013,397.4351250505645,0.610000014305,144.87263231003573,-1.33890581131,42.8871116638,140.993881226,0
27.1,21.691978720321952,0.6218228259818148,397.4321879976115,0.610000014305,147.806820028756,-1.33890581131,42.8871116638,140.993881226,0
27.200000000000003,21.76477731345062,0.915005530024117,397.44795023592735,0.610000014305,150.57720980042654,-1.33890581131,42.8871116638,140.993881226,0
27.3,21.812400609622514,0.7005985554818353,397.5190572546819,0.610000014305,152.86280251292487,-0.0466988570988,43.7448692322,150.097122192,0
27.400000000000002,21.860023905794414,0.48619158093954595,397.59016427343647,0.610000014305,155.14839522542326,-0.0466988570988,43.7448692322,150.097122192,0
27.5,21.90764720196631,0.2717846063972643,397.661271292191,0.610000014305,157.43398793792156,-0.0466988570988,43.7448692322,150.097122192,0
27.6,21.94758022348248,0.12275986214317017,397.7311750979577,0.610000014305,159.8034938161367,-0.0466988570988,43.7448692322,150.097122192,0
27.700000000000003,21.97077702110971,0.1160254382543429,397.7984603702061,0.610000014305,162.35561859829664,0.792577624321,45.2491569519,159.70375061,0
27.8,21.993973818736944,0.10929101436551589,397.8657456424545,0.610000014305,164.9077433804565,0.792577624321,45.2491569519,159.70375061,0
27.900000000000002,22.017170616364176,0.10255659047668862,397.93303091470295,0.610000014305,167.4598681626165,0.792577624321,45.2491569519,159.70375061,0
28.0,22.040226550985725,0.09635970137214271,398.0003908551955,0.6099526359643822,170.01066012092036,0.792577624321,45.2491569519,159.70375061,0
28.1,22.033447394049734,0.20401385091722032,398.083565692511,0.5998704218390585,172.27915708218302,0.5009537852454529,44.88492765478823,168.99496329274638,0
28.200000000000003,22.026668237113746,0.3116680004622979,398.1667405298265,0.5897882077137347,174.54765404344565,0.451320022345,44.8234825134,170.639816284,0
28.3,22.019889080177755,0.4193221500073717,398.249915367142,0.5797059935884114,176.81615100470822,0.451320022345,44.8234825134,170.639816284,0
28.400000000000002,22.01085199211313,0.5619169089824532,398.33424610609416,0.5695159574527531,179.06776493903942,0.451320022345,44.8234825134,170.639816284,0
28.5,21.943562108837742,1.6059511050830184,398.44839817151285,0.5565442007377641,180.88381044619263,0.843430697918,41.0988502502,179.986572266,0
28.6,21.876272225562353,2.6499853011836207,398.5625502369315,0.5435724440227747,182.6998559533459,0.843430697918,41.0988502502,179.986572266,0
28.700000000000003,21.808982342286964,3.694019497284223,398.6767023023501,0.5306006873077853,184.51590146049915,0.843430697918,41.0988502502,179.986572266,0
28.8,21.73387637590911,4.4109338563895815,398.79437955485366,0.5177310552281337,186.22689261721644,0.843430697918,41.0988502502,179.986572266,0
28.900000000000002,21.6238255579514,3.6653312485233034,398.92781753275597,0.5053180112089877,187.46819727806718,2.73341727257,34.475276947,-173.241455078,0
29.0,21.513774739993696,2.919728640657051,399.06125551065827,0.49290496718984217,188.7095019389179,2.73341727257,34.475276947,-173.241455078,0
29.1,21.403723922035987,2.1741260327907725,399.1946934885606,0.4804919231706962,189.95080659976864,2.73341727257,34.475276947,-173.241455078,0
29.200000000000003,21.289263625848307,2.2908103840606278,399.3871684046025,0.4683010868518147,190.97490849619575,3.2596180439,25.82771492,-169.511230469,0
29.3,21.174621369104976,2.443077678715332,399.58207952590664,0.4561194201068608,191.99004735127372,3.2596180439,25.82771492,-169.511230469,0
29.400000000000002,21.059979112361642,2.595344973370042,399.7769906472108,0.44393775336190644,193.00518620635174,3.2596180439,25.82771492,-169.511230469,0
29.5,20.945336855618315,2.7476122680247466,399.971901768515,0.43175608661695253,194.0203250614297,3.2596180439,25.82771492,-169.511230469,0
29.6,20.830398513574785,2.893598036318338,400.16854836887,0.41954548254571034,195.0181801801532,3.2596180439,25.82771492,-169.511230469,0
29.700000000000003,20.707280946650148,2.8660594294737054,400.41313680701097,0.40653549769126346,195.53857976043636,2.18778038025,14.0729036331,-164.184844971,0
29.8,20.584163379725513,2.8385208226290732,400.65772524515194,0.39352551283681697,196.0589793407195,2.18778038025,14.0729036331,-164.184844971,0
29.900000000000002,20.46104581280088,2.8109822157844406,400.9023136832929,0.3805155279823701,196.5793789210027,2.18778038025,14.0729036331,-164.184844971,0
30.0,20.343448809393628,2.7710814597955715,401.1394774528997,0.3680839171417201,196.96167825661107,2.18778038025,14.0729036331,-164.184844971,0
30.1,20.249124007446916,2.6790674685429368,401.34534217461766,0.3580904698193828,196.76180935781707,1.51664340496,5.48994159698,-162.540100098,0
30.200000000000003,20.154799205500208,2.5870534772903016,401.55120689633554,0.3480970224970455,196.56194045902308,1.51664340496,5.48994159698,-162.540100098,0
30.3,20.0604744035535,2.49503948603767,401.75707161805343,0.33810357517470857,196.36207156022908,1.51664340496,5.48994159698,-162.540100098,0
30.400000000000002,19.966149601606787,2.403025494785035,401.9629363397714,0.32811012785237126,196.16220266143506,1.51664340496,5.48994159698,-162.540100098,0
30.5,19.87669461186214,2.282192174450358,402.1502645397221,0.319137882856846,195.95689445938254,1.51664340496,5.48994159698,-162.540100098,0
30.6,19.808210564671047,2.0372537614477784,402.25776864851844,0.31456325617647424,195.72816290722267,-1.12378787994,-4.49092626572,-163.138519287,0
30.700000000000003,19.73972651747996,1.7923153484451988,402.3652727573148,0.3099886294961024,195.4994313550628,-1.12378787994,-4.49092626572,-163.138519287,0
30.8,19.67124247028887,1.547376935442628,402.47277686611113,0.3054140028157307,195.27069980290293,-1.12378787994,-4.49092626572,-163.138519287,0
30.900000000000002,19.602758423097782,1.3024385224400485,402.5802809749075,0.3008393761353589,195.04196825074305,-1.12378787994,-4.49092626572,-163.138519287,0
31.0,19.564836233505382,1.0629674303595815,402.5889215918556,0.300000011921,194.72294638196945,-3.9337433392264547,-7.391363014230162,-163.96743505622138,0
31.1,19.53378170845492,0.8247249195561077,402.575346239265,0.300000011921,194.38363505258673,-4.48491048813,-7.9860124588,-164.131072998,0
31.200000000000003,19.50272718340446,0.5864824087526338,402.56177088667437,0.300000011921,194.04432372320403,-4.48491048813,-7.9860124588,-164.131072998,0
31.3,19.502202475967575,0.29874905922119604,402.49529237707526,0.3046218263600074,193.53781811531638,-5.87541770935,-9.48086738586,-165.115921021,0
31.400000000000002,19.5062650635798,0.0035794032451121893,402.4208648389788,0.30993809717482246,193.00619052682165,-5.87541770935,-9.48086738586,-165.115921021,0
31.5,19.51032765119203,-0.2915902527309612,402.34643730088237,0.3152543679896373,192.47456293832695,-5.87541770935,-9.48086738586,-165.115921021,0
31.6,19.51654769646244,-0.5864046125848589,402.2666252008516,0.32035192530496437,191.96480682552604,-5.87541770935,-9.48086738586,-165.115921021,0
31.700000000000003,19.54070966273953,-0.8782642470312585,402.14203382809006,0.3236306101543498,191.63693900504444,-7.83306407928,-11.5117359161,-167.226287842,0
31.8,19.56487162901662,-1.1701238814776478,402.0174424553285,0.3269092950037351,191.30907118456284,-7.83306407928,-11.5117359161,-167.226287842,0
31.900000000000002,19.59092858856001,-1.453901451885877,401.88934043923047,0.3304582298208657,190.97708915982693,-7.83306407928,-11.5117359161,-167.226287842,0
32.0,19.64814473084678,-1.6047864602004458,401.7035132695865,0.3384508575424038,190.57745769037692,-8.69492053986,-12.0540008545,-168.521713257,0
32.1,19.70536087313355,-1.75567146851502,401.51768609994247,0.34644348526394214,190.17782622092687,-8.69492053986,-12.0540008545,-168.521713257,0
32.2,19.762577015420323,-1.9065564768295942,401.3318589302985,0.3544361129854805,189.77819475147686,-8.69492053986,-12.0540008545,-168.521713257,0
32.300000000000004,19.819793157707092,-2.0574414851441682,401.14603176065447,0.36242874070701886,189.37856328202682,-8.69492053986,-12.0540008545,-168.521713257,0
32.4,19.877854481521897,-2.215995673682085,400.95922939443096,0.37045513830217364,188.96965776559404,-8.69492053986,-12.0540008545,-168.521713257,0
32.5,19.95110243182405,-2.5123533655538273,400.7549042290052,0.3790883291602374,188.39411173125814,-8.88738822937,-11.7305450439,-170.97567749,0
32.6,20.0243503821262,-2.8087110574255694,400.55057906357945,0.3877215200183011,187.81856569692224,-8.88738822937,-11.7305450439,-170.97567749,0
32.7,20.097598332428355,-3.1050687492973115,400.3462538981537,0.39635471087636487,187.24301966258636,-8.88738822937,-11.7305450439,-170.97567749,0
32.800000000000004,20.171408664300746,-3.090652815378905,400.1590489938642,0.40165463844515314,186.50360978109634,-8.485280344316948,-11.670723055406205,-171.91345656972217,0
32.9,20.245630000505585,-2.849114739890491,399.9843560598671,0.40451852307512315,185.64444357280445,-8.21528434753,-11.6294708252,-172.549942017,0
33.0,20.31985133671043,-2.6075766644020595,399.8096631258699,0.4073824077050934,184.7852773645125,-8.21528434753,-11.6294708252,-172.549942017,0
33.1,20.39253252419605,-2.377201090108598,399.6416719212544,0.4101981321566692,183.90093203918426,-8.21528434753,-11.6294708252,-172.549942017,0
33.2,20.448845287636534,-2.2654585742226367,399.5449054931717,0.41250201887971316,182.74898757905285,-6.85037565231,-8.40512371063,-175.658172607,0
33.300000000000004,20.505158051077018,-2.1537160583366757,399.448139065089,0.4148059056027571,181.59704311892148,-6.85037565231,-8.40512371063,-175.658172607,0
33.4,20.561470814517495,-2.041973542450722,399.3513726370063,0.41710979232580087,180.44509865879016,-6.85037565231,-8.40512371063,-175.658172607,0
33.5,20.61778357795798,-1.930231026564761,399.25460620892363,0.41941367904884475,179.29315419865878,-6.85037565231,-8.40512371063,-175.658172607,0
33.6,20.62326872276524,-1.8593000282115015,399.2321445716448,0.419999986887,178.7838008539835,-5.830554244882777,-7.418943641951065,8.111292362794899,0
33.7,20.61140349638337,-1.8023003332917862,399.23504740620723,0.419999986887,178.49380058300727,-4.88209962845,-6.48840522766,179.371307373,0
33.800000000000004,20.599538270001503,-1.7453006383720708,399.23795024076964,0.419999986887,178.203800312031,-4.88209962845,-6.48840522766,179.371307373,0
33.9,20.576760719849595,-1.5538225816162425,399.24472646478984,0.4193234539280725,178.0,-4.877639593228686,-6.482276698411745,179.36743123998744,0
34.0,20.528183447557087,-1.0444008455480267,399.26066044236086,0.4170474117603726,178.0,-3.83935213089,-2.02333188057,178.357070923,0
34.1,20.47960617526458,-0.5349791094798104,399.2765944199319,0.41477136959267263,178.0,-3.83935213089,-2.02333188057,178.357070923,0
34.2,20.43102890297207,-0.025557373411594364,399.2925283975029,0.4124953274249727,178.0,-3.83935213089,-2.02333188057,178.357070923,0
34.300000000000004,20.38245163067956,0.4838643626566217,399.30846237507393,0.4102192852572727,178.0,-3.83935213089,-2.02333188057,178.357070923,0
34.4,20.31659178221759,0.3901381925298044,399.3442945451817,0.40754993630103803,178.24500624593415,-2.75084280968,4.30107927322,178.66317749,0
34.5,20.248889284031545,0.23210503992408876,399.38224823922354,0.4048386533970942,178.51613479487673,-2.75084280968,4.30107927322,178.66317749,0
34.6,20.181186785845505,0.07407188731837311,399.42020193326545,0.40212737049315034,178.7872633438193,-2.75084280968,4.30107927322,178.66317749,0
34.7,20.117199337559942,-0.0059941793422603196,399.4547914269916,0.40000000596,179.04371858343316,-2.75084280968,4.30107927322,178.66317749,0
34.800000000000004,20.066746769820135,0.19799386444963873,399.4771242752821,0.40000000596,179.24671519010943,-2.18426370621,9.31395339966,179.01512146,0
34.9,20.016294202080335,0.4019819082415233,399.49945712357265,0.40000000596,179.44971179678566,-2.18426370621,9.31395339966,179.01512146,0
35.0,19.965841634340528,0.6059699520334224,399.5217899718632,0.40000000596,179.6527084034619,-2.18426370621,9.31395339966,179.01512146,0
35.1,19.915389066600724,0.8099579958253215,399.54412282015375,0.40000000596,179.85570501013814,-2.18426370621,9.31395339966,179.01512146,0
35.2,19.869072329203746,0.9013531786688537,399.55610140946,0.4006493900165496,180.12987693516055,-2.18426370621,9.31395339966,179.01512146,0
35.300000000000004,19.83292191481072,0.7159828035817641,399.54262809852503,0.40289503105785257,180.57900557171024,-2.87707304955,11.2304801941,-179.401428223,0
35.4,19.796771500417695,0.5306124284946877,399.52915478759,0.4051406720991554,181.02813420825987,-2.87707304955,11.2304801941,-179.401428223,0
35.5,19.760621086024663,0.34524205340759806,399.515681476655,0.40738631314045837,181.47726284480953,-2.87707304955,11.2304801941,-179.401428223,0
35.6,19.724470671631636,0.15987167832050853,399.50220816572005,0.40963195418176135,181.9263914813592,-2.87707304955,11.2304801941,-179.401428223,0
35.7,19.703157103555647,-0.011565645079639142,399.4450667134409,0.41354410923606627,182.7088221821656,-3.708422947649862,15.811497221110418,-177.9082909659217,0
35.800000000000004,19.684751817157824,-0.18027184637497734,399.379365540809,0.4177829302183495,183.55658592383938,-4.08871078491,17.9503936768,-177.222610474,0
35.9,19.666346530760006,-0.3489780476703035,399.3136643681771,0.42202175120063234,184.4043496655131,-4.08871078491,17.9503936768,-177.222610474,0
36.0,19.647941244362187,-0.5176842489656417,399.2479631955452,0.4262605721829156,185.25211340718687,-4.08871078491,17.9503936768,-177.222610474,0
36.1,19.633527709801708,-0.6620064904830547,399.17832591590786,0.4311300023985811,186.07533301337884,-4.08871078491,17.9503936768,-177.222610474,0
36.2,19.649004672867992,-0.6237400537528714,399.07921481076767,0.4407214756073726,186.71476453522487,-4.82363176346,26.1367664337,-173.611618042,0
36.300000000000004,19.664481635934273,-0.5854736170226882,398.9801037056274,0.45031294881616407,187.35419605707088,-4.82363176346,26.1367664337,-173.611618042,0
36.4,19.679958599000553,-0.5472071802925077,398.88099260048716,0.45990442202495485,187.99362757891686,-4.82363176346,26.1367664337,-173.611618042,0
36.5,19.735832864257382,-0.700544806531756,398.838046613047,0.4620977918036573,189.67822836745222,-4.31491136551,29.1301288605,-171.117080688,0
36.6,19.792113771832238,-0.8558111338496412,398.79566598795566,0.4642166917102476,191.3733499093619,-4.31491136551,29.1301288605,-171.117080688,0
36.7,19.848394679407093,-1.0110774611675264,398.75328536286435,0.46633559161683796,193.0684714512716,-4.31491136551,29.1301288605,-171.117080688,0
36.800000000000004,19.904675586981945,-1.1663437884854118,398.710904737773,0.4684544915234283,194.7635929931813,-4.31491136551,29.1301288605,-171.117080688,0
36.9,19.956809284511294,-1.230521041773858,398.6636734292819,0.47251055732502006,196.43934783213746,-4.31491136551,29.1301288605,-171.117080688,0
37.0,19.99776470194103,-1.04917921781678,398.6033677172466,0.4817880087656696,198.06290217296515,-5.12103128433,33.3573036194,-163.727127075,0
37.1,20.03872011937077,-0.8678373938597023,398.54306200521137,0.4910654602063191,199.68645651379282,-5.12103128433,33.3573036194,-163.727127075,0
37.2,20.079675536800508,-0.6864955699026244,398.48275629317607,0.5003429116469685,201.31001085462051,-5.12103128433,33.3573036194,-163.727127075,0
37.300000000000004,20.120630954230244,-0.5051537459455466,398.4224505811408,0.509620363087618,202.9335651954482,-5.12103128433,33.3573036194,-163.727127075,0
37.4,20.176781961571567,-0.8238875458557624,398.220317581189,0.5259732174025451,205.12976350731674,-5.561764609588067,40.80277255247431,-157.08478674035965,0
37.5,20.23358129167958,-1.1639571684557644,398.0121334927156,0.5426279451421702,207.35039378436704,-5.58908557892,41.2628593445,-156.669723511,0
37.6,20.290380621787598,-1.5040267910557663,397.80394940424213,0.5592826728817952,209.57102406141735,-5.58908557892,41.2628593445,-156.669723511,0
37.7,20.358063748541568,-1.6477157822677286,397.5845238201098,0.5746955294604225,211.84519638890433,-5.58908557892,41.2628593445,-156.669723511,0
37.800000000000004,20.445392676211124,-1.4369278465921698,397.3448067703343,0.5878667460686042,214.21601481312652,-6.08411836624,43.6168518066,-148.425888062,0
37.9,20.532721603880674,-1.226139910916626,397.1050897205588,0.6010379626767851,216.58683323734854,-6.08411836624,43.6168518066,-148.425888062,0
38.0,20.62005053155023,-1.0153519752410671,396.86537267078336,0.6142091792849669,218.95765166157074,-6.08411836624,43.6168518066,-148.425888062,0
38.1,20.732291343356913,-1.546307751574874,396.6461313411845,0.6242693623471541,221.5654326052574,-5.96423602262689,43.88635897727396,-143.46493812945815,0
38.2,20.864078595324475,-2.659252790611462,396.4429557349562,0.6318885565740304,224.3591398193775,-5.86647701263,44.1050071716,-139.40838623,0
38.300000000000004,20.995865847292038,-3.7721978296480505,396.2397801287278,0.6395077508009067,227.15284703349758,-5.86647701263,44.1050071716,-139.40838623,0
38.400000000000006,21.127653099259604,-4.885142868684638,396.03660452249943,0.6471269450277829,229.94655424761766,-5.86647701263,44.1050071716,-139.40838623,0
38.5,21.232752173903453,-4.930743431260703,395.88652808426764,0.6528255558387877,232.55406567504141,-3.737303814893687,45.03185898380908,-130.92063972678977,0
38.6,21.32169589048266,-4.330240215882931,395.76859457065433,0.6573615652326898,235.0488657858505,-3.1839029789,45.273601532,-128.670944214,0
38.7,21.410639607061864,-3.7297370005051587,395.65066105704096,0.6618975746265922,237.54366589665958,-3.1839029789,45.273601532,-128.670944214,0
38.800000000000004,21.49958332364107,-3.1292337851273855,395.5327275434276,0.6664335840204945,240.03846600746866,-3.1839029789,45.273601532,-128.670944214,0
38.900000000000006,21.580365932257553,-2.5498730410570993,395.4340870264705,0.670000016689,242.64522486618654,-3.1839029789,45.273601532,-128.670944214,0
39.0,21.631129212555756,-2.048281490892684,395.40641270718066,0.670000016689,245.66380604448753,-1.16187894344,44.9334793091,-117.108772278,0
39.1,21.68189249285396,-1.5466899407282333,395.37873838789085,0.670000016689,248.68238722278872,-1.16187894344,44.9334793091,-117.108772278,0
39.2,21.732655773152167,-1.0450983905637825,395.35106406860103,0.670000016689,251.70096840108994,-1.16187894344,44.9334793091,-117.108772278,0
39.300000000000004,21.769011609298374,-0.5998024412016747,395.3441149854544,0.6694113094034677,254.64757863168123,-1.16187894344,44.9334793091,-117.108772278,0
39.400000000000006,21.759334245907446,-0.33437646721184466,395.40338506795337,0.666941624502616,257.364234613493,0.743888616562,45.0014724731,-105.982444763,0
39.5,21.74965688251652,-0.0689504932220335,395.4626551504524,0.6644719396017643,260.08089059530454,0.743888616562,45.0014724731,-105.982444763,0
39.6,21.739979519125587,0.19647548076779653,395.5219252329514,0.6620022547009126,262.7975465771163,0.743888616562,45.0014724731,-105.982444763,0
39.7,21.720054954510864,0.4157767441112948,395.59546944423556,0.6579331966960578,265.4133654789268,0.743888616562,45.0014724731,-105.982444763,0
39.800000000000004,21.656239158671273,0.43751476106740034,395.73015318751106,0.6470136384239098,267.59727487708676,2.52647709846,43.5686531067,-94.8772125244,0
39.900000000000006,21.592423362831685,0.45925277802350595,395.8648369307865,0.6360940801517618,269.7811842752468,2.52647709846,43.5686531067,-94.8772125244,0
40.0,21.500560020040542,0.7700915958197732,396.02482630371617,0.6227032629277667,271.8208825554726,2.6572292686537877,43.14970086652492,-94.03296129577612,0
40.1,21.373275461457304,1.44603549285566,396.21677412813847,0.6061914955271752,273.6784567755524,3.4670381546,40.1712112427,-88.6479415894,0
40.2,21.245990902874066,2.1219793898915467,396.40872195256077,0.5896797281265838,275.5360309956321,3.4670381546,40.1712112427,-88.6479415894,0
40.300000000000004,21.118706344290832,2.7979232869274333,396.600669776983,0.5731679607259922,277.39360521571183,3.4670381546,40.1712112427,-88.6479415894,0
