t_sec,airspeed,climb,altitude,throttle,heading,pitch,roll,yaw,is_boundary
0.0,22.0117092133,0.639661312103,383.289978027,0.409999996424,261.0,-1.76437413692,-0.74634295702,-99.0702209473,0
0.1,21.911033781083276,2.1461714711614004,383.3597082061066,0.42818960974290965,261.30316020993627,-1.47219622135,4.57801771164,-98.9914855957,0
0.2,21.810358348866554,3.652681630219801,383.42943838521313,0.4463792230618194,261.60632041987253,-1.47219622135,4.57801771164,-98.9914855957,0
0.30000000000000004,21.70968291664983,5.159191789278202,383.4991685643197,0.4645688363807291,261.9094806298088,-1.47219622135,4.57801771164,-98.9914855957,0
0.4,21.603332734365775,5.007653690321492,383.56731761986737,0.48743663522842257,262.4981894508122,-1.83969819546,23.6809120178,-97.8540802002,0
0.5,21.494566859956432,4.150298758426614,383.6347936047626,0.5122958972786263,263.20845385099676,-1.83969819546,23.6809120178,-97.8540802002,0
0.6000000000000001,21.385800985547085,3.2929438265317366,383.7022695896579,0.5371551593288301,263.9187182511813,-1.83969819546,23.6809120178,-97.8540802002,0
0.7000000000000001,21.312395937586572,2.282921997056654,383.7625800065376,0.5662941404659592,265.67326280776837,-1.36555814743,33.152923584,-95.2544555664,0
0.8,21.24356047482399,1.2531714319875198,383.8219644361928,0.5959861782749735,267.56275690101546,-1.36555814743,33.152923584,-95.2544555664,0
0.9,21.174725012061405,0.22342086691838547,383.88134886584805,0.6256782160839878,269.4522509942626,-1.36555814743,33.152923584,-95.2544555664,0
1.0,21.11176861402107,-0.7217364855849409,383.94601054583796,0.6547111662111654,271.3297832250947,-1.36555814743,33.152923584,-95.2544555664,0
1.1,21.07543825073908,-1.2837747665167005,384.03457266875205,0.6807591361834271,273.1531406884281,-0.52516490221,37.2436447144,-88.4203643799,0
1.2000000000000002,21.03910788745709,-1.84581304744846,384.1231347916661,0.7068071061556888,274.9764981517615,-0.52516490221,37.2436447144,-88.4203643799,0
1.3,21.002777524175098,-2.4078513283802185,384.2116969145801,0.7328550761279504,276.79985561509494,-0.52516490221,37.2436447144,-88.4203643799,0
1.4000000000000001,20.954775070853064,-2.6968365137198242,384.315654331436,0.75,279.0223373650995,0.17884702117625306,37.965235732592014,-86.89760697126063,0
1.5,20.884295243729778,-2.4599932933361948,384.4492590330133,0.75,282.01342745807307,2.76080942154,40.6102905273,-81.3364639282,0
1.6,20.813815416606488,-2.223150072952565,384.58286373459055,0.75,285.00451755104666,2.76080942154,40.6102905273,-81.3364639282,0
1.7000000000000002,20.7433355894832,-1.9863068525689351,384.7164684361678,0.75,287.99560764402025,2.76080942154,40.6102905273,-81.3364639282,0
1.8,20.672855762359912,-1.7494636321853057,384.8500731377451,0.75,290.9866977369939,2.76080942154,40.6102905273,-81.3364639282,0
1.9000000000000001,20.57949044762967,-1.1722210072705779,384.99702179143077,0.75,293.90900092022935,3.171698520238023,41.90161573189945,-77.21237216797189,0
2.0,20.439003045083503,0.10591691462404662,385.17144614910245,0.75,296.6896692448619,4.24471759796,45.2121047974,-66.3144302368,0
2.1,20.298515642537332,1.384054836518674,385.34587050677413,0.75,299.47033756949446,4.24471759796,45.2121047974,-66.3144302368,0
2.2,20.158028239991165,2.662192758413301,385.5202948644458,0.75,302.25100589412705,4.24471759796,45.2121047974,-66.3144302368,0
2.3000000000000003,19.997978573832558,3.279258257225863,385.7354722691358,0.7463631074302256,304.818300389222,5.165168242352866,45.153929046278606,-63.320482132940825,0
2.4000000000000004,19.804765062795845,2.775609725871213,386.019738188141,0.736560602157755,307.0238628923539,7.66422605515,44.9958572388,-55.2507896423,0
2.5,19.61155155175913,2.2719611945165656,386.30400410714617,0.7267580968852843,309.2294253954858,7.66422605515,44.9958572388,-55.2507896423,0
2.6,19.418338040722418,1.768312663161916,386.5882700261513,0.7169555916128136,311.4349878986177,7.66422605515,44.9958572388,-55.2507896423,0
2.7,19.21868795408251,1.7217919578162673,386.88008191519026,0.7065007976105276,313.6998368537114,8.212768806537298,44.63824791666507,-53.66309478299769,0
2.8000000000000003,19.003311831391507,2.792139773087604,387.19033034628313,0.694452312068953,316.10953626009643,10.7252082825,43.4268417358,-46.358089447,0
2.9000000000000004,18.787935708700505,3.8624875883589405,387.50057877737606,0.6824038265273783,318.51923566648145,10.7252082825,43.4268417358,-46.358089447,0
3.0,18.572559586009504,4.932835403630272,387.81082720846894,0.6703553409858036,320.9289350728664,10.7252082825,43.4268417358,-46.358089447,0
3.1,18.371393591822898,5.0274482997739165,388.09316384109616,0.6605800419551943,323.5119906671269,8.82273197174,43.500202179,-37.8049888611,0
3.2,18.17065940592257,5.092411187955782,388.3746523078634,0.6508738190607644,326.100314098225,8.82273197174,43.500202179,-37.8049888611,0
3.3000000000000003,17.969925220022247,5.157374076137647,388.65614077463067,0.6411675961663343,328.6886375293231,8.82273197174,43.500202179,-37.8049888611,0
3.4000000000000004,17.770145000071754,5.012063802065212,388.9100747409866,0.6309248593819717,330.81502699355156,7.44392108917,44.7830085754,-30.1100940704,0
3.5,17.570495229962184,4.837999775752586,389.16024077391046,0.620608757136705,332.8782494102485,7.44392108917,44.7830085754,-30.1100940704,0
3.6,17.370845459852614,4.66393574943996,389.41040680683426,0.6102926548914382,334.9414718269455,7.44392108917,44.7830085754,-30.1100940704,0
3.7,17.171304576457857,4.489405874661768,389.6605113836968,0.600000023842,337.004802836192,7.44392108917,44.7830085754,-30.1100940704,0
3.8000000000000003,17.019512891269102,4.110591292105868,389.883666137916,0.600000023842,339.1157540457647,5.79723739624,46.8657073975,-22.5524158478,0
3.9000000000000004,16.867721206080347,3.7317767095499663,390.10682089213515,0.600000023842,341.22670525533727,5.79723739624,46.8657073975,-22.5524158478,0
4.0,16.71592952089159,3.352962126994067,390.32997564635434,0.600000023842,343.3376564649099,5.79723739624,46.8657073975,-22.5524158478,0
4.1000000000000005,16.595702981840525,3.0020840800780286,390.4955759680218,0.5942650935955589,345.52931315234895,3.99802899361,49.4601249695,-15.7949886322,0
4.2,16.48990890151984,2.6639793907106384,390.6348608096681,0.5859079944625145,347.7578706186895,3.99802899361,49.4601249695,-15.7949886322,0
4.3,16.38411482119915,2.325874701343248,390.77414565131437,0.5775508953294702,349.98642808502996,3.99802899361,49.4601249695,-15.7949886322,0
4.4,16.28100162967395,2.0131380527241785,390.9064267196617,0.5690539789526862,345.4157448652624,3.99802899361,49.4601249695,-15.7949886322,0
4.5,16.202997857601975,1.938000508151886,390.9731098856211,0.5592475230583487,277.1628281121684,1.83339393139,47.7503509521,-7.5317735672,0
4.6000000000000005,16.124994085530002,1.862862963579593,391.0397930515805,0.549441067164011,208.90991135907385,1.83339393139,47.7503509521,-7.5317735672,0
4.7,16.04699031345803,1.7877254190073006,391.1064762175399,0.5396346112696735,140.65699460597986,1.83339393139,47.7503509521,-7.5317735672,0
4.800000000000001,15.968986541386055,1.7125878744350076,391.1731593834993,0.5298281553753358,72.40407785288528,1.83339393139,47.7503509521,-7.5317735672,0
4.9,15.890982769314082,1.6374503298627152,391.2398425494587,0.5200216994809982,4.1511610997912385,1.83339393139,47.7503509521,-7.5317735672,0
5.0,15.839855026780604,1.5435442509137023,391.25708309225604,0.5086042808516261,5.709355367877613,-0.458318442106,42.452331543,4.15416479111,0
5.1000000000000005,15.788786939246384,1.4495965126525219,391.27421389043343,0.4971832864715788,7.422504882247702,-0.458318442106,42.452331543,4.15416479111,0
5.2,15.737718851712165,1.3556487743913426,391.2913446886108,0.48576229209153154,9.135654396617777,-0.458318442106,42.452331543,4.15416479111,0
5.300000000000001,15.697392786630802,1.0760073372362338,391.2824645808935,0.4753269435534758,10.934609338487707,-1.977446422561887,39.12172705335831,9.306321852064588,0
5.4,15.668005431607638,0.6072721292619652,391.2470973047512,0.46589528814052134,12.820940814614515,-2.4405567646,38.1465034485,10.9951095581,0
5.5,15.638618076584473,0.1385369212876968,391.21173002860894,0.4564636327275668,14.707272290741322,-2.4405567646,38.1465034485,10.9951095581,0
5.6000000000000005,15.609230721561309,-0.3301982866865758,391.17636275246673,0.4470319773146122,16.59360376686815,-2.4405567646,38.1465034485,10.9951095581,0
5.7,15.580345652209935,-0.647732879309554,391.13962860376085,0.4387806471232189,18.304837459665215,-2.538640378881899,35.90042397815937,12.763074766914235,0
5.800000000000001,15.552932474508681,-0.5221910798962264,391.0988889887913,0.43398812719780083,19.502966798283257,-2.86246776581,28.4623470306,18.5720081329,0
5.9,15.52551929680743,-0.39664928048289994,391.0581493738218,0.42919560727238276,20.701096136901292,-2.86246776581,28.4623470306,18.5720081329,0
6.0,15.498106119106176,-0.27110748106957344,391.01740975885224,0.4244030873469647,21.899225475519323,-2.86246776581,28.4623470306,18.5720081329,0
6.1000000000000005,15.47004488568539,-0.19239764238048146,390.9794555961089,0.4197374064563022,23.078774204336302,-2.5817007572649713,24.762840960689562,20.395165223989558,0
6.2,15.434656195139583,-0.6432089142137729,390.9729960736348,0.4165058732182837,24.048235100316713,-2.10482859612,18.5486850739,23.5002994537,0
6.300000000000001,15.399267504593777,-1.0940201860470684,390.96653655116074,0.41327433998026514,25.017695996297128,-2.10482859612,18.5486850739,23.5002994537,0
6.4,15.36387881404797,-1.5448314578803597,390.9600770286867,0.41004280674224663,25.98715689227754,-2.10482859612,18.5486850739,23.5002994537,0
6.5,15.326817505284156,-1.273860438823659,390.9946983264623,0.4053722227912147,26.231388557510872,-1.82295405865,7.18430137634,26.1451778412,0
6.6000000000000005,15.2897337407222,-0.9931991047552038,391.0298711563192,0.40068231881127236,26.46588363071311,-1.82295405865,7.18430137634,26.1451778412,0
6.7,15.252649976160242,-0.7125377706867511,391.0650439861761,0.3959924148313301,26.70037870391534,-1.82295405865,7.18430137634,26.1451778412,0
6.800000000000001,15.215566211598286,-0.4318764366182959,391.100216816033,0.39130251085138773,26.934873777117573,-1.82295405865,7.18430137634,26.1451778412,0
6.9,15.18195385288964,-0.3256455070023584,391.1237423888542,0.38724958814375415,27.0,-2.35925841331,-4.07075071335,27.6293087006,0
7.0,15.149676329665152,-0.28648708438163173,391.14278932315233,0.38344159940263195,27.0,-2.35925841331,-4.07075071335,27.6293087006,0
7.1000000000000005,15.118309046623827,-0.22634856550340776,391.16138575951146,0.379999995232,26.93085714252862,-2.3854203435739008,-5.234517421836135,27.44791251429879,0
7.2,15.095492031969796,0.03086481022111437,391.1757504794984,0.379999995232,26.212226381337672,-2.44283556938,-7.79019117355,27.053314209,0
7.300000000000001,15.072675017315763,0.2880781859456388,391.1901151994854,0.379999995232,25.49359562014672,-2.44283556938,-7.79019117355,27.053314209,0
7.4,15.05244666686973,0.356772376730708,391.20216345672145,0.379999995232,24.85454290331518,-2.5565479180976,-8.497893893889405,26.66106046876431,0
7.5,15.037896333239956,0.011965620206142447,391.2091307481015,0.379999995232,24.39003792144351,-2.99550151825,-10.8333473206,25.1585979462,0
7.6000000000000005,15.023345999610182,-0.3328411363184262,391.21609803948155,0.379999995232,23.925532939571838,-2.99550151825,-10.8333473206,25.1585979462,0
7.7,15.00879566598041,-0.6776478928429919,391.2230653308616,0.379999995232,23.46102795770017,-2.99550151825,-10.8333473206,25.1585979462,0
7.800000000000001,14.994360444564613,-1.0183254728633548,391.2297644359309,0.379999995232,22.996071602896688,-2.99550151825,-10.8333473206,25.1585979462,0
7.9,14.995188260245797,-0.8115044688015635,391.2009039989891,0.379999995232,22.47126650081706,-3.86137008667,-13.2424278259,23.0593338013,0
8.0,14.996016075926983,-0.6046834647397719,391.17204356204724,0.379999995232,21.94646139873743,-3.86137008667,-13.2424278259,23.0593338013,0
8.1,14.996843891608167,-0.39786246067798037,391.14318312510545,0.379999995232,21.4216562966578,-3.86137008667,-13.2424278259,23.0593338013,0
8.200000000000001,15.001422085808741,-0.2567251152773306,391.10357023596976,0.3804562213814587,20.908754683087608,-4.1218652145622565,-12.677858333824659,22.597189960805938,0
8.3,15.021331244930176,-0.38409236523993084,391.02000299221504,0.3827774291740151,20.444512681828733,-4.65516233444,-11.5200128555,21.6524467468,0
8.4,15.04124040405161,-0.5114596152025311,390.93643574846027,0.38509863696657143,19.98027068056986,-4.65516233444,-11.5200128555,21.6524467468,0
8.5,15.061149563173045,-0.6388268651651314,390.8528685047055,0.38741984475912783,19.516028679310985,-4.65516233444,-11.5200128555,21.6524467468,0
8.6,15.081058722294479,-0.7661941151277316,390.7693012609508,0.38974105255168423,19.05178667805211,-4.65516233444,-11.5200128555,21.6524467468,0
8.700000000000001,15.106355691913736,-0.9978942226306671,390.6476635714964,0.39499199934804075,18.00159780498471,-6.20001745224,-9.1866235733,19.0525817871,0
8.8,15.13232913918271,-1.2426940570608447,390.52124586878045,0.40061079556233387,16.877839164966407,-6.20001745224,-9.1866235733,19.0525817871,0
8.9,15.158302586451684,-1.487493891491022,390.39482816606454,0.406229591776627,15.754080524948106,-6.20001745224,-9.1866235733,19.0525817871,0
9.0,15.193213641576982,-1.7222387911460446,390.2571042549213,0.41220383483128015,14.66942441624525,-6.485223490082597,-8.084850779619998,17.664846913384693,0
9.1,15.24635589771021,-1.9364733327774986,390.0963176001681,0.41890312902919336,13.664530825633436,-6.88411903381,-6.54588365555,15.7377748489,0
9.200000000000001,15.299498153843437,-2.1507078744089565,389.9355309454149,0.4256024232271067,12.659637235021606,-6.88411903381,-6.54588365555,15.7377748489,0
9.3,15.347634519240062,-2.2519608091986525,389.79394902450144,0.43124270879022186,11.87572971776125,-6.33646013648817,-5.272523231285559,13.54078999613054,0
9.4,15.386206768376848,-2.137354213703979,389.6890591364043,0.4348596817729559,11.514032074536797,-6.08118343353,-4.68878030777,12.5225505829,0
9.5,15.424779017513636,-2.0227476182093054,389.5841692483072,0.43847665475569003,11.152334431312344,-6.08118343353,-4.68878030777,12.5225505829,0
9.600000000000001,15.463351266650422,-1.9081410227146298,389.4792793602101,0.4420936277384242,10.790636788087884,-6.08118343353,-4.68878030777,12.5225505829,0
9.700000000000001,15.50192351578721,-1.7935344272199565,389.37438947211297,0.4457106007211583,10.428939144863431,-6.08118343353,-4.68878030777,12.5225505829,0
9.8,15.540495764923996,-1.6789278317252827,389.2694995840159,0.4493275737038924,10.067241501638978,-6.08118343353,-4.68878030777,12.5225505829,0
9.9,15.545329947103278,-1.6217734488477822,389.230753442208,0.449999988079,10.0,-2.94805645943,-1.80188667774,10.2835512161,0
10.0,15.542459761927867,-1.5777387551303024,389.20711177334675,0.449999988079,10.0,-2.94805645943,-1.80188667774,10.2835512161,0
10.100000000000001,15.539589576752459,-1.533704061412822,389.1834701044855,0.449999988079,10.0,-2.94805645943,-1.80188667774,10.2835512161,0
10.200000000000001,15.497065906427022,-1.0377741965258764,389.19952870260744,0.449999988079,10.244241328499852,-1.70842123032,1.64699494839,10.7243728638,0
10.3,15.44770378564479,-0.4639126510309155,389.2224338189574,0.449999988079,10.530603348740375,-1.70842123032,1.64699494839,10.7243728638,0
10.4,15.39834166486256,0.10994889446404565,389.2453389353075,0.449999988079,10.816965368980899,-1.70842123032,1.64699494839,10.7243728638,0
10.5,15.344034168429298,0.39695265464746987,389.28551864285384,0.44840381395537754,10.920191217705241,-0.9794751430213695,7.464444175691051,11.036711308314768,0
10.600000000000001,15.28096640993621,0.1758151631736073,389.35629864379234,0.44398016936181595,10.699008777085469,-0.688286006451,9.78444004059,11.1608867645,0
10.700000000000001,15.217898651443123,-0.04532232830025146,389.4270786447309,0.43955652476825446,10.4778263364657,-0.688286006451,9.78444004059,11.1608867645,0
10.8,15.154830892950036,-0.2664598197741101,389.4978586456694,0.435132880174693,10.256643895845931,-0.688286006451,9.78444004059,11.1608867645,0
10.9,15.091763134456949,-0.48759731124796885,389.56863864660795,0.43070923558113144,10.035461455226162,-0.688286006451,9.78444004059,11.1608867645,0
11.0,15.050633101967797,-0.310736180599955,389.6104553254261,0.430000007153,10.70309866959484,-1.2456905002219205,15.060875839055644,10.766232412319912,0
11.100000000000001,15.013691845920917,-0.057881428183577,389.6467417646302,0.430000007153,11.540446583767897,-1.24973344803,15.1010036469,10.7640132904,0
11.200000000000001,14.976750589874037,0.19497332423279656,389.6830282038343,0.430000007153,12.377794497940942,-1.24973344803,15.1010036469,10.7640132904,0
11.3,14.946140484646119,0.3876473617721391,389.7107468365431,0.4307546509904796,13.301857822873647,-1.9189966577510873,16.23453865922555,11.912903077462138,0
11.4,14.933840469163947,0.40627495469647223,389.7136868294216,0.4336917726721046,14.476707615977894,-2.75666260719,17.6540565491,13.3431396484,0
11.5,14.921540453681777,0.42490254762080537,389.71662682230016,0.4366288943537296,15.651557409082143,-2.75666260719,17.6540565491,13.3431396484,0
11.600000000000001,14.909240438199605,0.44353014054513884,389.71956681517867,0.43956601603535467,16.826407202186413,-2.75666260719,17.6540565491,13.3431396484,0
11.700000000000001,14.913344044873245,0.3771779402483588,389.6729898703025,0.4470512701263985,17.940169630697063,-4.16213750839,22.3626861572,17.6519184113,0
11.8,14.920291627347002,0.2960923796532162,389.6178279329574,0.4553250560663994,19.043341045531168,-4.16213750839,22.3626861572,17.6519184113,0
11.9,14.927239209820758,0.21500681905807356,389.5626659956123,0.4635988420064002,20.146512460365273,-4.16213750839,22.3626861572,17.6519184113,0
12.0,14.9425742883306,0.08943544089110608,389.4928003121019,0.47166464645011136,21.27744126266156,-4.41834543649493,25.852959926935085,19.444166742041027,0
12.100000000000001,14.986580114400008,-0.1882005868560539,389.3726732165239,0.4790195134517625,22.503252380897862,-4.70603132248,29.7526550293,21.4494171143,0
12.200000000000001,15.030585940469413,-0.4658366146032089,389.25254612094585,0.4863743804534136,23.729063499134146,-4.70603132248,29.7526550293,21.4494171143,0
12.3,15.074591766538818,-0.743472642350364,389.1324190253678,0.4937292474550647,24.95487461737043,-4.70603132248,29.7526550293,21.4494171143,0
12.4,15.121993696922367,-1.0165741037638019,389.0146221468343,0.5007688426076261,26.19221083520839,-4.402881117867011,30.131576512879192,22.17716241495488,0
12.5,15.189039429340713,-1.2634466525368915,388.910303747784,0.5059848371820581,27.49621072237588,-2.75274538994,31.7779712677,26.0340709686,0
12.600000000000001,15.256085161759062,-1.5103192013099855,388.80598534873366,0.5112008317564902,28.8002106095434,-2.75274538994,31.7779712677,26.0340709686,0
12.700000000000001,15.323130894177408,-1.7571917500830754,388.70166694968333,0.5164168263309221,30.10421049671089,-2.75274538994,31.7779712677,26.0340709686,0
12.8,15.397102342692182,-1.896918263122983,388.59574523739553,0.5207137065261824,31.49960839590428,-2.767187032593257,31.81313673670005,26.482975186791222,0
12.9,15.486271797007287,-1.8015201984465665,388.4863051649059,0.5229936536749052,33.09557292208156,-2.91977834702,32.1841201782,31.1433944702,0
13.0,15.575441251322392,-1.7061221337701502,388.37686509241627,0.525273600823628,34.691537448258835,-2.91977834702,32.1841201782,31.1433944702,0
13.100000000000001,15.664610705637498,-1.6107240690937321,388.26742501992663,0.5275535479723507,36.28750197443614,-2.91977834702,32.1841201782,31.1433944702,0
13.200000000000001,15.753780159952603,-1.5153260044173158,388.15798494743706,0.5298334951210735,37.883466500613416,-2.91977834702,32.1841201782,31.1433944702,0
13.3,15.847914797867217,-1.3969264402532442,388.04158798377284,0.537743011297028,39.80670744507016,-3.7442111314150504,32.21617798752114,37.63206734027649,0
13.4,15.942440538989397,-1.2767150679156953,387.9246430318221,0.5460959637446988,41.75572766926228,-3.9068467617,32.2214584351,38.8988838196,0
13.5,16.036966280111574,-1.1565036955781465,387.80769807987133,0.5544489161923697,43.70474789345439,-3.9068467617,32.2214584351,38.8988838196,0
13.600000000000001,16.134633042457455,-1.1377122659054828,387.68912546486297,0.5611042052044282,45.662522324104415,-4.169368621380471,32.710202806436804,41.88946813408082,0
13.700000000000001,16.238522828298795,-1.3198550678611816,387.5673281070947,0.5643960659889088,47.637640678463185,-4.4436173439,33.2015609741,45.1934280396,0
13.8,16.342412614140137,-1.5019978698168805,387.4455307493264,0.5676879267733894,49.61275903282196,-4.4436173439,33.2015609741,45.1934280396,0
13.9,16.444639349673203,-1.6368053279328076,387.33640057020403,0.5707369997047511,51.58960604844919,-4.202624831973366,33.251297430024366,46.33816401660506,0
14.0,16.542941709871513,-1.6599134256006314,387.2571617077735,0.5732131551136423,53.570532264573465,-3.20335435867,33.4579696655,51.2924308777,0
14.100000000000001,16.641244070069828,-1.6830215232684556,387.17792284534295,0.5756893105225337,55.55145848069777,-3.20335435867,33.4579696655,51.2924308777,0
14.200000000000001,16.73954643026814,-1.706129620936279,387.0986839829124,0.578165465931425,57.532384696822035,-3.20335435867,33.4579696655,51.2924308777,0
14.3,16.823930266646954,-1.6185679077811344,387.0338085806488,0.579999983311,59.41131315929246,-2.717735875011394,32.68277939648809,53.72984469965945,0
14.4,16.868519432700356,-1.2145883981849672,387.00999997321816,0.579999983311,60.99861824034491,-1.62285506725,30.9340324402,59.1961517334,0
14.5,16.91310859875376,-0.8106088885887999,386.9861913657876,0.579999983311,62.58592332139735,-1.62285506725,30.9340324402,59.1961517334,0
14.600000000000001,16.95769776480716,-0.40662937899262563,386.962382758357,0.579999983311,64.17322840244982,-1.62285506725,30.9340324402,59.1961517334,0
14.700000000000001,16.98624338008947,-0.11458630441666247,386.9359625622999,0.5811682902955332,65.817815669124,-1.030138823561198,31.000503317490296,61.87411927747112,0
14.8,16.997348143142215,0.05577131223633122,386.9067033231924,0.5836066571169894,67.52467407197426,-0.174232572317,31.0965709686,65.7197036743,0
14.9,17.00845290619496,0.22612892888932487,386.87744408408486,0.5860450239384457,69.23153247482452,-0.174232572317,31.0965709686,65.7197036743,0
15.0,17.019557669247707,0.39648654554231855,386.84818484497737,0.588483390759902,70.93839087767478,-0.174232572317,31.0965709686,65.7197036743,0
15.100000000000001,17.026850890195067,0.5124348967521768,386.829986572,0.5891859949992415,72.56978568573558,0.4756045108658972,30.82281053918736,69.74969410291865,0
15.200000000000001,17.027873096216357,0.538865329419842,386.829986572,0.5870328015693971,74.07702252407842,0.886852145195,30.6754074097,72.506690979,0
15.3,17.02889530223765,0.5652957620875071,386.829986572,0.5848796081395528,75.58425936242125,0.886852145195,30.6754074097,72.506690979,0
15.4,17.02991750825894,0.5917261947551723,386.829986572,0.5827264147097083,77.09149620076408,0.886852145195,30.6754074097,72.506690979,0
15.5,17.030939714280233,0.6181566274228374,386.829986572,0.580573221279864,78.59873303910692,0.886852145195,30.6754074097,72.506690979,0
15.600000000000001,17.016287859715792,0.45145474414736836,386.8738010343213,0.5776939908153991,79.92239787783899,2.29318571091,26.8848190308,79.5490341187,0
15.700000000000001,16.99594915708765,0.21468077387488527,386.9335122190554,0.5745513402702266,81.17945929464175,2.29318571091,26.8848190308,79.5490341187,0
15.8,16.97561045445951,-0.02209319639759777,386.9932234037895,0.5714086897250541,82.43652071144449,2.29318571091,26.8848190308,79.5490341187,0
15.9,16.937123898924742,0.2216676260772519,387.07148700018905,0.5683387559841138,83.66449537888376,3.21800732613,23.9261245728,83.3680419922,0
16.0,16.883893683153982,0.8558240370712491,387.16482292804073,0.5653278987554505,84.86883941893194,3.21800732613,23.9261245728,83.3680419922,0
16.1,16.83066346738322,1.4899804480652576,387.2581588558925,0.5623170415267873,86.07318345898015,3.21800732613,23.9261245728,83.3680419922,0
16.2,16.77267598084853,1.9536296058075902,387.3580189224664,0.5584426726146601,87.20764375472164,3.552639018795165,21.65021122983486,85.36153075700268,0
16.3,16.698801357905513,1.8478615229853477,387.4796666666753,0.5516845645617247,88.10872389751043,3.94212532043,19.0061168671,87.6684265137,0
16.400000000000002,16.624926734962497,1.7420934401631054,387.60131441088424,0.5449264565087893,89.0098040402992,3.94212532043,19.0061168671,87.6684265137,0
16.5,16.551052112019487,1.636325357340867,387.72296215509317,0.5381683484558543,89.91088418308794,3.94212532043,19.0061168671,87.6684265137,0
16.6,16.47717748907647,1.5305572745186247,387.8446098993021,0.531410240402919,90.81196432587673,3.94212532043,19.0061168671,87.6684265137,0
16.7,16.370741608880067,1.535496756485312,388.01359828363553,0.5248094164630706,91.3460373251329,5.22394704819,13.7155237198,91.7286148071,0
16.8,16.2557190581084,1.5696307312086617,388.1950707830142,0.5182500696337428,91.78332753078384,5.22394704819,13.7155237198,91.7286148071,0
16.900000000000002,16.14069650733673,1.6037647059320113,388.37654328239296,0.5116907228044151,92.22061773643478,5.22394704819,13.7155237198,91.7286148071,0
17.0,16.02567395656507,1.63789868065536,388.55801578177164,0.5051313759750875,92.6579079420857,5.22394704819,13.7155237198,91.7286148071,0
17.1,15.912562112000632,1.7015661372819677,388.74552066796105,0.498178440769182,93.06071863861472,5.528892748832023,11.032831679688027,92.55185250121713,0
17.2,15.806316340296256,1.8713613898989825,388.95470277862665,0.4898111560100993,93.33962811950214,5.94107294083,7.4103140831,93.6756286621,0
17.3,15.700070568591874,2.041156642516003,389.1638848892922,0.4814438712510163,93.61853760038956,5.94107294083,7.4103140831,93.6756286621,0
17.400000000000002,15.593824796887494,2.2109518951330243,389.37306699995776,0.47307658649193324,93.897447081277,5.94107294083,7.4103140831,93.6756286621,0
17.5,15.508383678720321,2.2880155844214385,389.53754393411236,0.46717538649919493,93.85876946032288,5.301414370725254,4.175423964127203,94.16927914347795,0
17.6,15.435040652719808,2.3111550399848313,389.6760244081581,0.4627082368616181,93.63541209826408,4.80993270874,1.68744492531,94.5476760864,0
17.7,15.361697626719296,2.334294495548223,389.81450488220395,0.45824108722404144,93.4120547362053,4.80993270874,1.68744492531,94.5476760864,0
17.8,15.288354600718783,2.357433951111616,389.9529853562497,0.45377393758646456,93.18869737414653,4.80993270874,1.68744492531,94.5476760864,0
17.900000000000002,15.220352901756419,2.35151175966912,390.08200616284455,0.4496240796709739,92.96240912334697,4.80993270874,1.68744492531,94.5476760864,0
18.0,15.181430681676394,2.1873709187491372,390.1595262472573,0.4472016347871224,92.72016440393303,3.02743792534,-1.88208401203,93.9753875732,0
18.1,15.14250846159637,2.023230077829149,390.2370463316701,0.44477918990327076,92.47791968451908,3.02743792534,-1.88208401203,93.9753875732,0
18.2,15.103586241516345,1.8590892369091665,390.3145664160829,0.4423567450194192,92.23567496510513,3.02743792534,-1.88208401203,93.9753875732,0
18.3,15.065152660937093,1.6950068895758403,390.39089207197776,0.439999997616,91.99243351729267,3.02743792534,-1.88208401203,93.9753875732,0
18.400000000000002,15.044247908968604,1.5330228663726788,390.42437032657597,0.439999997616,91.71343670946254,0.533594310284,-4.13633346558,92.9444274902,0
18.5,15.023343157000115,1.3710388431695233,390.4578485811741,0.439999997616,91.43443990163242,0.533594310284,-4.13633346558,92.9444274902,0
18.6,15.002438405031624,1.209054819966362,390.4913268357723,0.439999997616,91.15544309380229,0.533594310284,-4.13633346558,92.9444274902,0
18.7,14.988428331437117,0.9677933946078991,390.50575220552423,0.439999997616,90.78853171139586,0.032494937782479805,-4.36584078992648,92.52574590362939,0
18.8,14.983092461978488,0.6267929629670619,390.4962071152243,0.439999997616,90.3110148844669,-0.816618740559,-4.75487661362,91.8171844482,0
18.900000000000002,14.977756592519862,0.28579253132622473,390.4866620249243,0.439999997616,89.83349805753794,-0.816618740559,-4.75487661362,91.8171844482,0
19.0,14.972420723061235,-0.05520790031460021,390.4771169346244,0.439999997616,89.35598123060899,-0.816618740559,-4.75487661362,91.8171844482,0
19.1,14.968418424051524,-0.3250702024466149,390.46197573088176,0.4408917541744002,88.82164851822616,-0.8868812321241553,-4.191522912879126,90.60274730006482,0
19.200000000000003,14.968322190950765,-0.386566892753252,390.43044335113575,0.44439549114574184,88.1209004556544,-0.965619146824,-3.57579064369,89.2443847656,0
19.3,14.968225957850006,-0.4480635830598869,390.39891097138974,0.44789922811708344,87.42015239308265,-0.965619146824,-3.57579064369,89.2443847656,0
19.400000000000002,14.971536615988644,-0.4813946250840029,390.3550964522216,0.4509579706056198,86.7126058244471,-1.2849272858751863,-3.3095250012339372,88.64131581386711,0
19.5,14.979948612682547,-0.4725515859821651,390.29289116358876,0.4533503966923398,85.99487945297537,-2.03434562683,-2.68610453606,87.235710144,0
19.6,14.98836060937645,-0.46370854688032703,390.23068587495595,0.4557428227790598,85.27715308150361,-2.03434562683,-2.68610453606,87.235710144,0
19.700000000000003,14.996772606070355,-0.454865507778489,390.16848058632314,0.4581352488657799,84.55942671003187,-2.03434562683,-2.68610453606,87.235710144,0
19.8,15.005339470905728,-0.47454350559860936,390.10497247193405,0.4604552160052704,84.0,-2.0496079513644117,-2.052980602292167,85.9318955969101,0
19.900000000000002,15.014453635552634,-0.5950140743365828,390.0368602066583,0.46251911519052646,84.0,-2.06084704399,-1.59241592884,84.9793701172,0
20.0,15.023567800199539,-0.715484643074552,389.96874794138245,0.4645830143757824,84.0,-2.06084704399,-1.59241592884,84.9793701172,0
20.1,15.032681964846445,-0.8359552118125254,389.9006356761066,0.4666469135610385,84.0,-2.06084704399,-1.59241592884,84.9793701172,0
20.200000000000003,15.041796129493349,-0.9564257805504988,389.8325234108308,0.46871081274629456,84.0,-2.06084704399,-1.59241592884,84.9793701172,0
20.3,15.052675429884626,-0.9537854481890985,389.77289820839064,0.4708133558239008,83.91866422083999,-1.7446894175707872,-0.5948031109769909,84.79304586878199,0
20.400000000000002,15.06649206066245,-0.7462784975704548,389.72739617332684,0.47298020550207137,83.70197904637028,-1.12742638588,1.35086214542,84.4309616089,0
20.5,15.080308691440273,-0.5387715469518186,389.681894138263,0.47514705518024186,83.48529387190058,-1.12742638588,1.35086214542,84.4309616089,0
20.6,15.094125322218096,-0.33126459633317507,389.63639210319917,0.4773139048584124,83.26860869743088,-1.12742638588,1.35086214542,84.4309616089,0
20.700000000000003,15.10794195299592,-0.1237576457145314,389.59089006813537,0.47948075453658295,83.05192352296118,-1.12742638588,1.35086214542,84.4309616089,0
20.8,15.128611428990526,-0.3197566971053826,389.53057782254297,0.48224583361626233,83.0,-1.5031252476492913,3.3572179511250795,83.69955747186395,0
20.900000000000002,15.151440532924676,-0.6429179429054566,389.4655982390149,0.48519944065606413,83.0,-1.67063879967,4.23597145081,83.3646850586,0
21.0,15.174269636858826,-0.9660791887055189,389.4006186554869,0.48815304769586587,83.0,-1.67063879967,4.23597145081,83.3646850586,0
21.1,15.200753296545102,-1.2138948180971554,389.3372925669269,0.490000009537,83.0,-1.8200910213282755,4.614913066557322,83.30000529577968,0
21.200000000000003,15.233336314027898,-1.3359605878493603,389.2767261181453,0.490000009537,83.0,-2.18722605705,5.5177822113,83.1423187256,0
21.3,15.265919331510693,-1.458026357601561,389.21615966936366,0.490000009537,83.0,-2.18722605705,5.5177822113,83.1423187256,0
21.400000000000002,15.298502348993487,-1.580092127353766,389.15559322058203,0.490000009537,83.0,-2.18722605705,5.5177822113,83.1423187256,0
21.5,15.31933789721154,-1.5091586795019671,389.1012551433805,0.4923209947474381,83.23209874239639,-1.90364801884,5.49638223648,83.744178772,0
21.6,15.33897676842696,-1.4185650205844427,389.0475515304083,0.49487841127445953,83.48784063899957,-1.90364801884,5.49638223648,83.744178772,0
21.700000000000003,15.358615639642379,-1.327971361666918,388.9938479174362,0.49743582780148093,83.74358253560276,-1.90364801884,5.49638223648,83.744178772,0
21.8,15.378254510857797,-1.2373777027493968,388.940144304464,0.49999324432850223,83.99932443220594,-1.90364801884,5.49638223648,83.744178772,0
21.900000000000002,15.370241440731805,-1.0140616155051123,388.92396821536767,0.5,84.0,0.0697209686041,4.49682712555,84.541595459,0
22.0,15.362155131769855,-0.7903940000973706,388.9078915215409,0.5,84.0,0.0697209686041,4.49682712555,84.541595459,0
22.1,15.354068822807905,-0.5667263846896209,388.8918148277141,0.5,84.0,0.0697209686041,4.49682712555,84.541595459,0
22.200000000000003,15.345982513845955,-0.3430587692818712,388.87573813388735,0.5,84.0,0.0697209686041,4.49682712555,84.541595459,0
22.3,15.32958936753816,-0.2637374038920492,388.8874339810217,0.5,84.0,1.81804561615,4.86833715439,84.4110794067,0
22.400000000000002,15.308579635339632,-0.2646375275561657,388.9145646218582,0.5,84.0,1.81804561615,4.86833715439,84.4110794067,0
22.5,15.287569903141103,-0.2655376512202822,388.9416952626946,0.5,84.0,1.81804561615,4.86833715439,84.4110794067,0
22.6,15.266560170942574,-0.2664377748843988,388.9688259035311,0.5,84.0,1.81804561615,4.86833715439,84.4110794067,0
22.700000000000003,15.247806545413827,-0.17215282280209734,389.00533524469097,0.498508661818214,84.14913396040765,1.50338447094,4.94000959396,84.4695510864,0
22.8,15.230628143397343,-0.011409235877443746,389.04839283530276,0.4959760648164653,84.40239390211653,1.50338447094,4.94000959396,84.4695510864,0
22.900000000000002,15.21344974138086,0.14933435104721554,389.0914504259145,0.49344346781471654,84.65565384382542,1.50338447094,4.94000959396,84.4695510864,0
23.0,15.196271339364376,0.31007793797186906,389.13450801652624,0.49091087081296786,84.9089137855343,1.50338447094,4.94000959396,84.4695510864,0
23.1,15.186637969645734,0.518978449650451,389.14777805698407,0.4922136847857906,85.22136773599746,0.193853154778,6.75065040588,85.701423645,0
23.200000000000003,15.181242329685878,0.7549266961915806,389.14431767366835,0.4956706890367345,85.56706849078667,0.193853154778,6.75065040588,85.701423645,0
23.3,15.175846689726024,0.9908749427327019,389.1408572903526,0.49912769328767836,85.91276924557586,0.193853154778,6.75065040588,85.701423645,0
23.400000000000002,15.171867244102087,0.9062508483843985,389.11031267653306,0.5,86.0,-0.155318722129,7.55644083023,86.3982620239,0
23.5,15.16836574833755,0.7134371494251244,389.0706274357297,0.5,86.0,-0.155318722129,7.55644083023,86.3982620239,0
23.6,15.164864252573011,0.5206234504658434,389.0309421949264,0.5,86.0,-0.155318722129,7.55644083023,86.3982620239,0
23.700000000000003,15.162129382993394,0.24357628603162984,388.9916335640964,0.5009296409287832,86.0,0.07466000100321549,7.135285285366013,86.3018205867227,0
23.8,15.16210765219669,-0.3315784652483291,388.95365777989326,0.5051493401776186,86.0,0.462109029293,6.47491836548,86.1271362305,0
23.900000000000002,15.162085921399985,-0.9067332165283085,388.9156819956901,0.5093690394264542,86.0,0.462109029293,6.47491836548,86.1271362305,0
24.0,15.16325511271627,-0.8009911303858808,388.88916812116474,0.509999990463,86.23143695106596,0.726416349411,6.35129737854,86.6359786987,0
24.1,15.164633684434074,-0.5755380642751917,388.8646694071813,0.509999990463,86.50356368462211,0.726416349411,6.35129737854,86.6359786987,0
24.200000000000003,15.166012256151877,-0.3500849981645028,388.84017069319776,0.509999990463,86.77569041817824,0.726416349411,6.35129737854,86.6359786987,0
24.3,15.167214150018701,-0.14752618532795195,388.81819337294587,0.509999990463,87.0,0.8616545050698394,6.375097932897164,86.80120416218374,0
24.400000000000002,15.167587250587873,-0.05236399047834103,388.8080438749925,0.509999990463,87.0,1.48541891575,6.48419189453,87.5637817383,0
24.5,15.167960351157044,0.042798204371266496,388.79789437703914,0.509999990463,87.0,1.48541891575,6.48419189453,87.5637817383,0
24.6,15.168333451726216,0.13796039922087738,388.78774487908584,0.509999990463,87.0,1.48541891575,6.48419189453,87.5637817383,0
24.700000000000003,15.165843190711064,0.10594317570103017,388.78138054936454,0.509999990463,87.0,1.3636071446750524,6.529402309517575,87.64423504743904,0
24.8,15.15412437635737,-0.3359706017202617,388.7872157361544,0.509999990463,87.0,0.997551143169,6.66495990753,87.882194519,0
24.900000000000002,15.142405562003674,-0.7778843791415693,388.79305092294425,0.509999990463,87.0,0.997551143169,6.66495990753,87.882194519,0
25.0,15.130686747649978,-1.2197981565628613,388.7988861097341,0.509999990463,87.0,0.997551143169,6.66495990753,87.882194519,0
25.1,15.100226894027552,-0.8327427548406201,388.82572006945634,0.509999990463,87.0,2.49476289749,5.32426929474,87.8266448975,0
25.200000000000003,15.06540522061477,-0.25275172562541504,388.8574413175534,0.509999990463,87.0,2.49476289749,5.32426929474,87.8266448975,0
25.3,15.030583547201989,0.3272393035897696,388.88916256565045,0.509999990463,87.0,2.49476289749,5.32426929474,87.8266448975,0
25.400000000000002,14.99516005938149,0.8817768471894946,388.9219360798878,0.5099276561389668,87.00723343930186,2.49476289749,5.32426929474,87.8266448975,0
25.5,14.939148215334718,0.5655385796186712,388.99070811769406,0.5073807302938736,87.26192626671171,3.48777985573,4.26565027237,87.7233734131,0
25.6,14.883136371287945,0.24930031204783643,389.05948015550035,0.5048338044487805,87.5166190941216,3.48777985573,4.26565027237,87.7233734131,0
25.700000000000003,14.827124527241171,-0.0669379555229982,389.12825219330665,0.5022868786036871,87.77131192153146,3.48777985573,4.26565027237,87.7233734131,0
25.8,14.772850624966491,-0.33551765424121976,389.2003538752947,0.49948242011063704,88.02587898058538,3.48777985573,4.26565027237,87.7233734131,0
25.900000000000002,14.733860337436434,-0.18498365345591433,389.3017367447937,0.4944131965726692,88.27934002151459,3.67679548264,0.289089292288,88.0978164673,0
26.0,14.694870049906378,-0.03444965267061423,389.4031196142926,0.48934397303470156,88.5328010624438,3.67679548264,0.289089292288,88.0978164673,0
26.1,14.655879762376319,0.1160843481146912,389.50450248379155,0.4842747494967337,88.786262103373,3.67679548264,0.289089292288,88.0978164673,0
26.200000000000003,14.619828808917948,0.34897680321919866,389.5980914060702,0.479999989271,89.0,2.9821736830263195,0.6227883003846083,88.55875846552019,0
26.3,14.599593498782937,1.025014510414147,389.64974352010853,0.479999989271,89.0,1.70624625683,1.23579704762,89.3991851807,0
26.400000000000002,14.579358188647925,1.7010522176091194,389.7013956341468,0.479999989271,89.0,1.70624625683,1.23579704762,89.3991851807,0
26.5,14.558426799414647,1.64186724900546,389.71810428922913,0.479999989271,88.83770369239683,1.35954141617,3.11942100525,89.9240341187,0
26.6,14.53735644394007,1.4359013584773677,389.7278367814568,0.479999989271,88.64300631442536,1.35954141617,3.11942100525,89.9240341187,0
26.700000000000003,14.51628608846549,1.229935467949275,389.73756927368447,0.479999989271,88.44830893645388,1.35954141617,3.11942100525,89.9240341187,0
26.8,14.495215732990912,1.02396957742119,389.74730176591214,0.479999989271,88.25361155848242,1.35954141617,3.11942100525,89.9240341187,0
26.900000000000002,14.474145377516333,0.8180036868930978,389.7570342581398,0.479999989271,88.05891418051094,1.35954141617,3.11942100525,89.9240341187,0
27.0,14.464833832511085,0.4291120946290844,389.7674873115414,0.479999989271,88.1876614993477,1.1794139075069554,4.119813705577526,89.03065898908483,0
27.1,14.46062424927681,-0.03914806468680987,389.7782530050329,0.479999989271,88.4567463533836,1.13211464882,4.37613105774,88.7979278564,0
27.200000000000003,14.456414666042535,-0.5074082240027042,389.78901869852444,0.479999989271,88.72583120741949,1.13211464882,4.37613105774,88.7979278564,0
27.3,14.45220508280826,-0.975668383318582,389.79978439201597,0.479999989271,88.99491606145537,0.8636809184511064,4.276418357854785,88.83775039633721,0
27.400000000000002,14.466042875472876,-0.7334431669731281,389.78650093486056,0.48224789496862075,89.22479011420243,-0.178101882339,3.88948154449,89.0020141602,0
27.5,14.48022821143972,-0.47753593751799217,389.7727543565689,0.4845390892071147,89.45390907371934,-0.178101882339,3.88948154449,89.0020141602,0
27.6,14.494413547406566,-0.22162870806284718,389.75900777827724,0.48683028344560875,89.68302803323625,-0.178101882339,3.88948154449,89.0020141602,0
27.700000000000003,14.508598883373411,0.03427852139229781,389.74526119998563,0.48912147768410275,89.91214699275318,-0.178101882339,3.88948154449,89.0020141602,0
27.8,14.521127033203745,0.11350556062046713,389.73729634157706,0.490000009537,90.13476865630875,-0.00634887441993,6.41410160065,90.0704040527,0
27.900000000000002,14.532624582359816,0.0828555503335265,389.7329271229573,0.490000009537,90.35334966477367,-0.00634887441993,6.41410160065,90.0704040527,0
28.0,14.544122131515888,0.05220554004658695,389.72855790433755,0.490000009537,90.5719306732386,-0.00634887441993,6.41410160065,90.0704040527,0
28.1,14.555619680671958,0.021555529759646322,389.72418868571776,0.490000009537,90.79051168170352,-0.00634887441993,6.41410160065,90.0704040527,0
28.200000000000003,14.566896772618652,-0.009118915197431755,389.7210588638251,0.48990384718820856,91.0,0.15962769964719414,6.491063283620011,90.31877095704539,0
28.3,14.573094706561134,-0.04035631543621222,389.74648375250104,0.4875921811371528,91.0,0.50637358427,6.64360046387,91.0335540771,0
28.400000000000002,14.579292640503617,-0.0715937156749938,389.77190864117694,0.48528051508609693,91.0,0.50637358427,6.64360046387,91.0335540771,0
28.5,14.5854905744461,-0.10283111591377427,389.7973335298529,0.48296884903504117,91.0,0.50637358427,6.64360046387,91.0335540771,0
28.6,14.591688508388582,-0.13406851615255586,389.8227584185288,0.4806571829839853,91.0,0.50637358427,6.64360046387,91.0335540771,0
28.700000000000003,14.607605944872727,-0.10463005502904724,389.860154390847,0.4784122312528181,91.0,0.44251142321656417,5.466041790183146,91.04715814623387,0
28.8,14.627384186893927,-0.05108977382690043,389.9023055474776,0.47619377995359424,91.0,0.421101868153,5.07036685944,91.0517196655,0
28.900000000000002,14.647162428915125,0.0024505073752482676,389.94445670410823,0.47397532865437025,91.0,0.421101868153,5.07036685944,91.0517196655,0
29.0,14.666940670936325,0.05599078857739509,389.98660786073884,0.4717568773551464,91.0,0.421101868153,5.07036685944,91.0517196655,0
29.1,14.687161905075193,0.12981171513047982,390.0264384317163,0.469999998808,90.94625266529543,0.421101868153,5.07036685944,91.0517196655,0
29.200000000000003,14.709069294526708,0.28082660640303336,390.05743618677786,0.469999998808,90.68792752810205,-0.666394293308,1.62345850468,91.7123947144,0
29.3,14.730976683978222,0.43184149767558155,390.0884339418394,0.469999998808,90.42960239090867,-0.666394293308,1.62345850468,91.7123947144,0
29.400000000000002,14.752884073429737,0.5828563889481351,390.119431696901,0.469999998808,90.17127725371529,-0.666394293308,1.62345850468,91.7123947144,0
29.5,14.773360857126328,0.6253475034322904,390.15607106490535,0.4691533297610894,89.91533301456204,-0.3850516225416285,2.307321352531056,91.28854619649026,0
29.6,14.791022750729534,0.45430494301890534,390.20381098966936,0.466640736818429,89.66407348066978,0.252820938826,3.80154752731,90.3236618042,0
29.700000000000003,14.808684644332738,0.2832623826055203,390.25155091443344,0.46412814387576856,89.41281394677752,0.252820938826,3.80154752731,90.3236618042,0
29.8,14.826346537935944,0.11221982219214133,390.29929083919745,0.4616155509331082,89.16155441288527,0.252820938826,3.80154752731,90.3236618042,0
29.900000000000002,14.85097826619043,0.08808199946589593,390.3436980418559,0.460000008345,88.90207117645319,-0.3564402715584529,5.128460837759474,89.70849535164957,0
30.0,14.888162316233846,0.3285122234764489,390.38210317955924,0.460000008345,88.62777746520486,-0.984508574009,6.48755550385,89.0706329346,0
30.1,14.925346366277264,0.5689424474870104,390.4205083172626,0.460000008345,88.35348375395652,-0.984508574009,6.48755550385,89.0706329346,0
30.200000000000003,14.962530416320682,0.809372671497572,390.4589134549659,0.460000008345,88.07919004270819,-0.984508574009,6.48755550385,89.0706329346,0
30.3,14.988461176492839,0.809797160512519,390.50289521870445,0.45835515453203884,87.83551495204928,-1.715060050146822,6.912715599263584,88.17879812052774,0
30.400000000000002,15.009824372599285,0.7128064417729186,390.5491404624544,0.45604267593953474,87.60426756144483,-1.75699937344,6.93739557266,88.0861053467,0
30.5,15.031187568705729,0.6158157230333217,390.5953857062043,0.4537301973470307,87.37302017084039,-1.75699937344,6.93739557266,88.0861053467,0
30.6,15.052550764812175,0.5188250042937212,390.64163094995416,0.4514177187545266,87.14177278023594,-1.75699937344,6.93739557266,88.0861053467,0
30.700000000000003,15.067566030030783,0.4596639383939734,390.6958221495198,0.44913873348454475,87.08612554158346,-1.538336584865219,6.265101119907344,87.81297789264008,0
30.8,15.072522980303864,0.4604440673916137,390.7626037391747,0.4469128184814663,87.30871725417701,-1.01657307148,4.66030073166,87.1649475098,0
30.900000000000002,15.077479930576947,0.46122419638925405,390.8293853288297,0.44468690347838774,87.5313089667706,-1.01657307148,4.66030073166,87.1649475098,0
31.0,15.082436880850029,0.46200432538689434,390.8961669184846,0.44246098847530924,87.75390067936415,-1.01657307148,4.66030073166,87.1649475098,0
31.1,15.087393831123112,0.4627844543845347,390.9629485081395,0.4402350734722307,87.97649239195772,-1.01657307148,4.66030073166,87.1649475098,0
31.200000000000003,15.099978118099148,0.5272515368887566,391.0144360795701,0.43806788500752536,88.57963433533966,-1.94637680054,4.48540210724,88.3045272827,0
31.3,15.113463031682334,0.5992386971199926,391.06411775199825,0.4359076309007834,89.22771118543315,-1.94637680054,4.48540210724,88.3045272827,0
31.400000000000002,15.12694794526552,0.6712258573512311,391.1137994244264,0.43374737679404135,89.87578803552665,-1.94637680054,4.48540210724,88.3045272827,0
31.5,15.140432858848706,0.7432130175824672,391.1634810968546,0.4315871226872994,90.52386488562014,-1.94637680054,4.48540210724,88.3045272827,0
31.6,15.152613446596114,0.8096213932306014,391.21167307485115,0.42922070669414486,91.0,-2.1356544778170155,4.9678968437739,88.84711985593218,0
31.700000000000003,15.161182140300285,0.860581191344304,391.255739842493,0.4262833943275161,91.0,-2.91477203369,6.87191152573,91.0650100708,0
31.8,15.169750834004459,0.9115409894580047,391.29980661013485,0.4233460819608875,91.0,-2.91477203369,6.87191152573,91.0650100708,0
31.900000000000002,15.17831952770863,0.9625007875717073,391.34387337777673,0.4204087695942588,91.0,-2.91477203369,6.87191152573,91.0650100708,0
32.0,15.195047110981793,0.7818895769729397,391.39303902847564,0.4181288330533981,90.62576887637539,-2.833668100345068,6.814880316151528,91.78097405377949,0
32.1,15.213093726821521,0.5638407102591385,391.4430290061555,0.4159551732448462,90.19103650006075,-2.8277990818,6.81078672409,91.8319396973,0
32.2,15.23114034266125,0.3457918435453373,391.49301898383527,0.41378151343629427,89.75630412374609,-2.8277990818,6.81078672409,91.8319396973,0
32.300000000000004,15.249186958500978,0.12774297683153613,391.54300896151506,0.4116078536277423,89.32157174743145,-2.8277990818,6.81078672409,91.8319396973,0
32.4,15.268140429216254,-0.054837136181030394,391.58385077605436,0.40944802555171717,89.0,-3.238262161302684,7.819999215152142,90.41541759373528,0
32.5,15.289670934982281,-0.13662469245823453,391.59869599764505,0.4073275034997257,89.0,-3.61962294579,8.7480506897,89.1096115112,0
32.6,15.31120144074831,-0.21841224873543866,391.61354121923574,0.4052069814477342,89.0,-3.61962294579,8.7480506897,89.1096115112,0
32.7,15.332731946514336,-0.3001998050126428,391.62838644082643,0.4030864593957428,89.0,-3.61962294579,8.7480506897,89.1096115112,0
32.800000000000004,15.354262452280365,-0.38198736128984695,391.6432316624171,0.4009659373437513,89.0,-3.61962294579,8.7480506897,89.1096115112,0
32.9,15.387311754837002,-0.30678231668592965,391.6362592846624,0.40000000596,89.34329195198872,-4.57510471344,5.40082931519,89.3215713501,0
33.0,15.42999769107618,-0.10023714923225618,391.61103428759793,0.40000000596,89.973782198002,-4.57510471344,5.40082931519,89.3215713501,0
33.1,15.472683627315357,0.10630801822141728,391.58580929053346,0.40000000596,90.60427244401527,-4.57510471344,5.40082931519,89.3215713501,0
33.2,15.517734124575512,0.22345522771309523,391.55567231247727,0.40089418609767136,91.0,-5.166970652008585,4.743571964741781,90.31929987975737,0
33.300000000000004,15.566770442383614,0.18990883503984918,391.5172554572706,0.4032956403275239,91.0,-5.67513465881,4.17940950394,91.167388916,0
33.4,15.615806760191715,0.15636244236660551,391.478838602064,0.40569709455737624,91.0,-5.67513465881,4.17940950394,91.167388916,0
33.5,15.66484307799982,0.12281604969335949,391.4404217468574,0.4080985487872288,91.0,-5.67513465881,4.17940950394,91.167388916,0
33.6,15.71448636186248,0.04306370217312628,391.4006561236173,0.409999996424,90.93323885381818,-5.6768615898582375,4.217736508848107,91.15314445899348,0
33.7,15.76643784362895,-0.2124027356496401,391.35576134443136,0.409999996424,90.61259540809854,-5.68091678619,4.30747509003,91.1068191528,0
33.800000000000004,15.818389325395419,-0.46786917347240653,391.31086656524536,0.409999996424,90.29195196237892,-5.68091678619,4.30747509003,91.1068191528,0
33.9,15.869588269332754,-0.6979829236077825,391.2669907045913,0.41023062672649135,90.0,-5.544004173624938,3.758463470377002,90.94336046717922,0
34.0,15.91312971806949,-0.6701188329317512,391.2334829124459,0.4128080499290525,90.0,-5.20484304428,2.3971118927,90.5400772095,0
34.1,15.956671166806226,-0.64225474225572,391.1999751203005,0.4153854731316136,90.0,-5.20484304428,2.3971118927,90.5400772095,0
34.2,16.000212615542964,-0.6143906515796888,391.1664673281551,0.41796289633417477,90.0,-5.20484304428,2.3971118927,90.5400772095,0
34.300000000000004,16.04405515767264,-0.6067559848990264,391.13158504224185,0.419999986887,90.05249310330268,-5.143512784203486,2.9494150183080876,90.35456835114469,0
34.4,16.08903284221243,-0.6753876118250959,391.09152082206884,0.419999986887,90.30288874845365,-5.1123213768,3.2295601368,90.2490615845,0
34.5,16.134010526752217,-0.7440192387511702,391.05145660189584,0.419999986887,90.55328439360464,-5.1123213768,3.2295601368,90.2490615845,0
34.6,16.178988211292005,-0.8126508656772445,391.01139238172277,0.419999986887,90.80368003875564,-5.1123213768,3.2295601368,90.2490615845,0
34.7,16.21971222157976,-0.8513497651147937,390.97743349285753,0.419999986887,91.05095196226186,-4.794043171701481,4.250418853069359,90.43967522462827,0
34.800000000000004,16.24499340980821,-0.7813788988470931,390.96563980504243,0.419999986887,91.28688331884527,-3.9624812603,6.92002296448,91.0739212036,0
34.9,16.27027459803666,-0.7114080325793974,390.9538461172273,0.419999986887,91.52281467542866,-3.9624812603,6.92002296448,91.0739212036,0
35.0,16.295555786265115,-0.6414371663116969,390.9420524294122,0.419999986887,91.75874603201208,-3.9624812603,6.92002296448,91.0739212036,0
35.1,16.320836974493567,-0.5714663000439963,390.9302587415971,0.419999986887,91.99467738859549,-3.9624812603,6.92002296448,91.0739212036,0
35.2,16.32784215081011,-0.37919390251837803,390.94476095962955,0.419999986887,92.49229615743874,-3.00041604042,10.6479024887,92.1520004272,0
35.300000000000004,16.33442550396745,-0.18409869996618727,390.959870105592,0.419999986887,92.99595485509663,-3.00041604042,10.6479024887,92.1520004272,0
35.4,16.34100885712479,0.01099650258598961,390.9749792515545,0.419999986887,93.49961355275447,-3.00041604042,10.6479024887,92.1520004272,0
35.5,16.34767949211532,0.2055231942554064,390.98995627879714,0.4200169738546314,94.00679477328225,-3.00041604042,10.6479024887,92.1520004272,0
35.6,16.367697102708387,0.3131142590615025,390.98472995712245,0.4226315763196694,95.05263363980042,-3.4579334259,15.472234726,94.6971282959,0
35.7,16.387714713301456,0.42070532386759857,390.97950363544777,0.42524617878470744,96.09847250631859,-3.4579334259,15.472234726,94.6971282959,0
35.800000000000004,16.407732323894525,0.5282963886736947,390.9742773137731,0.42786078124974547,97.14431137283675,-3.4579334259,15.472234726,94.6971282959,0
35.9,16.429935890278042,0.5471685631664301,390.96564620266616,0.4306220869397222,98.18662411400008,-4.027949102513345,18.563991816472495,96.45885617792469,0
36.0,16.46197640199342,0.16679987573200683,390.94169331439514,0.43404356682445333,99.21306905833995,-4.58165025711,21.5676498413,98.1582946777,0
36.1,16.494016913708798,-0.21356881170241648,390.9177404261241,0.43746504670918446,100.23951400267983,-4.58165025711,21.5676498413,98.1582946777,0
36.2,16.525136008573906,-0.48728808660201134,390.888171566457,0.4414777557794483,101.36943934267634,-4.567559882294013,22.26131368494463,98.36973995120029,0
36.300000000000004,16.55362039375853,-0.45605283463190616,390.84254433516537,0.4471810322167555,102.79525768712288,-4.49204349518,25.6307220459,101.060653687,0
36.4,16.582104778943147,-0.42481758266180325,390.7969171038737,0.45288430865406215,104.22107603156931,-4.49204349518,25.6307220459,101.060653687,0
36.5,16.610589164127767,-0.3935823306916981,390.75128987258205,0.4585875850913693,105.64689437601584,-4.49204349518,25.6307220459,101.060653687,0
36.6,16.64202993342656,-0.5132166980934555,390.7031290000702,0.4616025926135304,107.28206863753321,-4.01160669327,30.5178794861,106.446517944,0
36.7,16.674443857827793,-0.6825129274945674,390.6541341270407,0.46373270070771544,108.98615673807006,-4.01160669327,30.5178794861,106.446517944,0
36.800000000000004,16.706857782229026,-0.8518091568956793,390.6051392540113,0.4658628088019005,110.69024483860692,-4.01160669327,30.5178794861,106.446517944,0
36.9,16.73927170663026,-1.0211053862967792,390.5561443809819,0.46799291689608535,112.39433293914364,-4.01160669327,30.5178794861,106.446517944,0
37.0,16.771584444664413,-1.1704864172341352,390.50892790039217,0.4701752303711966,114.10513903818907,-4.01160669327,30.5178794861,106.446517944,0
37.1,16.802246401349883,-0.9949655949957656,390.49072458782973,0.4732092363383275,115.92554435458815,-2.57815551758,31.9481658936,114.847503662,0
37.2,16.832908358035354,-0.8194447727573961,390.47252127526735,0.4762432423054584,117.74594967098724,-2.57815551758,31.9481658936,114.847503662,0
37.300000000000004,16.863570314720825,-0.6439239505190266,390.4543179627049,0.47927724827258933,119.56635498738632,-2.57815551758,31.9481658936,114.847503662,0
37.4,16.898124716667684,-0.5890625651433484,390.437152418023,0.4818333534540994,121.28335232732775,-1.81813824177,33.9949874878,120.07841017338426,0
37.5,16.93389630046628,-0.5719318264248124,390.42031138714816,0.48424001731424876,122.96801361529772,-1.81813824177,33.9949874878,120.082855225,0
37.6,16.969667884264876,-0.5548010877062765,390.4034703562733,0.48664668117439813,124.65267490326771,-1.81813824177,33.9949874878,120.082855225,0
37.7,17.00543946806347,-0.5376703489877404,390.3866293253985,0.48905334503454745,126.3373361912377,-1.81813824177,33.9949874878,120.082855225,0
37.800000000000004,17.043725286144504,-0.5031427865200786,390.3530089232317,0.4912853957104883,128.15684865942603,-1.89724767208,36.4822502136,127.256980896,0
37.9,17.083641335316727,-0.45733511258394577,390.3085087661583,0.49340422708788684,130.063798717743,-1.89724767208,36.4822502136,127.256980896,0
38.0,17.12355738448895,-0.4115274386478097,390.26400860908495,0.49552305846528555,131.9707487760601,-1.89724767208,36.4822502136,127.256980896,0
38.1,17.163473433661174,-0.36571976471167367,390.2195084520116,0.49764188984268426,133.8776988343772,-1.89724767208,36.4822502136,127.256980896,0
38.2,17.2033894828334,-0.31991209077553756,390.1750082949382,0.49976072122008297,135.7846488926943,-1.89724767208,36.4822502136,127.256980896,0
38.300000000000004,17.249226468536207,-0.5030237496656448,390.13593983681716,0.5028370355033678,137.70222292543068,-1.44792199135,36.9707527161,136.297851562,0
38.400000000000006,17.29581722642443,-0.7152782687935986,390.09756286788337,0.5060352433382451,139.6211494564373,-1.44792199135,36.9707527161,136.297851562,0
38.5,17.34240798431265,-0.9275327879215373,390.05918589894964,0.5092334511731222,141.54007598744377,-1.44792199135,36.9707527161,136.297851562,0
38.6,17.37512731281105,-0.7787853130402982,390.0156808688594,0.509999990463,143.58333702622068,-1.2963360548,36.9375038147,142.4896698,0
38.7,17.40347392544078,-0.5162385242265198,389.97055931074146,0.509999990463,145.66579225759816,-1.2963360548,36.9375038147,142.4896698,0
38.800000000000004,17.43182053807051,-0.2536917354127415,389.92543775262345,0.509999990463,147.74824748897564,-1.2963360548,36.9375038147,142.4896698,0
38.900000000000006,17.45881918233532,-0.18327366820288382,389.8458537102958,0.5147825525895643,149.4347700062377,-1.6802789202565214,37.672331929993945,146.41013642016088,0
39.0,17.48563245820749,-0.1392765417421414,389.7615304949503,0.5202227976982458,151.06684509527057,-1.84073960781,37.9796714783,148.046585083,0
39.1,17.51244573407967,-0.09527941528139586,389.67720727960483,0.5256630428069277,152.69892018430352,-1.84073960781,37.9796714783,148.046585083,0
39.2,17.541922223280793,-0.21566390647754874,389.59343115368637,0.52999997139,154.38205045458807,-1.1608424893334564,37.87032894735588,151.8495076255961,0
39.300000000000004,17.581867300363133,-0.9822014458699404,389.51180553283,0.52999997139,156.26586898589687,-0.682223975658,37.7938919067,154.522781372,0
39.400000000000006,17.62181237744547,-1.7487389852623318,389.43017991197365,0.52999997139,158.1496875172057,-0.682223975658,37.7938919067,154.522781372,0
39.5,17.66172140856503,-2.489864449519426,389.3490061310257,0.52999997139,160.03499691788872,-0.682223975658,37.7938919067,154.522781372,0
39.6,17.699639864912744,-1.8276528471486542,389.2927844127592,0.52999997139,162.00263695246883,-0.0522494539618,36.1598243713,160.971328735,0
39.7,17.73755832126046,-1.1654412447778826,389.2365626944927,0.52999997139,163.97027698704892,-0.0522494539618,36.1598243713,160.971328735,0
39.800000000000004,17.775476777608176,-0.5032296424071108,389.1803409762262,0.52999997139,165.93791702162903,-0.0522494539618,36.1598243713,160.971328735,0
39.900000000000006,17.81053087995512,-0.15070312085354648,389.1330852680013,0.5290605658351384,167.75152516061885,-0.16161754769837872,35.00007094905063,163.77042653046522,0
40.0,17.842225523494488,-0.16139087799854257,389.09634534846566,0.5270193780758706,169.38447692537912,-0.290103107691,33.6952514648,167.406982422,0
40.1,17.87392016703385,-0.1720786351435394,389.05960542893,0.5249781903166028,171.0174286901395,-0.290103107691,33.6952514648,167.406982422,0
40.2,17.90561481057322,-0.18276639228853625,389.02286550939436,0.5229370025573349,172.65038045489987,-0.290103107691,33.6952514648,167.406982422,0
40.300000000000004,17.937309454112587,-0.1934541494335331,388.9861255898587,0.520895814798067,174.28333221966025,-0.290103107691,33.6952514648,167.406982422,0
40.400000000000006,17.960515991805025,-0.12145453198291113,388.972909304567,0.5170903017010433,175.72742050019372,-0.126289874315,27.6117725372,175.328918457,0
40.5,17.977083592137383,0.015218678176007389,388.97809193383205,0.511904828738841,177.02378997702706,-0.126289874315,27.6117725372,175.328918457,0
40.6,17.993651192469745,0.15189188833493564,388.98327456309704,0.5067193557766383,178.32015945386047,-0.126289874315,27.6117725372,175.328918457,0
40.7,18.010218792802103,0.2885650984938638,388.9884571923621,0.5015338828144357,179.6165289306939,-0.126289874315,27.6117725372,175.328918457,0
40.800000000000004,17.992150627505524,0.4847432611471748,389.0555310839511,0.49672290574420924,180.32770924977945,1.18151712418,22.8605041504,-179.693649292,0
